[
  {
    "name": "みずはしこども園",
    "address": "\n〒939-0521 富山県富山市水橋中村町２０３−１ みずはし保育園",
    "latitude": 36.756614,
    "longitude": 137.308822,
    "link": "https://www.google.com/maps/place/%E3%81%BF%E3%81%9A%E3%81%AF%E3%81%97%E3%81%93%E3%81%A9%E3%82%82%E5%9C%92/data=!4m7!3m6!1s0x5ff7a2a63a94cac5:0x897bc6666da06ef7!8m2!3d36.756614!4d137.308822!16s%2Fg%2F1tdk9y70!19sChIJxcqUOqai918R926gbWbGe4k?authuser=0&hl=ja&rclk=1",
    "category": "保育園"
  },
  {
    "name": "富山認定こども園",
    "address": "\n〒931-8316 富山県富山市豊丘町２８−２０",
    "latitude": 36.7276058,
    "longitude": 137.2336319,
    "link": "https://www.google.com/maps/place/%E5%AF%8C%E5%B1%B1%E8%AA%8D%E5%AE%9A%E3%81%93%E3%81%A9%E3%82%82%E5%9C%92/data=!4m7!3m6!1s0x5ff79978b4b942a3:0x937ef278fbe7c822!8m2!3d36.7276058!4d137.2336319!16s%2Fg%2F11kqjhyy09!19sChIJo0K5tHiZ918RIsjn-3jyfpM?authuser=0&hl=ja&rclk=1",
    "category": "保育園"
  },
  {
    "name": "にながわ保育園",
    "address": "\n〒939-8071 富山県富山市上袋１−１ 富山国際学園福祉会にながわ保育園",
    "latitude": 36.655685,
    "longitude": 137.221161,
    "link": "https://www.google.com/maps/place/%E3%81%AB%E3%81%AA%E3%81%8C%E3%82%8F%E4%BF%9D%E8%82%B2%E5%9C%92/data=!4m7!3m6!1s0x5ff791dd22de002f:0x9ab94d172281a008!8m2!3d36.655685!4d137.221161!16s%2Fg%2F1trpqnbr!19sChIJLwDeIt2R918RCKCBIhdNuZo?authuser=0&hl=ja&rclk=1",
    "category": "保育園"
  },
  {
    "name": "ガンバ村保育園",
    "address": "\n〒930-0992 富山県富山市新庄町２丁目１５−３３",
    "latitude": 36.6996296,
    "longitude": 137.2557219,
    "link": "https://www.google.com/maps/place/%E3%82%AC%E3%83%B3%E3%83%90%E6%9D%91%E4%BF%9D%E8%82%B2%E5%9C%92/data=!4m7!3m6!1s0x5ff790cb0691018f:0x2081813a3b5b8d51!8m2!3d36.6996296!4d137.2557219!16s%2Fg%2F11b5pjc7k5!19sChIJjwGRBsuQ918RUY1bOzqBgSA?authuser=0&hl=ja&rclk=1",
    "category": "保育園"
  },
  {
    "name": "やまむろこども園",
    "address": "\n〒939-8006 富山県富山市山室５−３",
    "latitude": 36.6733922,
    "longitude": 137.2398754,
    "link": "https://www.google.com/maps/place/%E3%82%84%E3%81%BE%E3%82%80%E3%82%8D%E3%81%93%E3%81%A9%E3%82%82%E5%9C%92/data=!4m7!3m6!1s0x5ff791a8537d0403:0x4eb5535feb9a6434!8m2!3d36.6733922!4d137.2398754!16s%2Fg%2F1v1tmyj6!19sChIJAwR9U6iR918RNGSa619TtU4?authuser=0&hl=ja&rclk=1",
    "category": "保育園"
  },
  {
    "name": "ささくら保育園",
    "address": "\n〒939-2753 富山県富山市婦中町笹倉１０６−１",
    "latitude": 36.658858,
    "longitude": 137.153285,
    "link": "https://www.google.com/maps/place/%E3%81%95%E3%81%95%E3%81%8F%E3%82%89%E4%BF%9D%E8%82%B2%E5%9C%92/data=!4m7!3m6!1s0x5ff78fbe0cf3b377:0x4ed4344ffb83f55d!8m2!3d36.658858!4d137.153285!16s%2Fg%2F1tksn67l!19sChIJd7PzDL6P918RXfWD-0801E4?authuser=0&hl=ja&rclk=1",
    "category": "保育園"
  },
  {
    "name": "まつわか保育園",
    "address": "\n〒930-0812 富山県富山市松若町１６−３７",
    "latitude": 36.7170126,
    "longitude": 137.2277352,
    "link": "https://www.google.com/maps/place/%E3%81%BE%E3%81%A4%E3%82%8F%E3%81%8B%E4%BF%9D%E8%82%B2%E5%9C%92/data=!4m7!3m6!1s0x5ff79a03adea7527:0x1826ea73b93a767d!8m2!3d36.7170126!4d137.2277352!16s%2Fg%2F1tlkc6pp!19sChIJJ3XqrQOa918RfXY6uXPqJhg?authuser=0&hl=ja&rclk=1",
    "category": "保育園"
  },
  {
    "name": "おおひろたこども園",
    "address": "\n〒931-8405 富山県富山市海岸通１６５−１",
    "latitude": 36.7559476,
    "longitude": 137.2520954,
    "link": "https://www.google.com/maps/place/%E3%81%8A%E3%81%8A%E3%81%B2%E3%82%8D%E3%81%9F%E3%81%93%E3%81%A9%E3%82%82%E5%9C%92/data=!4m7!3m6!1s0x5ff798584bf3770d:0xf5db73322b2dfde!8m2!3d36.7559476!4d137.2520954!16s%2Fg%2F1tzvwdph!19sChIJDXfzS1iY918R3t-yIjO3XQ8?authuser=0&hl=ja&rclk=1",
    "category": "保育園"
  },
  {
    "name": "富山聖マリア保育園",
    "address": "\n〒930-0065 富山県富山市星井町３丁目９−１",
    "latitude": 36.682699,
    "longitude": 137.2142119,
    "link": "https://www.google.com/maps/place/%E5%AF%8C%E5%B1%B1%E8%81%96%E3%83%9E%E3%83%AA%E3%82%A2%E4%BF%9D%E8%82%B2%E5%9C%92/data=!4m7!3m6!1s0x152fa191c5077a49:0xe8c8c923050d1397!8m2!3d36.682699!4d137.2142119!16s%2Fg%2F11b6yh4d5y!19sChIJSXoHxZGhLxURlxMNBSPJyOg?authuser=0&hl=ja&rclk=1",
    "category": "保育園"
  },
  {
    "name": "しんでん保育園",
    "address": "\n〒939-2363 富山県富山市八尾町新田２３６−２ 認定こども園しんでん保育園",
    "latitude": 36.609372,
    "longitude": 137.130412,
    "link": "https://www.google.com/maps/place/%E3%81%97%E3%82%93%E3%81%A7%E3%82%93%E4%BF%9D%E8%82%B2%E5%9C%92/data=!4m7!3m6!1s0x5ff78948ab913fbf:0xfad133f63741ed25!8m2!3d36.609372!4d137.130412!16s%2Fg%2F1tj52fwk!19sChIJvz-Rq0iJ918RJe1BN_Yz0fo?authuser=0&hl=ja&rclk=1",
    "category": "保育園"
  },
  {
    "name": "かみいいの認定こども園",
    "address": "\n〒930-0827 富山県富山市上飯野１９−２",
    "latitude": 36.7119886,
    "longitude": 137.2519588,
    "link": "https://www.google.com/maps/place/%E3%81%8B%E3%81%BF%E3%81%84%E3%81%84%E3%81%AE%E8%AA%8D%E5%AE%9A%E3%81%93%E3%81%A9%E3%82%82%E5%9C%92/data=!4m7!3m6!1s0x5ff79707a83a9d09:0x4611fff571400f84!8m2!3d36.7119886!4d137.2519588!16s%2Fg%2F11rvjd3hm_!19sChIJCZ06qAeX918RhA9AcfX_EUY?authuser=0&hl=ja&rclk=1",
    "category": "保育園"
  },
  {
    "name": "萩浦保育園",
    "address": "\n〒931-8336 富山県富山市高畠町２丁目３−２３ 子育て支援センターアップル",
    "latitude": 36.7477226,
    "longitude": 137.2306645,
    "link": "https://www.google.com/maps/place/%E8%90%A9%E6%B5%A6%E4%BF%9D%E8%82%B2%E5%9C%92/data=!4m7!3m6!1s0x5ff799a822f3dee3:0x5dc5d25ab9ece804!8m2!3d36.7477226!4d137.2306645!16s%2Fg%2F1td0y9v4!19sChIJ497zIqiZ918RBOjsuVrSxV0?authuser=0&hl=ja&rclk=1",
    "category": "保育園"
  },
  {
    "name": "めぐみこども園",
    "address": "\n〒930-0816 富山県富山市上赤江町１丁目１２−５",
    "latitude": 36.7092981,
    "longitude": 137.2319268,
    "link": "https://www.google.com/maps/place/%E3%82%81%E3%81%90%E3%81%BF%E3%81%93%E3%81%A9%E3%82%82%E5%9C%92/data=!4m7!3m6!1s0x5ff790a8c0ee05c3:0xda91ba45be079e3b!8m2!3d36.7092981!4d137.2319268!16s%2Fg%2F1tyywzds!19sChIJwwXuwKiQ918RO54HvkW6kdo?authuser=0&hl=ja&rclk=1",
    "category": "保育園"
  },
  {
    "name": "桜谷保育園",
    "address": "\n〒930-0891 富山県富山市石坂新６８−３",
    "latitude": 36.716063,
    "longitude": 137.198326,
    "link": "https://www.google.com/maps/place/%E6%A1%9C%E8%B0%B7%E4%BF%9D%E8%82%B2%E5%9C%92/data=!4m7!3m6!1s0x5ff79a3ffe351001:0xc1f72a1cf051022d!8m2!3d36.716063!4d137.198326!16s%2Fg%2F1tgd6cm0!19sChIJARA1_j-a918RLQJR8Bwq98E?authuser=0&hl=ja&rclk=1",
    "category": "保育園"
  },
  {
    "name": "大沢野こども園",
    "address": "\n〒939-2252 富山県富山市上大久保２６７−５",
    "latitude": 36.586495,
    "longitude": 137.208298,
    "link": "https://www.google.com/maps/place/%E5%A4%A7%E6%B2%A2%E9%87%8E%E3%81%93%E3%81%A9%E3%82%82%E5%9C%92/data=!4m7!3m6!1s0x5ff78c85157d0acf:0xe75b98200379b8c1!8m2!3d36.586495!4d137.208298!16s%2Fg%2F1td1pqvk!19sChIJzwp9FYWM918Rwbh5AyCYW-c?authuser=0&hl=ja&rclk=1",
    "category": "保育園"
  },
  {
    "name": "奥田保育園",
    "address": "\n〒930-0852 富山県富山市奥田寿町１０−２ 認定こども園奥田保育園",
    "latitude": 36.706745,
    "longitude": 137.217876,
    "link": "https://www.google.com/maps/place/%E5%A5%A5%E7%94%B0%E4%BF%9D%E8%82%B2%E5%9C%92/data=!4m7!3m6!1s0x5ff79a0aa0e0f34d:0x6a641ca217f98094!8m2!3d36.706745!4d137.217876!16s%2Fg%2F1vntjrjz!19sChIJTfPgoAqa918RlID5F6IcZGo?authuser=0&hl=ja&rclk=1",
    "category": "保育園"
  },
  {
    "name": "ひかり保育園",
    "address": "\n〒930-0887 富山県富山市五福５４５",
    "latitude": 36.7008672,
    "longitude": 137.1946488,
    "link": "https://www.google.com/maps/place/%E3%81%B2%E3%81%8B%E3%82%8A%E4%BF%9D%E8%82%B2%E5%9C%92/data=!4m7!3m6!1s0x5ff79a7dd622e95b:0xadbeea2ba33a5e87!8m2!3d36.7008672!4d137.1946488!16s%2Fg%2F1tjdllww!19sChIJW-ki1n2a918Rh146oyvqvq0?authuser=0&hl=ja&rclk=1",
    "category": "保育園"
  },
  {
    "name": "富山市立 大久保認定こども園",
    "address": "\n〒939-2251 富山県富山市下大久保３１１ 市立大久保保育所",
    "latitude": 36.604991,
    "longitude": 137.212958,
    "link": "https://www.google.com/maps/place/%E5%AF%8C%E5%B1%B1%E5%B8%82%E7%AB%8B+%E5%A4%A7%E4%B9%85%E4%BF%9D%E8%AA%8D%E5%AE%9A%E3%81%93%E3%81%A9%E3%82%82%E5%9C%92/data=!4m7!3m6!1s0x5ff78c501c076eb1:0xd1ae8a14ee8a7d03!8m2!3d36.604991!4d137.212958!16s%2Fg%2F1vvdv1qw!19sChIJsW4HHFCM918RA32K7hSKrtE?authuser=0&hl=ja&rclk=1",
    "category": "保育園"
  },
  {
    "name": "鵜坂保育園",
    "address": "\n〒939-2705 富山県富山市婦中町上田島２",
    "latitude": 36.6690178,
    "longitude": 137.1717951,
    "link": "https://www.google.com/maps/place/%E9%B5%9C%E5%9D%82%E4%BF%9D%E8%82%B2%E5%9C%92/data=!4m7!3m6!1s0x5ff78fe0beb8d4f5:0x7ec2ea06a907664d!8m2!3d36.6690178!4d137.1717951!16s%2Fg%2F1hbpwrftg!19sChIJ9dS4vuCP918RTWYHqQbqwn4?authuser=0&hl=ja&rclk=1",
    "category": "保育園"
  },
  {
    "name": "かたかご保育園",
    "address": "\n〒930-0887 富山県富山市五福９−４３２３",
    "latitude": 36.699709,
    "longitude": 137.183425,
    "link": "https://www.google.com/maps/place/%E3%81%8B%E3%81%9F%E3%81%8B%E3%81%94%E4%BF%9D%E8%82%B2%E5%9C%92/data=!4m7!3m6!1s0x5ff79a85e33d36ef:0x8f3d3544b58be3ba!8m2!3d36.699709!4d137.183425!16s%2Fg%2F1tfftssd!19sChIJ7zY944Wa918RuuOLtUQ1PY8?authuser=0&hl=ja&rclk=1",
    "category": "保育園"
  },
  {
    "name": "いちい保育園",
    "address": "\n〒939-8191 富山県富山市布市６８２−１",
    "latitude": 36.6446128,
    "longitude": 137.2346235,
    "link": "https://www.google.com/maps/place/%E3%81%84%E3%81%A1%E3%81%84%E4%BF%9D%E8%82%B2%E5%9C%92/data=!4m7!3m6!1s0x5ff791fed19f4ed3:0x725a32ae029a960e!8m2!3d36.6446128!4d137.2346235!16s%2Fg%2F1thq544x!19sChIJ006f0f6R918RDpaaAq4yWnI?authuser=0&hl=ja&rclk=1",
    "category": "保育園"
  },
  {
    "name": "はりはら保育園",
    "address": "\n〒931-8431 富山県富山市針原中町８４７−１",
    "latitude": 36.731449,
    "longitude": 137.2689521,
    "link": "https://www.google.com/maps/place/%E3%81%AF%E3%82%8A%E3%81%AF%E3%82%89%E4%BF%9D%E8%82%B2%E5%9C%92/data=!4m7!3m6!1s0x5ff799d67f90a909:0xe757e20da681550f!8m2!3d36.731449!4d137.2689521!16s%2Fg%2F1tj45rvs!19sChIJCamQf9aZ918RD1WBpg3iV-c?authuser=0&hl=ja&rclk=1",
    "category": "保育園"
  },
  {
    "name": "下堀こども園(幼保連携型認定こども園)",
    "address": "\n〒939-8055 富山県富山市下堀８",
    "latitude": 36.6608208,
    "longitude": 137.2279541,
    "link": "https://www.google.com/maps/place/%E4%B8%8B%E5%A0%80%E3%81%93%E3%81%A9%E3%82%82%E5%9C%92%28%E5%B9%BC%E4%BF%9D%E9%80%A3%E6%90%BA%E5%9E%8B%E8%AA%8D%E5%AE%9A%E3%81%93%E3%81%A9%E3%82%82%E5%9C%92%29/data=!4m7!3m6!1s0x5ff791804e6de33f:0xe9004858ee89954d!8m2!3d36.6608208!4d137.2279541!16s%2Fg%2F11mmnvv41s!19sChIJP-NtToCR918RTZWJ7lhIAOk?authuser=0&hl=ja&rclk=1",
    "category": "保育園"
  },
  {
    "name": "東山保育園",
    "address": "\n〒930-0142 富山県富山市吉作４３０３−１ 東山保育所",
    "latitude": 36.706454,
    "longitude": 137.1638162,
    "link": "https://www.google.com/maps/place/%E6%9D%B1%E5%B1%B1%E4%BF%9D%E8%82%B2%E5%9C%92/data=!4m7!3m6!1s0x5ff79af1c060b57b:0xf0676a6b22dc3372!8m2!3d36.706454!4d137.1638162!16s%2Fg%2F1tk_jkl7!19sChIJe7VgwPGa918RcjPcImtqZ_A?authuser=0&hl=ja&rclk=1",
    "category": "保育園"
  },
  {
    "name": "わかくさ保育園もみじの家 病児保育室さくらんぼ",
    "address": "\n〒930-0952 富山県富山市町村２１２−８",
    "latitude": 36.6767727,
    "longitude": 137.2567258,
    "link": "https://www.google.com/maps/place/%E3%82%8F%E3%81%8B%E3%81%8F%E3%81%95%E4%BF%9D%E8%82%B2%E5%9C%92%E3%82%82%E3%81%BF%E3%81%98%E3%81%AE%E5%AE%B6+%E7%97%85%E5%85%90%E4%BF%9D%E8%82%B2%E5%AE%A4%E3%81%95%E3%81%8F%E3%82%89%E3%82%93%E3%81%BC/data=!4m7!3m6!1s0x5ff7910fd6d57dfd:0x9ff9d8e39b749a90!8m2!3d36.6767727!4d137.2567258!16s%2Fg%2F1tmqg1kw!19sChIJ_X3V1g-R918RkJp0m-PY-Z8?authuser=0&hl=ja&rclk=1",
    "category": "保育園"
  },
  {
    "name": "青い鳥保育園",
    "address": "\n〒939-2252 富山県富山市上大久保８９２",
    "latitude": 36.597555,
    "longitude": 137.206384,
    "link": "https://www.google.com/maps/place/%E9%9D%92%E3%81%84%E9%B3%A5%E4%BF%9D%E8%82%B2%E5%9C%92/data=!4m7!3m6!1s0x5ff78c60b192c817:0xa300e7923d189d3b!8m2!3d36.597555!4d137.206384!16s%2Fg%2F1tdmvgmv!19sChIJF8iSsWCM918RO50YPZLnAKM?authuser=0&hl=ja&rclk=1",
    "category": "保育園"
  },
  {
    "name": "グランキッズ",
    "address": "\n〒930-0891 富山県富山市石坂３２７７−１",
    "latitude": 36.7167545,
    "longitude": 137.1999961,
    "link": "https://www.google.com/maps/place/%E3%82%B0%E3%83%A9%E3%83%B3%E3%82%AD%E3%83%83%E3%82%BA/data=!4m7!3m6!1s0x5ff79bfb1f5a23b5:0xf930a227a02c03b!8m2!3d36.7167545!4d137.1999961!16s%2Fg%2F11mwj02ch5!19sChIJtSNaH_ub918RO8ACeiIKkw8?authuser=0&hl=ja&rclk=1",
    "category": "保育園"
  },
  {
    "name": "四方こども園",
    "address": "\n〒930-2243 富山県富山市四方６０８−１ 認定こども園四方こども園",
    "latitude": 36.7555077,
    "longitude": 137.195921,
    "link": "https://www.google.com/maps/place/%E5%9B%9B%E6%96%B9%E3%81%93%E3%81%A9%E3%82%82%E5%9C%92/data=!4m7!3m6!1s0x5ff7993f5399cf8d:0x49215e8acc030822!8m2!3d36.7555077!4d137.195921!16s%2Fg%2F1vntjrjs!19sChIJjc-ZUz-Z918RIggDzIpeIUk?authuser=0&hl=ja&rclk=1",
    "category": "保育園"
  },
  {
    "name": "ニチイキッズとやま光陽保育園",
    "address": "\n〒939-8211 富山県富山市二口町１丁目２−４",
    "latitude": 36.6737771,
    "longitude": 137.2036558,
    "link": "https://www.google.com/maps/place/%E3%83%8B%E3%83%81%E3%82%A4%E3%82%AD%E3%83%83%E3%82%BA%E3%81%A8%E3%82%84%E3%81%BE%E5%85%89%E9%99%BD%E4%BF%9D%E8%82%B2%E5%9C%92/data=!4m7!3m6!1s0x5ff790383cb31e13:0xedd57c113832e3ef!8m2!3d36.6737771!4d137.2036558!16s%2Fg%2F11f2_wrgl7!19sChIJEx6zPDiQ918R7-MyOBF81e0?authuser=0&hl=ja&rclk=1",
    "category": "保育園"
  },
  {
    "name": "光陽もなみ保育園",
    "address": "\n〒939-8208 富山県富山市布瀬町南２丁目３−６",
    "latitude": 36.6766535,
    "longitude": 137.2043339,
    "link": "https://www.google.com/maps/place/%E5%85%89%E9%99%BD%E3%82%82%E3%81%AA%E3%81%BF%E4%BF%9D%E8%82%B2%E5%9C%92/data=!4m7!3m6!1s0x5ff7904710c9cf0d:0x159f874e982bb2c0!8m2!3d36.6766535!4d137.2043339!16s%2Fg%2F1tjkfn8r!19sChIJDc_JEEeQ918RwLIrmE6HnxU?authuser=0&hl=ja&rclk=1",
    "category": "保育園"
  },
  {
    "name": "新庄 さくら保育園",
    "address": "\n〒930-0991 富山県富山市新庄銀座２丁目７−１２ 新庄さくら保育園",
    "latitude": 36.7120581,
    "longitude": 137.2633092,
    "link": "https://www.google.com/maps/place/%E6%96%B0%E5%BA%84+%E3%81%95%E3%81%8F%E3%82%89%E4%BF%9D%E8%82%B2%E5%9C%92/data=!4m7!3m6!1s0x5ff797460686f89d:0x7c954baec1d37635!8m2!3d36.7120581!4d137.2633092!16s%2Fg%2F11b5pjfn19!19sChIJnfiGBkaX918RNXbTwa5LlXw?authuser=0&hl=ja&rclk=1",
    "category": "保育園"
  },
  {
    "name": "富山市立 雲雀ケ丘保育所",
    "address": "\n〒930-0086 富山県富山市鹿島町１丁目３−１６ 市立雲雀ケ丘保育所",
    "latitude": 36.691769,
    "longitude": 137.204534,
    "link": "https://www.google.com/maps/place/%E5%AF%8C%E5%B1%B1%E5%B8%82%E7%AB%8B+%E9%9B%B2%E9%9B%80%E3%82%B1%E4%B8%98%E4%BF%9D%E8%82%B2%E6%89%80/data=!4m7!3m6!1s0x5ff7907d2cea977f:0x78b0a40d7ce9bc09!8m2!3d36.691769!4d137.204534!16s%2Fg%2F1td5fzgz!19sChIJf5fqLH2Q918RCbzpfA2ksHg?authuser=0&hl=ja&rclk=1",
    "category": "保育園"
  },
  {
    "name": "上滝保育園",
    "address": "\n〒930-1312 富山県富山市上滝４９９ 上滝子育て支援センターたんぽぽ",
    "latitude": 36.6101221,
    "longitude": 137.3003031,
    "link": "https://www.google.com/maps/place/%E4%B8%8A%E6%BB%9D%E4%BF%9D%E8%82%B2%E5%9C%92/data=!4m7!3m6!1s0x5ff792a6618ed61d:0x1a3b165f38b89192!8m2!3d36.6101221!4d137.3003031!16s%2Fg%2F1td76f49!19sChIJHdaOYaaS918RkpG4OF8WOxo?authuser=0&hl=ja&rclk=1",
    "category": "保育園"
  },
  {
    "name": "愛和こども園",
    "address": "\n〒939-3552 富山県富山市水橋肘崎５７−１",
    "latitude": 36.7312191,
    "longitude": 137.2930316,
    "link": "https://www.google.com/maps/place/%E6%84%9B%E5%92%8C%E3%81%93%E3%81%A9%E3%82%82%E5%9C%92/data=!4m7!3m6!1s0x5ff7978528393231:0xeda9f059aa1467!8m2!3d36.7312191!4d137.2930316!16s%2Fg%2F1tdm3l1m!19sChIJMTI5KIWX918RZxSqWfCp7QA?authuser=0&hl=ja&rclk=1",
    "category": "保育園"
  },
  {
    "name": "社会福祉法人 富山城南会 婦中もなみ保育園",
    "address": "\n〒939-2603 富山県富山市婦中町羽根１１３６−１ 婦中もなみ保育園",
    "latitude": 36.6588592,
    "longitude": 137.1401062,
    "link": "https://www.google.com/maps/place/%E7%A4%BE%E4%BC%9A%E7%A6%8F%E7%A5%89%E6%B3%95%E4%BA%BA+%E5%AF%8C%E5%B1%B1%E5%9F%8E%E5%8D%97%E4%BC%9A+%E5%A9%A6%E4%B8%AD%E3%82%82%E3%81%AA%E3%81%BF%E4%BF%9D%E8%82%B2%E5%9C%92/data=!4m7!3m6!1s0x5ff78f9a2db7a505:0xe870933423caab1f!8m2!3d36.6588592!4d137.1401062!16s%2Fg%2F1wbf_7s8!19sChIJBaW3LZqP918RH6vKIzSTcOg?authuser=0&hl=ja&rclk=1",
    "category": "保育園"
  },
  {
    "name": "常盤台保育園",
    "address": "\n〒930-0951 富山県富山市経堂３６７−２ 認定こども園常盤台保育園",
    "latitude": 36.6913774,
    "longitude": 137.2524156,
    "link": "https://www.google.com/maps/place/%E5%B8%B8%E7%9B%A4%E5%8F%B0%E4%BF%9D%E8%82%B2%E5%9C%92/data=!4m7!3m6!1s0x5ff790dc3fb87573:0x5c365350da02043e!8m2!3d36.6913774!4d137.2524156!16s%2Fg%2F1vgqcyq4!19sChIJc3W4P9yQ918RPgQC2lBTNlw?authuser=0&hl=ja&rclk=1",
    "category": "保育園"
  },
  {
    "name": "なでしこ保育園",
    "address": "\n〒930-0856 富山県富山市牛島新町７−３",
    "latitude": 36.702048,
    "longitude": 137.216512,
    "link": "https://www.google.com/maps/place/%E3%81%AA%E3%81%A7%E3%81%97%E3%81%93%E4%BF%9D%E8%82%B2%E5%9C%92/data=!4m7!3m6!1s0x5ff7909ea8a1b6c7:0x3a2adf7a39adcef1!8m2!3d36.702048!4d137.216512!16s%2Fg%2F1tdx3zx9!19sChIJx7ahqJ6Q918R8c6tOXrfKjo?authuser=0&hl=ja&rclk=1",
    "category": "保育園"
  },
  {
    "name": "のぞみ保育園",
    "address": "\n〒930-0017 富山県富山市東田地方町１丁目５−２７",
    "latitude": 36.6948188,
    "longitude": 137.2194454,
    "link": "https://www.google.com/maps/place/%E3%81%AE%E3%81%9E%E3%81%BF%E4%BF%9D%E8%82%B2%E5%9C%92/data=!4m7!3m6!1s0x5ff7908e17b0a60b:0x65bdfb9822f487dd!8m2!3d36.6948188!4d137.2194454!16s%2Fg%2F1thxkxys!19sChIJC6awF46Q918R3Yf0Ipj7vWU?authuser=0&hl=ja&rclk=1",
    "category": "保育園"
  },
  {
    "name": "わかくさ保育園もみじの家",
    "address": "\n〒930-0952 富山県富山市町村２１２−８",
    "latitude": 36.6767688,
    "longitude": 137.2567246,
    "link": "https://www.google.com/maps/place/%E3%82%8F%E3%81%8B%E3%81%8F%E3%81%95%E4%BF%9D%E8%82%B2%E5%9C%92%E3%82%82%E3%81%BF%E3%81%98%E3%81%AE%E5%AE%B6/data=!4m7!3m6!1s0x5ff791102de630d1:0xb7e62fcbd11c53e8!8m2!3d36.6767688!4d137.2567246!16s%2Fg%2F1ts_6g30!19sChIJ0TDmLRCR918R6FMc0csv5rc?authuser=0&hl=ja&rclk=1",
    "category": "保育園"
  },
  {
    "name": "公財)鉄道弘済会 若竹保育園",
    "address": "\n〒931-8316 富山県富山市豊丘町２８−２０ 鉄道弘済会 富山保育所",
    "latitude": 36.7276184,
    "longitude": 137.23328,
    "link": "https://www.google.com/maps/place/%E5%85%AC%E8%B2%A1%29%E9%89%84%E9%81%93%E5%BC%98%E6%B8%88%E4%BC%9A+%E8%8B%A5%E7%AB%B9%E4%BF%9D%E8%82%B2%E5%9C%92/data=!4m7!3m6!1s0x5ff799edc33d4271:0xea5f1f16329f0df6!8m2!3d36.7276184!4d137.23328!16s%2Fg%2F1tjv3c4s!19sChIJcUI9w-2Z918R9g2fMhYfX-o?authuser=0&hl=ja&rclk=1",
    "category": "保育園"
  },
  {
    "name": "ガンバ村保育園petit",
    "address": "\n〒931-8435 富山県富山市小西１７０",
    "latitude": 36.7249867,
    "longitude": 137.2574789,
    "link": "https://www.google.com/maps/place/%E3%82%AC%E3%83%B3%E3%83%90%E6%9D%91%E4%BF%9D%E8%82%B2%E5%9C%92petit/data=!4m7!3m6!1s0x5ff79954992278cb:0x661f0fa7e0bb8d61!8m2!3d36.7249867!4d137.2574789!16s%2Fg%2F11fmf41gkt!19sChIJy3gimVSZ918RYY274KcPH2Y?authuser=0&hl=ja&rclk=1",
    "category": "保育園"
  },
  {
    "name": "おおしょう保育園",
    "address": "\n〒930-1331 富山県富山市田畠４９３−２ 認定こども園おおしょう保育園",
    "latitude": 36.618479,
    "longitude": 137.278649,
    "link": "https://www.google.com/maps/place/%E3%81%8A%E3%81%8A%E3%81%97%E3%82%87%E3%81%86%E4%BF%9D%E8%82%B2%E5%9C%92/data=!4m7!3m6!1s0x5ff792828bc76529:0x16f416030f47ee61!8m2!3d36.618479!4d137.278649!16s%2Fg%2F1tgb763k!19sChIJKWXHi4KS918RYe5HDwMW9BY?authuser=0&hl=ja&rclk=1",
    "category": "保育園"
  },
  {
    "name": "わかば保育園",
    "address": "\n〒939-8072 富山県富山市堀川町５５",
    "latitude": 36.6603389,
    "longitude": 137.2222234,
    "link": "https://www.google.com/maps/place/%E3%82%8F%E3%81%8B%E3%81%B0%E4%BF%9D%E8%82%B2%E5%9C%92/data=!4m7!3m6!1s0x5ff791c5a4aa918d:0x83bc10f7579068c4!8m2!3d36.6603389!4d137.2222234!16s%2Fg%2F11b8vdq83g!19sChIJjZGqpMWR918RxGiQV_cQvIM?authuser=0&hl=ja&rclk=1",
    "category": "保育園"
  },
  {
    "name": "わかくさ保育園",
    "address": "\n〒930-0952 富山県富山市町村３４１−１",
    "latitude": 36.6762989,
    "longitude": 137.2579281,
    "link": "https://www.google.com/maps/place/%E3%82%8F%E3%81%8B%E3%81%8F%E3%81%95%E4%BF%9D%E8%82%B2%E5%9C%92/data=!4m7!3m6!1s0x5ff7910047d134a9:0x99e49e02d30f65da!8m2!3d36.6762989!4d137.2579281!16s%2Fg%2F11y3dctn0l!19sChIJqTTRRwCR918R2mUP0wKe5Jk?authuser=0&hl=ja&rclk=1",
    "category": "保育園"
  },
  {
    "name": "藤ノ木こども園",
    "address": "\n〒930-0936 富山県富山市藤木１２９１",
    "latitude": 36.687942,
    "longitude": 137.2680808,
    "link": "https://www.google.com/maps/place/%E8%97%A4%E3%83%8E%E6%9C%A8%E3%81%93%E3%81%A9%E3%82%82%E5%9C%92/data=!4m7!3m6!1s0x5ff79125ddce1e15:0x444ff79f4f7f1877!8m2!3d36.687942!4d137.2680808!16s%2Fg%2F1vcjm2wh!19sChIJFR7O3SWR918Rdxh_T5_3T0Q?authuser=0&hl=ja&rclk=1",
    "category": "保育園"
  },
  {
    "name": "富山市役所 保育所岩瀬保育所",
    "address": "\n〒931-8341 富山県富山市岩瀬御蔵町１−１",
    "latitude": 36.7546137,
    "longitude": 137.2304985,
    "link": "https://www.google.com/maps/place/%E5%AF%8C%E5%B1%B1%E5%B8%82%E5%BD%B9%E6%89%80+%E4%BF%9D%E8%82%B2%E6%89%80%E5%B2%A9%E7%80%AC%E4%BF%9D%E8%82%B2%E6%89%80/data=!4m7!3m6!1s0x5ff7990249b9e8af:0xf8700a8348f0cd78!8m2!3d36.7546137!4d137.2304985!16s%2Fg%2F11hyl63rcz!19sChIJr-i5SQKZ918ReM3wSIMKcPg?authuser=0&hl=ja&rclk=1",
    "category": "保育園"
  },
  {
    "name": "富山市立豊田保育所",
    "address": "\n〒931-8312 富山県富山市豊田本町１丁目２−３",
    "latitude": 36.7300252,
    "longitude": 137.2346575,
    "link": "https://www.google.com/maps/place/%E5%AF%8C%E5%B1%B1%E5%B8%82%E7%AB%8B%E8%B1%8A%E7%94%B0%E4%BF%9D%E8%82%B2%E6%89%80/data=!4m7!3m6!1s0x5ff799ec86c55b01:0xe159077c53053e01!8m2!3d36.7300252!4d137.2346575!16s%2Fg%2F11c594rfjy!19sChIJAVvFhuyZ918RAT4FU3wHWeE?authuser=0&hl=ja&rclk=1",
    "category": "保育園"
  },
  {
    "name": "都市型保育園ポポラー富山山室園",
    "address": "\n〒939-8006 富山県富山市山室226番地2 グリーンモール山室 保育園棟",
    "latitude": 36.6781824,
    "longitude": 137.234587,
    "link": "https://www.google.com/maps/place/%E9%83%BD%E5%B8%82%E5%9E%8B%E4%BF%9D%E8%82%B2%E5%9C%92%E3%83%9D%E3%83%9D%E3%83%A9%E3%83%BC%E5%AF%8C%E5%B1%B1%E5%B1%B1%E5%AE%A4%E5%9C%92/data=!4m7!3m6!1s0x5ff791da45deb16d:0xcf6c8d7af15f0baa!8m2!3d36.6781824!4d137.234587!16s%2Fg%2F11fkq66p66!19sChIJbbHeRdqR918Rqgtf8XqNbM8?authuser=0&hl=ja&rclk=1",
    "category": "保育園"
  },
  {
    "name": "ジョリーキッズインターナショナルスクール（英語保育/幼稚園）",
    "address": "\n〒939-8216 富山県富山市黒瀬北町２丁目９−７",
    "latitude": 36.6650025,
    "longitude": 137.2029844,
    "link": "https://www.google.com/maps/place/%E3%82%B8%E3%83%A7%E3%83%AA%E3%83%BC%E3%82%AD%E3%83%83%E3%82%BA%E3%82%A4%E3%83%B3%E3%82%BF%E3%83%BC%E3%83%8A%E3%82%B7%E3%83%A7%E3%83%8A%E3%83%AB%E3%82%B9%E3%82%AF%E3%83%BC%E3%83%AB%EF%BC%88%E8%8B%B1%E8%AA%9E%E4%BF%9D%E8%82%B2%2F%E5%B9%BC%E7%A8%9A%E5%9C%92%EF%BC%89/data=!4m7!3m6!1s0x5ff791130fefc45d:0xc55e33ab8d728ca!8m2!3d36.6650025!4d137.2029844!16s%2Fg%2F11n01b9yrj!19sChIJXcTvDxOR918RyijXuDrjVQw?authuser=0&hl=ja&rclk=1",
    "category": "保育園"
  },
  {
    "name": "わかば福祉会 石金こども園",
    "address": "\n〒930-0966 富山県富山市石金３丁目２−３７ 市立石金保育所",
    "latitude": 36.6868062,
    "longitude": 137.2374697,
    "link": "https://www.google.com/maps/place/%E3%82%8F%E3%81%8B%E3%81%B0%E7%A6%8F%E7%A5%89%E4%BC%9A+%E7%9F%B3%E9%87%91%E3%81%93%E3%81%A9%E3%82%82%E5%9C%92/data=!4m7!3m6!1s0x5ff790e539f79257:0x5021de8d952a1e4!8m2!3d36.6868062!4d137.2374697!16s%2Fg%2F11dz_pnmf3!19sChIJV5L3OeWQ918R5KFS2egdAgU?authuser=0&hl=ja&rclk=1",
    "category": "保育園"
  },
  {
    "name": "富山市立 古里保育所",
    "address": "\n〒939-2603 富山県富山市婦中町羽根１５２−１ 市立古里保育所",
    "latitude": 36.654728,
    "longitude": 137.130773,
    "link": "https://www.google.com/maps/place/%E5%AF%8C%E5%B1%B1%E5%B8%82%E7%AB%8B+%E5%8F%A4%E9%87%8C%E4%BF%9D%E8%82%B2%E6%89%80/data=!4m7!3m6!1s0x5ff78f76714c8d6f:0x71a892d8d2d8d387!8m2!3d36.654728!4d137.130773!16s%2Fg%2F1tdgk32t!19sChIJb41McXaP918Rh9PY0tiSqHE?authuser=0&hl=ja&rclk=1",
    "category": "保育園"
  },
  {
    "name": "ＴＬＣキッズクラブ（英語幼稚園・認可外保育施設）",
    "address": "\n〒939-8094 富山県富山市大泉本町１丁目９−１１",
    "latitude": 36.6770296,
    "longitude": 137.2234068,
    "link": "https://www.google.com/maps/place/%EF%BC%B4%EF%BC%AC%EF%BC%A3%E3%82%AD%E3%83%83%E3%82%BA%E3%82%AF%E3%83%A9%E3%83%96%EF%BC%88%E8%8B%B1%E8%AA%9E%E5%B9%BC%E7%A8%9A%E5%9C%92%E3%83%BB%E8%AA%8D%E5%8F%AF%E5%A4%96%E4%BF%9D%E8%82%B2%E6%96%BD%E8%A8%AD%EF%BC%89/data=!4m7!3m6!1s0x5ff79053d257e93b:0x61a7e99718691c88!8m2!3d36.6770296!4d137.2234068!16s%2Fg%2F11f345ps2f!19sChIJO-lX0lOQ918RiBxpGJfpp2E?authuser=0&hl=ja&rclk=1",
    "category": "保育園"
  },
  {
    "name": "神明こども園",
    "address": "\n〒930-0866 富山県富山市高田９１−２",
    "latitude": 36.684972,
    "longitude": 137.1867457,
    "link": "https://www.google.com/maps/place/%E7%A5%9E%E6%98%8E%E3%81%93%E3%81%A9%E3%82%82%E5%9C%92/data=!4m7!3m6!1s0x5ff79072c0b9a5bb:0x58376130781e469a!8m2!3d36.684972!4d137.1867457!16s%2Fg%2F1v3lpt3q!19sChIJu6W5wHKQ918RmkYeeDBhN1g?authuser=0&hl=ja&rclk=1",
    "category": "保育園"
  },
  {
    "name": "わかばさくらんぼ園",
    "address": "\n〒930-0005 富山県富山市新桜町６−１５ Toyama Sakuraビル 1階",
    "latitude": 36.6968852,
    "longitude": 137.2136533,
    "link": "https://www.google.com/maps/place/%E3%82%8F%E3%81%8B%E3%81%B0%E3%81%95%E3%81%8F%E3%82%89%E3%82%93%E3%81%BC%E5%9C%92/data=!4m7!3m6!1s0x5ff79085134827dd:0xf9353d9b617194f3!8m2!3d36.6968852!4d137.2136533!16s%2Fg%2F11rgr0jfsb!19sChIJ3SdIE4WQ918R85RxYZs9Nfk?authuser=0&hl=ja&rclk=1",
    "category": "保育園"
  },
  {
    "name": "長岡保育所",
    "address": "\n〒930-0111 富山県富山市長岡９３９７−６ 市立長岡保育所",
    "latitude": 36.7188201,
    "longitude": 137.1908483,
    "link": "https://www.google.com/maps/place/%E9%95%B7%E5%B2%A1%E4%BF%9D%E8%82%B2%E6%89%80/data=!4m7!3m6!1s0x5ff79a476dc03607:0x3c5fb9871903675c!8m2!3d36.7188201!4d137.1908483!16s%2Fg%2F1tgd6cm1!19sChIJBzbAbUea918RXGcDGYe5Xzw?authuser=0&hl=ja&rclk=1",
    "category": "保育園"
  },
  {
    "name": "西田地方保育園",
    "address": "\n〒939-8202 富山県富山市西田地方町２丁目１０−３０",
    "latitude": 36.6822014,
    "longitude": 137.2075223,
    "link": "https://www.google.com/maps/place/%E8%A5%BF%E7%94%B0%E5%9C%B0%E6%96%B9%E4%BF%9D%E8%82%B2%E5%9C%92/data=!4m7!3m6!1s0x5ff790661e919a09:0x5b8bcd5a92bede36!8m2!3d36.6822014!4d137.2075223!16s%2Fg%2F1wg5xvz5!19sChIJCZqRHmaQ918RNt6-klrNi1s?authuser=0&hl=ja&rclk=1",
    "category": "保育園"
  },
  {
    "name": "社福)わかくさ福祉会 じんぼ保育園",
    "address": "\n〒939-2612 富山県富山市婦中町上吉川４００ 認定こども園じんぼ保育園",
    "latitude": 36.639288,
    "longitude": 137.1365529,
    "link": "https://www.google.com/maps/place/%E7%A4%BE%E7%A6%8F%29%E3%82%8F%E3%81%8B%E3%81%8F%E3%81%95%E7%A6%8F%E7%A5%89%E4%BC%9A+%E3%81%98%E3%82%93%E3%81%BC%E4%BF%9D%E8%82%B2%E5%9C%92/data=!4m7!3m6!1s0x5ff78f1bfe9f7f67:0xe9caf0cec40a80f6!8m2!3d36.639288!4d137.1365529!16s%2Fg%2F1tgqj87w!19sChIJZ3-f_huP918R9oAKxM7wyuk?authuser=0&hl=ja&rclk=1",
    "category": "保育園"
  },
  {
    "name": "企業主導型保育園 ありさわくらす",
    "address": "\n〒930-0862 富山県富山市有沢２６１",
    "latitude": 36.685673,
    "longitude": 137.188956,
    "link": "https://www.google.com/maps/place/%E4%BC%81%E6%A5%AD%E4%B8%BB%E5%B0%8E%E5%9E%8B%E4%BF%9D%E8%82%B2%E5%9C%92+%E3%81%82%E3%82%8A%E3%81%95%E3%82%8F%E3%81%8F%E3%82%89%E3%81%99/data=!4m7!3m6!1s0x5ff791a5bcd958d5:0x69bc87a552169c71!8m2!3d36.685673!4d137.188956!16s%2Fg%2F11r747nt9j!19sChIJ1VjZvKWR918RcZwWUqWHvGk?authuser=0&hl=ja&rclk=1",
    "category": "保育園"
  },
  {
    "name": "富山市立 山田保育所",
    "address": "\n〒930-2124 富山県富山市山田中村１０００",
    "latitude": 36.586686,
    "longitude": 137.080478,
    "link": "https://www.google.com/maps/place/%E5%AF%8C%E5%B1%B1%E5%B8%82%E7%AB%8B+%E5%B1%B1%E7%94%B0%E4%BF%9D%E8%82%B2%E6%89%80/data=!4m7!3m6!1s0x5ff789eca6ad401f:0x8a2d14987e87dd!8m2!3d36.586686!4d137.080478!16s%2Fg%2F1tgn4l4w!19sChIJH0CtpuyJ918R3Yd-mBQtigA?authuser=0&hl=ja&rclk=1",
    "category": "保育園"
  },
  {
    "name": "船峅保育所",
    "address": "\n〒939-2206 富山県富山市坂本４８２ 市立船峅保育所",
    "latitude": 36.583729,
    "longitude": 137.2219821,
    "link": "https://www.google.com/maps/place/%E8%88%B9%E5%B3%85%E4%BF%9D%E8%82%B2%E6%89%80/data=!4m7!3m6!1s0x5ff78c9648efa77b:0x8fa8fb73dad863c4!8m2!3d36.583729!4d137.2219821!16s%2Fg%2F1tdc0h9s!19sChIJe6fvSJaM918RxGPY2nP7qI8?authuser=0&hl=ja&rclk=1",
    "category": "保育園"
  },
  {
    "name": "若杉愛児保育園",
    "address": "\n〒930-0314 富山県中新川郡上市町若杉５２−４",
    "latitude": 36.7061532,
    "longitude": 137.3571859,
    "link": "https://www.google.com/maps/place/%E8%8B%A5%E6%9D%89%E6%84%9B%E5%85%90%E4%BF%9D%E8%82%B2%E5%9C%92/data=!4m7!3m6!1s0x5ff7966d964df035:0xedfb749fd3efec22!8m2!3d36.7061532!4d137.3571859!16s%2Fg%2F1tj1ry9s!19sChIJNfBNlm2W918RIuzv0590--0?authuser=0&hl=ja&rclk=1",
    "category": "保育園"
  },
  {
    "name": "おやとこ保育園",
    "address": "\n〒930-0026 富山県富山市八人町8番地10 号 2階",
    "latitude": 36.6920451,
    "longitude": 137.2167866,
    "link": "https://www.google.com/maps/place/%E3%81%8A%E3%82%84%E3%81%A8%E3%81%93%E4%BF%9D%E8%82%B2%E5%9C%92/data=!4m7!3m6!1s0x5ff7916f5cc8ace3:0x1181bb2bb0b17c5b!8m2!3d36.6920451!4d137.2167866!16s%2Fg%2F11syr_yxgx!19sChIJ46zIXG-R918RW3yxsCu7gRE?authuser=0&hl=ja&rclk=1",
    "category": "保育園"
  },
  {
    "name": "愛宕保育所",
    "address": "\n〒930-0091 富山県富山市愛宕町１丁目２−番2号",
    "latitude": 36.6993842,
    "longitude": 137.2064264,
    "link": "https://www.google.com/maps/place/%E6%84%9B%E5%AE%95%E4%BF%9D%E8%82%B2%E6%89%80/data=!4m7!3m6!1s0x5ff79a7816e9f6c3:0x54b438701d8f177a!8m2!3d36.6993842!4d137.2064264!16s%2Fg%2F1whdj64q!19sChIJw_bpFnia918RehePHXA4tFQ?authuser=0&hl=ja&rclk=1",
    "category": "保育園"
  },
  {
    "name": "ふなはしこども園",
    "address": "\n〒930-0289 富山県中新川郡舟橋村竹内３４６−１",
    "latitude": 36.7019967,
    "longitude": 137.3050633,
    "link": "https://www.google.com/maps/place/%E3%81%B5%E3%81%AA%E3%81%AF%E3%81%97%E3%81%93%E3%81%A9%E3%82%82%E5%9C%92/data=!4m7!3m6!1s0x5ff796e69bbc209b:0xbeb4d2e5aae25cce!8m2!3d36.7019967!4d137.3050633!16s%2Fg%2F11g4jrx23m!19sChIJmyC8m-aW918RzlziquXStL4?authuser=0&hl=ja&rclk=1",
    "category": "保育園"
  },
  {
    "name": "にこっと保育園",
    "address": "\n〒930-0006 富山県富山市新総曲輪１−７",
    "latitude": 36.6947853,
    "longitude": 137.2117485,
    "link": "https://www.google.com/maps/place/%E3%81%AB%E3%81%93%E3%81%A3%E3%81%A8%E4%BF%9D%E8%82%B2%E5%9C%92/data=!4m7!3m6!1s0x5ff79085fd8234e9:0xe0e2727358bc570d!8m2!3d36.6947853!4d137.2117485!16s%2Fg%2F11sdf4kwt3!19sChIJ6TSC_YWQ918RDVe8WHNy4uA?authuser=0&hl=ja&rclk=1",
    "category": "保育園"
  },
  {
    "name": "たんぽぽ園",
    "address": "\n〒939-3523 富山県富山市水橋池田舘１７−２",
    "latitude": 36.7439848,
    "longitude": 137.3039589,
    "link": "https://www.google.com/maps/place/%E3%81%9F%E3%82%93%E3%81%BD%E3%81%BD%E5%9C%92/data=!4m7!3m6!1s0x5ff797f633bd1a31:0xc56b05ace8b56079!8m2!3d36.7439848!4d137.3039589!16s%2Fg%2F1tg67z47!19sChIJMRq9M_aX918ReWC16KwFa8U?authuser=0&hl=ja&rclk=1",
    "category": "保育園"
  },
  {
    "name": "新庄保育所",
    "address": "\n〒930-0992 富山県富山市新庄町３丁目４−２０ 市立新庄保育所",
    "latitude": 36.6983944,
    "longitude": 137.2523448,
    "link": "https://www.google.com/maps/place/%E6%96%B0%E5%BA%84%E4%BF%9D%E8%82%B2%E6%89%80/data=!4m7!3m6!1s0x5ff790cf418093b7:0xfeed78f706be4687!8m2!3d36.6983944!4d137.2523448!16s%2Fg%2F1vbl7fjb!19sChIJt5OAQc-Q918Rh0a-Bvd47f4?authuser=0&hl=ja&rclk=1",
    "category": "保育園"
  },
  {
    "name": "新湊つくりみちこども園",
    "address": "\n〒934-0044 富山県射水市殿村１１５",
    "latitude": 36.7480296,
    "longitude": 137.0911938,
    "link": "https://www.google.com/maps/place/%E6%96%B0%E6%B9%8A%E3%81%A4%E3%81%8F%E3%82%8A%E3%81%BF%E3%81%A1%E3%81%93%E3%81%A9%E3%82%82%E5%9C%92/data=!4m7!3m6!1s0x5ff79cf72e84e5f3:0xb6fa33e9d478a641!8m2!3d36.7480296!4d137.0911938!16s%2Fg%2F1tv23_l6!19sChIJ8-WELvec918RQaZ41Okz-rY?authuser=0&hl=ja&rclk=1",
    "category": "保育園"
  },
  {
    "name": "さくらキッズステーション",
    "address": "\n〒939-8214 富山県富山市黒崎２９１",
    "latitude": 36.6524858,
    "longitude": 137.2073393,
    "link": "https://www.google.com/maps/place/%E3%81%95%E3%81%8F%E3%82%89%E3%82%AD%E3%83%83%E3%82%BA%E3%82%B9%E3%83%86%E3%83%BC%E3%82%B7%E3%83%A7%E3%83%B3/data=!4m7!3m6!1s0x5ff78f2ac54fe88d:0xdb0d996324f833c6!8m2!3d36.6524858!4d137.2073393!16s%2Fg%2F11r34t7bcd!19sChIJjehPxSqP918RxjP4JGOZDds?authuser=0&hl=ja&rclk=1",
    "category": "保育園"
  },
  {
    "name": "藤ノ木保育所",
    "address": "\n〒930-0936 富山県富山市藤木１２７４ 藤ノ木こども園ふじのきナーサリー",
    "latitude": 36.687093,
    "longitude": 137.269181,
    "link": "https://www.google.com/maps/place/%E8%97%A4%E3%83%8E%E6%9C%A8%E4%BF%9D%E8%82%B2%E6%89%80/data=!4m7!3m6!1s0x5ff79125a521e995:0x4ae4a5376049e6bb!8m2!3d36.687093!4d137.269181!16s%2Fg%2F1tdcltf0!19sChIJlekhpSWR918Ru-ZJYDel5Eo?authuser=0&hl=ja&rclk=1",
    "category": "保育園"
  },
  {
    "name": "紅葉ガ丘 町村保育園",
    "address": "\n〒930-0952 富山県富山市町村２丁目",
    "latitude": 36.6798375,
    "longitude": 137.260451,
    "link": "https://www.google.com/maps/place/%E7%B4%85%E8%91%89%E3%82%AC%E4%B8%98+%E7%94%BA%E6%9D%91%E4%BF%9D%E8%82%B2%E5%9C%92/data=!4m7!3m6!1s0x5ff79119f0da9eb5:0x89c6ed93eec0071!8m2!3d36.6798375!4d137.260451!16s%2Fg%2F11jt9v699g!19sChIJtZ7a8BmR918RcQDsPtlunAg?authuser=0&hl=ja&rclk=1",
    "category": "保育園"
  },
  {
    "name": "どんぐり山共同保育園",
    "address": "\n〒930-0103 富山県富山市北代５１６５",
    "latitude": 36.713043,
    "longitude": 137.185055,
    "link": "https://www.google.com/maps/place/%E3%81%A9%E3%82%93%E3%81%90%E3%82%8A%E5%B1%B1%E5%85%B1%E5%90%8C%E4%BF%9D%E8%82%B2%E5%9C%92/data=!4m7!3m6!1s0x5ff79a5ccdd0a923:0xda3b17a5fbaa6fad!8m2!3d36.713043!4d137.185055!16s%2Fg%2F1tfqqt70!19sChIJI6nQzVya918RrW-q-6UXO9o?authuser=0&hl=ja&rclk=1",
    "category": "保育園"
  },
  {
    "name": "富山市立 太田保育所",
    "address": "\n〒939-8114 富山県富山市城村１６８−３",
    "latitude": 36.645139,
    "longitude": 137.261255,
    "link": "https://www.google.com/maps/place/%E5%AF%8C%E5%B1%B1%E5%B8%82%E7%AB%8B+%E5%A4%AA%E7%94%B0%E4%BF%9D%E8%82%B2%E6%89%80/data=!4m7!3m6!1s0x5ff7921805d4b641:0xd8c2b87af241d91d!8m2!3d36.645139!4d137.261255!16s%2Fg%2F1tdcrcwv!19sChIJQbbUBRiS918RHdlB8nq4wtg?authuser=0&hl=ja&rclk=1",
    "category": "保育園"
  },
  {
    "name": "社福)めぐみ福祉会 ひろたこども園",
    "address": "\n〒930-0831 富山県富山市鍋田１７−５５",
    "latitude": 36.714478,
    "longitude": 137.2445713,
    "link": "https://www.google.com/maps/place/%E7%A4%BE%E7%A6%8F%29%E3%82%81%E3%81%90%E3%81%BF%E7%A6%8F%E7%A5%89%E4%BC%9A+%E3%81%B2%E3%82%8D%E3%81%9F%E3%81%93%E3%81%A9%E3%82%82%E5%9C%92/data=!4m7!3m6!1s0x5ff797540d549f03:0x319bfe9b4d061c3!8m2!3d36.714478!4d137.2445713!16s%2Fg%2F1tg_fx8j!19sChIJA59UDVSX918Rw2HQtOm_GQM?authuser=0&hl=ja&rclk=1",
    "category": "保育園"
  },
  {
    "name": "滑川中央保育園",
    "address": "\n〒936-0071 富山県滑川市領家町５４０−２",
    "latitude": 36.762203,
    "longitude": 137.335172,
    "link": "https://www.google.com/maps/place/%E6%BB%91%E5%B7%9D%E4%B8%AD%E5%A4%AE%E4%BF%9D%E8%82%B2%E5%9C%92/data=!4m7!3m6!1s0x5ff7a2cbc138a24f:0xd6f17e91b34853cc!8m2!3d36.762203!4d137.335172!16s%2Fg%2F1v_0jlt2!19sChIJT6I4wcui918RzFNIs5F-8dY?authuser=0&hl=ja&rclk=1",
    "category": "保育園"
  },
  {
    "name": "上市保育園",
    "address": "\n〒930-0351 富山県中新川郡上市町北島６１３",
    "latitude": 36.703294,
    "longitude": 137.370043,
    "link": "https://www.google.com/maps/place/%E4%B8%8A%E5%B8%82%E4%BF%9D%E8%82%B2%E5%9C%92/data=!4m7!3m6!1s0x5ff7960acf68eebb:0xfe7b0cd7e7219370!8m2!3d36.703294!4d137.370043!16s%2Fg%2F1vljg5cp!19sChIJu-5ozwqW918RcJMh59cMe_4?authuser=0&hl=ja&rclk=1",
    "category": "保育園"
  },
  {
    "name": "和合保育所",
    "address": "\n〒930-2233 富山県富山市布目４１７３ ワゴウ",
    "latitude": 36.7392208,
    "longitude": 137.1885405,
    "link": "https://www.google.com/maps/place/%E5%92%8C%E5%90%88%E4%BF%9D%E8%82%B2%E6%89%80/data=!4m7!3m6!1s0x5ff79bd81aea4d09:0xdb2705cb804775bd!8m2!3d36.7392208!4d137.1885405!16s%2Fg%2F1t_hyvh0!19sChIJCU3qGtib918RvXVHgMsFJ9s?authuser=0&hl=ja&rclk=1",
    "category": "保育園"
  },
  {
    "name": "月岡保育所",
    "address": "\n〒939-8136 富山県富山市月見町４丁目４１ 市立月岡保育所",
    "latitude": 36.629697,
    "longitude": 137.245665,
    "link": "https://www.google.com/maps/place/%E6%9C%88%E5%B2%A1%E4%BF%9D%E8%82%B2%E6%89%80/data=!4m7!3m6!1s0x5ff78df35ecc34c5:0xb35ded084cef2a8b!8m2!3d36.629697!4d137.245665!16s%2Fg%2F1td654r5!19sChIJxTTMXvON918RiyrvTAjtXbM?authuser=0&hl=ja&rclk=1",
    "category": "保育園"
  },
  {
    "name": "富山市立 柳町保育所",
    "address": "\n〒930-0015 富山県富山市於保多町１−２３ 市立柳町保育所",
    "latitude": 36.693941,
    "longitude": 137.225173,
    "link": "https://www.google.com/maps/place/%E5%AF%8C%E5%B1%B1%E5%B8%82%E7%AB%8B+%E6%9F%B3%E7%94%BA%E4%BF%9D%E8%82%B2%E6%89%80/data=!4m7!3m6!1s0x5ff79092f5b0de87:0x32bfa71120d92824!8m2!3d36.693941!4d137.225173!16s%2Fg%2F1tmy4xjr!19sChIJh96w9ZKQ918RJCjZIBGnvzI?authuser=0&hl=ja&rclk=1",
    "category": "保育園"
  },
  {
    "name": "富山市立みやの保育所",
    "address": "\n〒939-2744 富山県富山市婦中町地角４１０",
    "latitude": 36.6309553,
    "longitude": 137.1710202,
    "link": "https://www.google.com/maps/place/%E5%AF%8C%E5%B1%B1%E5%B8%82%E7%AB%8B%E3%81%BF%E3%82%84%E3%81%AE%E4%BF%9D%E8%82%B2%E6%89%80/data=!4m7!3m6!1s0x5ff78f05bf06e333:0x8cfbf69b0cbf2dbf!8m2!3d36.6309553!4d137.1710202!16s%2Fg%2F11st_fzx1t!19sChIJM-MGvwWP918Rvy2_DJv2-4w?authuser=0&hl=ja&rclk=1",
    "category": "保育園"
  },
  {
    "name": "社会福祉法人あおぞらこども福祉会 堀川保育園",
    "address": "\n〒939-8081 富山県富山市堀川小泉町１丁目１６",
    "latitude": 36.6756729,
    "longitude": 137.2198254,
    "link": "https://www.google.com/maps/place/%E7%A4%BE%E4%BC%9A%E7%A6%8F%E7%A5%89%E6%B3%95%E4%BA%BA%E3%81%82%E3%81%8A%E3%81%9E%E3%82%89%E3%81%93%E3%81%A9%E3%82%82%E7%A6%8F%E7%A5%89%E4%BC%9A+%E5%A0%80%E5%B7%9D%E4%BF%9D%E8%82%B2%E5%9C%92/data=!4m7!3m6!1s0x5ff7904de34eacab:0x16a6926ce520eadf!8m2!3d36.6756729!4d137.2198254!16s%2Fg%2F1vyk2c2n!19sChIJq6xO402Q918R3-og5WySphY?authuser=0&hl=ja&rclk=1",
    "category": "保育園"
  },
  {
    "name": "富山市立呉羽保育所",
    "address": "\n〒930-0138 富山県富山市呉羽町２２４７−１８",
    "latitude": 36.7149625,
    "longitude": 137.1633178,
    "link": "https://www.google.com/maps/place/%E5%AF%8C%E5%B1%B1%E5%B8%82%E7%AB%8B%E5%91%89%E7%BE%BD%E4%BF%9D%E8%82%B2%E6%89%80/data=!4m7!3m6!1s0x5ff79b101bcb60f9:0xfd8b6a4e61ed7bc3!8m2!3d36.7149625!4d137.1633178!16s%2Fg%2F11qsmgv8l4!19sChIJ-WDLGxCb918Rw3vtYU5qi_0?authuser=0&hl=ja&rclk=1",
    "category": "保育園"
  },
  {
    "name": "寒江保育所",
    "address": "\n〒930-0108 富山県富山市本郷中部２６４",
    "latitude": 36.7297181,
    "longitude": 137.1516235,
    "link": "https://www.google.com/maps/place/%E5%AF%92%E6%B1%9F%E4%BF%9D%E8%82%B2%E6%89%80/data=!4m7!3m6!1s0x5ff79ba2c364221d:0xe5e30841e8495c95!8m2!3d36.7297181!4d137.1516235!16s%2Fg%2F1tq4qymh!19sChIJHSJkw6Kb918RlVxJ6EEI4-U?authuser=0&hl=ja&rclk=1",
    "category": "保育園"
  },
  {
    "name": "認定こども園 徳風幼稚園",
    "address": "\n〒930-0083 富山県富山市総曲輪２丁目７−１２",
    "latitude": 36.6905028,
    "longitude": 137.214108,
    "link": "https://www.google.com/maps/place/%E8%AA%8D%E5%AE%9A%E3%81%93%E3%81%A9%E3%82%82%E5%9C%92+%E5%BE%B3%E9%A2%A8%E5%B9%BC%E7%A8%9A%E5%9C%92/data=!4m7!3m6!1s0x5ff7908bd3504821:0xe2c44e45e7a078bf!8m2!3d36.6905028!4d137.214108!16s%2Fg%2F1thhkc0y!19sChIJIUhQ04uQ918Rv3ig50VOxOI?authuser=0&hl=ja&rclk=1",
    "category": "保育園"
  },
  {
    "name": "本郷町保育園",
    "address": "\n〒939-8045 富山県富山市本郷町",
    "latitude": 36.6637911,
    "longitude": 137.2367998,
    "link": "https://www.google.com/maps/place/%E6%9C%AC%E9%83%B7%E7%94%BA%E4%BF%9D%E8%82%B2%E5%9C%92/data=!4m7!3m6!1s0x5ff791f55c2b3c89:0x80af37bf53476fa9!8m2!3d36.6637911!4d137.2367998!16s%2Fg%2F11jlmqpy5b!19sChIJiTwrXPWR918RqW9HU783r4A?authuser=0&hl=ja&rclk=1",
    "category": "保育園"
  },
  {
    "name": "同朋保育園",
    "address": "\n〒936-0033 富山県滑川市吾妻町３５７−６",
    "latitude": 36.7678229,
    "longitude": 137.3409951,
    "link": "https://www.google.com/maps/place/%E5%90%8C%E6%9C%8B%E4%BF%9D%E8%82%B2%E5%9C%92/data=!4m7!3m6!1s0x5ff7a2d1aa0a265b:0x3050936a3c477bd9!8m2!3d36.7678229!4d137.3409951!16s%2Fg%2F1vxw83bx!19sChIJWyYKqtGi918R2XtHPGqTUDA?authuser=0&hl=ja&rclk=1",
    "category": "保育園"
  },
  {
    "name": "富山市立 双葉保育所",
    "address": "\n〒930-2201 富山県富山市草島２５６−１ 市立双葉保育所",
    "latitude": 36.7441642,
    "longitude": 137.210704,
    "link": "https://www.google.com/maps/place/%E5%AF%8C%E5%B1%B1%E5%B8%82%E7%AB%8B+%E5%8F%8C%E8%91%89%E4%BF%9D%E8%82%B2%E6%89%80/data=!4m7!3m6!1s0x5ff799738a12f145:0x76f4a250e39f1db3!8m2!3d36.7441642!4d137.210704!16s%2Fg%2F1w346gbk!19sChIJRfESinOZ918Rsx2f41Ci9HY?authuser=0&hl=ja&rclk=1",
    "category": "保育園"
  },
  {
    "name": "上条保育所",
    "address": "\n〒939-0561 富山県富山市水橋石割７２−２",
    "latitude": 36.723026,
    "longitude": 137.31322,
    "link": "https://www.google.com/maps/place/%E4%B8%8A%E6%9D%A1%E4%BF%9D%E8%82%B2%E6%89%80/data=!4m7!3m6!1s0x5ff797baca20b1bb:0x64c5440a6ee2335!8m2!3d36.723026!4d137.31322!16s%2Fg%2F1tg9hdjc!19sChIJu7EgyrqX918RNSPupkBUTAY?authuser=0&hl=ja&rclk=1",
    "category": "保育園"
  },
  {
    "name": "まんまるキッズ英語保育園",
    "address": "\n〒939-8006 富山県富山市山室2階３４０−２ サザンロードビル",
    "latitude": 36.6764109,
    "longitude": 137.2372098,
    "link": "https://www.google.com/maps/place/%E3%81%BE%E3%82%93%E3%81%BE%E3%82%8B%E3%82%AD%E3%83%83%E3%82%BA%E8%8B%B1%E8%AA%9E%E4%BF%9D%E8%82%B2%E5%9C%92/data=!4m7!3m6!1s0x5ff7919e0f47450f:0x2448f6c0975ffca0!8m2!3d36.6764109!4d137.2372098!16s%2Fg%2F11f62l9c3v!19sChIJD0VHD56R918RoPxfl8D2SCQ?authuser=0&hl=ja&rclk=1",
    "category": "保育園"
  },
  {
    "name": "不二越あじさい保育園",
    "address": "\n〒939-8005 富山県富山市中市２丁目２１７−２",
    "latitude": 36.6786824,
    "longitude": 137.2382183,
    "link": "https://www.google.com/maps/place/%E4%B8%8D%E4%BA%8C%E8%B6%8A%E3%81%82%E3%81%98%E3%81%95%E3%81%84%E4%BF%9D%E8%82%B2%E5%9C%92/data=!4m7!3m6!1s0x5ff79100433686b7:0xe37d9f22543d844!8m2!3d36.6786824!4d137.2382183!16s%2Fg%2F11h_r9hnrz!19sChIJt4Y2QwCR918RRNhDJfLZNw4?authuser=0&hl=ja&rclk=1",
    "category": "保育園"
  },
  {
    "name": "常盤台保育園子育て支援センター",
    "address": "\n〒930-0951 富山県富山市経堂４−３６７−２",
    "latitude": 36.6899566,
    "longitude": 137.2529143,
    "link": "https://www.google.com/maps/place/%E5%B8%B8%E7%9B%A4%E5%8F%B0%E4%BF%9D%E8%82%B2%E5%9C%92%E5%AD%90%E8%82%B2%E3%81%A6%E6%94%AF%E6%8F%B4%E3%82%BB%E3%83%B3%E3%82%BF%E3%83%BC/data=!4m7!3m6!1s0x5ff790dc3fb87573:0xda4111b8d177b521!8m2!3d36.6899566!4d137.2529143!16s%2Fg%2F1tm68sp0!19sChIJc3W4P9yQ918RIbV30bgRQdo?authuser=0&hl=ja&rclk=1",
    "category": "保育園"
  },
  {
    "name": "きぼう保育園",
    "address": "\n〒939-8085 富山県富山市中野新町１丁目２−１０ ホクタテ別館 3階",
    "latitude": 36.6838381,
    "longitude": 137.2155234,
    "link": "https://www.google.com/maps/place/%E3%81%8D%E3%81%BC%E3%81%86%E4%BF%9D%E8%82%B2%E5%9C%92/data=!4m7!3m6!1s0x5ff791001c1a33d7:0x69b01ba6ae449e92!8m2!3d36.6838381!4d137.2155234!16s%2Fg%2F11w4gt9609!19sChIJ1zMaHACR918Rkp5ErqYbsGk?authuser=0&hl=ja&rclk=1",
    "category": "保育園"
  },
  {
    "name": "城南もなみ学園",
    "address": "\n〒939-8272 富山県富山市太郎丸本町３丁目２−６",
    "latitude": 36.67648,
    "longitude": 137.212264,
    "link": "https://www.google.com/maps/place/%E5%9F%8E%E5%8D%97%E3%82%82%E3%81%AA%E3%81%BF%E5%AD%A6%E5%9C%92/data=!4m7!3m6!1s0x5ff7904f435a90e7:0xc987c87d6cfa4b46!8m2!3d36.67648!4d137.212264!16s%2Fg%2F1tmkktys!19sChIJ55BaQ0-Q918RRkv6bH3Ih8k?authuser=0&hl=ja&rclk=1",
    "category": "保育園"
  },
  {
    "name": "認定こども園 立正幼稚園",
    "address": "\n〒930-0055 富山県富山市梅沢町２丁目１０−５ 立正幼稚園",
    "latitude": 36.6831325,
    "longitude": 137.2193117,
    "link": "https://www.google.com/maps/place/%E8%AA%8D%E5%AE%9A%E3%81%93%E3%81%A9%E3%82%82%E5%9C%92+%E7%AB%8B%E6%AD%A3%E5%B9%BC%E7%A8%9A%E5%9C%92/data=!4m7!3m6!1s0x5ff790591079798b:0x82f7e40e6dfeb10a!8m2!3d36.6831325!4d137.2193117!16s%2Fg%2F1tdzldrm!19sChIJi3l5EFmQ918RCrH-bQ7k94I?authuser=0&hl=ja&rclk=1",
    "category": "保育園"
  },
  {
    "name": "ピノキオナースリースクール",
    "address": "\n〒939-2713 富山県富山市婦中町上轡田３５−１ 和敬会",
    "latitude": 36.6636497,
    "longitude": 137.1811537,
    "link": "https://www.google.com/maps/place/%E3%83%94%E3%83%8E%E3%82%AD%E3%82%AA%E3%83%8A%E3%83%BC%E3%82%B9%E3%83%AA%E3%83%BC%E3%82%B9%E3%82%AF%E3%83%BC%E3%83%AB/data=!4m7!3m6!1s0x5ff78fd9fc102ec7:0x3329f9952fb43934!8m2!3d36.6636497!4d137.1811537!16s%2Fg%2F1tf4dwwx!19sChIJxy4Q_NmP918RNDm0L5X5KTM?authuser=0&hl=ja&rclk=1",
    "category": "保育園"
  },
  {
    "name": "三日市保育園",
    "address": "\n〒930-0325 富山県中新川郡上市町三日市３",
    "latitude": 36.7071124,
    "longitude": 137.3595004,
    "link": "https://www.google.com/maps/place/%E4%B8%89%E6%97%A5%E5%B8%82%E4%BF%9D%E8%82%B2%E5%9C%92/data=!4m7!3m6!1s0x5ff7966d41ac06a1:0x9f02598d9992a4ea!8m2!3d36.7071124!4d137.3595004!16s%2Fg%2F1t_wp5_2!19sChIJoQasQW2W918R6qSSmY1ZAp8?authuser=0&hl=ja&rclk=1",
    "category": "保育園"
  },
  {
    "name": "小杉西部保育園",
    "address": "\n〒939-0341 富山県射水市三ケ９３３−１",
    "latitude": 36.72411,
    "longitude": 137.096998,
    "link": "https://www.google.com/maps/place/%E5%B0%8F%E6%9D%89%E8%A5%BF%E9%83%A8%E4%BF%9D%E8%82%B2%E5%9C%92/data=!4m7!3m6!1s0x5ff79b58936cbe41:0xb89a54203c387a2c!8m2!3d36.72411!4d137.096998!16s%2Fg%2F1tj2bv_8!19sChIJQb5sk1ib918RLHo4PCBUmrg?authuser=0&hl=ja&rclk=1",
    "category": "保育園"
  },
  {
    "name": "すみりー新庄園",
    "address": "\n〒930-0916 富山県富山市向新庄町１丁目５−１９",
    "latitude": 36.7026792,
    "longitude": 137.2621462,
    "link": "https://www.google.com/maps/place/%E3%81%99%E3%81%BF%E3%82%8A%E3%83%BC%E6%96%B0%E5%BA%84%E5%9C%92/data=!4m7!3m6!1s0x5ff797828f0f5ba1:0xda0d3e32ae7c4b44!8m2!3d36.7026792!4d137.2621462!16s%2Fg%2F11vy8j44hy!19sChIJoVsPj4KX918RREt8rjI-Ddo?authuser=0&hl=ja&rclk=1",
    "category": "保育園"
  },
  {
    "name": "さみどり認定こども園 すくすく園",
    "address": "\n〒931-8334 富山県富山市千原崎２丁目７−３９５−３０",
    "latitude": 36.7448796,
    "longitude": 137.2311924,
    "link": "https://www.google.com/maps/place/%E3%81%95%E3%81%BF%E3%81%A9%E3%82%8A%E8%AA%8D%E5%AE%9A%E3%81%93%E3%81%A9%E3%82%82%E5%9C%92+%E3%81%99%E3%81%8F%E3%81%99%E3%81%8F%E5%9C%92/data=!4m7!3m6!1s0x5ff799a66c2435bf:0xaa0302dbfe36a70d!8m2!3d36.7448796!4d137.2311924!16s%2Fg%2F11fx7vjxzt!19sChIJvzUkbKaZ918RDac2_tsCA6o?authuser=0&hl=ja&rclk=1",
    "category": "保育園"
  },
  {
    "name": "富山市立 稲荷元町保育所",
    "address": "\n〒930-0010 富山県富山市稲荷元町２丁目１３−１３ 市立稲荷元町保育所",
    "latitude": 36.6957086,
    "longitude": 137.2320912,
    "link": "https://www.google.com/maps/place/%E5%AF%8C%E5%B1%B1%E5%B8%82%E7%AB%8B+%E7%A8%B2%E8%8D%B7%E5%85%83%E7%94%BA%E4%BF%9D%E8%82%B2%E6%89%80/data=!4m7!3m6!1s0x5ff79094dbf77a1d:0x455bd78c711c6635!8m2!3d36.6957086!4d137.2320912!16s%2Fg%2F1tdsjmqc!19sChIJHXr325SQ918RNWYccYzXW0U?authuser=0&hl=ja&rclk=1",
    "category": "保育園"
  },
  {
    "name": "認定こども園 立正幼稚園",
    "address": "\n〒930-0055 富山県富山市梅沢町２丁目１０−５ 立正幼稚園",
    "latitude": 36.6831325,
    "longitude": 137.2193117,
    "link": "https://www.google.com/maps/place/%E8%AA%8D%E5%AE%9A%E3%81%93%E3%81%A9%E3%82%82%E5%9C%92+%E7%AB%8B%E6%AD%A3%E5%B9%BC%E7%A8%9A%E5%9C%92/data=!4m7!3m6!1s0x5ff790591079798b:0x82f7e40e6dfeb10a!8m2!3d36.6831325!4d137.2193117!16s%2Fg%2F1tdzldrm!19sChIJi3l5EFmQ918RCrH-bQ7k94I?authuser=0&hl=ja&rclk=1",
    "category": "幼稚園"
  },
  {
    "name": "富山幼稚園",
    "address": "\n〒930-0055 富山県富山市梅沢町３丁目１９−２７",
    "latitude": 36.6829752,
    "longitude": 137.2207242,
    "link": "https://www.google.com/maps/place/%E5%AF%8C%E5%B1%B1%E5%B9%BC%E7%A8%9A%E5%9C%92/data=!4m7!3m6!1s0x5ff79059aafaa9a5:0x8f625833b489f040!8m2!3d36.6829752!4d137.2207242!16s%2Fg%2F1wyc45f0!19sChIJpan6qlmQ918RQPCJtDNYYo8?authuser=0&hl=ja&rclk=1",
    "category": "幼稚園"
  },
  {
    "name": "紅葉ガ丘幼稚園",
    "address": "\n〒930-0091 富山県富山市愛宕町２丁目７−７−２３ 紅葉が丘幼稚園",
    "latitude": 36.6978244,
    "longitude": 137.2054745,
    "link": "https://www.google.com/maps/place/%E7%B4%85%E8%91%89%E3%82%AC%E4%B8%98%E5%B9%BC%E7%A8%9A%E5%9C%92/data=!4m7!3m6!1s0x5ff7908160ead0a7:0xeba76d0faa2dbe8f!8m2!3d36.6978244!4d137.2054745!16s%2Fg%2F1vxvhq7m!19sChIJp9DqYIGQ918Rj74tqg9tp-s?authuser=0&hl=ja&rclk=1",
    "category": "幼稚園"
  },
  {
    "name": "認定こども園 徳風幼稚園",
    "address": "\n〒930-0083 富山県富山市総曲輪２丁目７−１２",
    "latitude": 36.6905028,
    "longitude": 137.214108,
    "link": "https://www.google.com/maps/place/%E8%AA%8D%E5%AE%9A%E3%81%93%E3%81%A9%E3%82%82%E5%9C%92+%E5%BE%B3%E9%A2%A8%E5%B9%BC%E7%A8%9A%E5%9C%92/data=!4m7!3m6!1s0x5ff7908bd3504821:0xe2c44e45e7a078bf!8m2!3d36.6905028!4d137.214108!16s%2Fg%2F1thhkc0y!19sChIJIUhQ04uQ918Rv3ig50VOxOI?authuser=0&hl=ja&rclk=1",
    "category": "幼稚園"
  },
  {
    "name": "白藤幼稚園",
    "address": "\n〒930-0801 富山県富山市中島３丁目３−８４",
    "latitude": 36.7216515,
    "longitude": 137.2215108,
    "link": "https://www.google.com/maps/place/%E7%99%BD%E8%97%A4%E5%B9%BC%E7%A8%9A%E5%9C%92/data=!4m7!3m6!1s0x5ff79a1ddfcda5a9:0xf470d2441aade71c!8m2!3d36.7216515!4d137.2215108!16s%2Fg%2F11bccly6f0!19sChIJqaXN3x2a918RHOetGkTScPQ?authuser=0&hl=ja&rclk=1",
    "category": "幼稚園"
  },
  {
    "name": "めぐみ幼稚園",
    "address": "\n〒939-8048 富山県富山市太田１５９",
    "latitude": 36.6636763,
    "longitude": 137.2418741,
    "link": "https://www.google.com/maps/place/%E3%82%81%E3%81%90%E3%81%BF%E5%B9%BC%E7%A8%9A%E5%9C%92/data=!4m7!3m6!1s0x5ff791bd6823d68f:0xe53068eb6d2e94b2!8m2!3d36.6636763!4d137.2418741!16s%2Fg%2F1tj4ykjw!19sChIJj9YjaL2R918RspQubetoMOU?authuser=0&hl=ja&rclk=1",
    "category": "幼稚園"
  },
  {
    "name": "堀川幼稚園",
    "address": "\n〒939-8073 富山県富山市大町１区西部３",
    "latitude": 36.6683315,
    "longitude": 137.2206206,
    "link": "https://www.google.com/maps/place/%E5%A0%80%E5%B7%9D%E5%B9%BC%E7%A8%9A%E5%9C%92/data=!4m7!3m6!1s0x5ff791b5b64bff83:0x7077aacf210ed6e5!8m2!3d36.6683315!4d137.2206206!16s%2Fg%2F1tn05nc7!19sChIJg_9LtrWR918R5dYOIc-qd3A?authuser=0&hl=ja&rclk=1",
    "category": "幼稚園"
  },
  {
    "name": "学法)勝福寺学園 幼保連携型認定こども園 リンデ幼稚園",
    "address": "\n〒939-2373 富山県富山市八尾町高善寺１６４ リンデ幼稚園",
    "latitude": 36.608625,
    "longitude": 137.136478,
    "link": "https://www.google.com/maps/place/%E5%AD%A6%E6%B3%95%29%E5%8B%9D%E7%A6%8F%E5%AF%BA%E5%AD%A6%E5%9C%92+%E5%B9%BC%E4%BF%9D%E9%80%A3%E6%90%BA%E5%9E%8B%E8%AA%8D%E5%AE%9A%E3%81%93%E3%81%A9%E3%82%82%E5%9C%92+%E3%83%AA%E3%83%B3%E3%83%87%E5%B9%BC%E7%A8%9A%E5%9C%92/data=!4m7!3m6!1s0x5ff7894e4a154891:0x426149cda66d4ce!8m2!3d36.608625!4d137.136478!16s%2Fg%2F1tjdllv7!19sChIJkUgVSk6J918RztRm2pwUJgQ?authuser=0&hl=ja&rclk=1",
    "category": "幼稚園"
  },
  {
    "name": "富山カワイ幼稚園",
    "address": "\n〒930-0916 富山県富山市向新庄町５丁目５−６",
    "latitude": 36.705671,
    "longitude": 137.2651306,
    "link": "https://www.google.com/maps/place/%E5%AF%8C%E5%B1%B1%E3%82%AB%E3%83%AF%E3%82%A4%E5%B9%BC%E7%A8%9A%E5%9C%92/data=!4m7!3m6!1s0x5ff79736b00aff87:0x33d8af6551b70225!8m2!3d36.705671!4d137.2651306!16s%2Fg%2F1vtzh1hx!19sChIJh_8KsDaX918RJQK3UWWv2DM?authuser=0&hl=ja&rclk=1",
    "category": "幼稚園"
  },
  {
    "name": "文化幼稚園",
    "address": "\n〒930-0843 富山県富山市窪本町３−５",
    "latitude": 36.7035182,
    "longitude": 137.2294025,
    "link": "https://www.google.com/maps/place/%E6%96%87%E5%8C%96%E5%B9%BC%E7%A8%9A%E5%9C%92/data=!4m7!3m6!1s0x5ff790a34774baeb:0x3ac6a45fe63a5297!8m2!3d36.7035182!4d137.2294025!16s%2Fg%2F1td7n4yp!19sChIJ67p0R6OQ918Rl1I65l-kxjo?authuser=0&hl=ja&rclk=1",
    "category": "幼稚園"
  },
  {
    "name": "富山育英学園 あさひ幼稚園",
    "address": "\n〒930-0964 富山県富山市東石金町８−２８",
    "latitude": 36.6840693,
    "longitude": 137.2414354,
    "link": "https://www.google.com/maps/place/%E5%AF%8C%E5%B1%B1%E8%82%B2%E8%8B%B1%E5%AD%A6%E5%9C%92+%E3%81%82%E3%81%95%E3%81%B2%E5%B9%BC%E7%A8%9A%E5%9C%92/data=!4m7!3m6!1s0x5ff790fccc436c5b:0xe0523fd21377050c!8m2!3d36.6840693!4d137.2414354!16s%2Fg%2F1tyywzdx!19sChIJW2xDzPyQ918RDAV3E9I_UuA?authuser=0&hl=ja&rclk=1",
    "category": "幼稚園"
  },
  {
    "name": "藤園幼稚園",
    "address": "\n〒930-0855 富山県富山市赤江町６−７ 認定こども園藤園幼稚園",
    "latitude": 36.7002074,
    "longitude": 137.2186375,
    "link": "https://www.google.com/maps/place/%E8%97%A4%E5%9C%92%E5%B9%BC%E7%A8%9A%E5%9C%92/data=!4m7!3m6!1s0x5ff7909a2cd947c7:0x32ad413c36a2d6d8!8m2!3d36.7002074!4d137.2186375!16s%2Fg%2F1tkn_n3n!19sChIJx0fZLJqQ918R2NaiNjxBrTI?authuser=0&hl=ja&rclk=1",
    "category": "幼稚園"
  },
  {
    "name": "新庄幼稚園",
    "address": "\n〒930-0992 富山県富山市新庄町１０２",
    "latitude": 36.7037293,
    "longitude": 137.2541344,
    "link": "https://www.google.com/maps/place/%E6%96%B0%E5%BA%84%E5%B9%BC%E7%A8%9A%E5%9C%92/data=!4m7!3m6!1s0x5ff790caf3a1198b:0x973ccd04d276beee!8m2!3d36.7037293!4d137.2541344!16s%2Fg%2F1thq544k!19sChIJixmh88qQ918R7r520gTNPJc?authuser=0&hl=ja&rclk=1",
    "category": "幼稚園"
  },
  {
    "name": "愛護幼稚園",
    "address": "\n〒930-0064 富山県富山市山王町４−４９",
    "latitude": 36.686864,
    "longitude": 137.212986,
    "link": "https://www.google.com/maps/place/%E6%84%9B%E8%AD%B7%E5%B9%BC%E7%A8%9A%E5%9C%92/data=!4m7!3m6!1s0x5ff7906087b1889b:0x92e1813c82087cd0!8m2!3d36.686864!4d137.212986!16s%2Fg%2F1tdg31sr!19sChIJm4ixh2CQ918R0HwIgjyB4ZI?authuser=0&hl=ja&rclk=1",
    "category": "幼稚園"
  },
  {
    "name": "紫幼稚園",
    "address": "\n〒939-2716 富山県富山市婦中町下轡田１０３−１",
    "latitude": 36.6639689,
    "longitude": 137.1736872,
    "link": "https://www.google.com/maps/place/%E7%B4%AB%E5%B9%BC%E7%A8%9A%E5%9C%92/data=!4m7!3m6!1s0x5ff78fdb65eb8e1f:0xcfc1c13aebc74d3!8m2!3d36.6639689!4d137.1736872!16s%2Fg%2F1tn4x_yg!19sChIJH47rZduP918R03S8rhMc_Aw?authuser=0&hl=ja&rclk=1",
    "category": "幼稚園"
  },
  {
    "name": "清水町幼稚園",
    "address": "\n〒930-0036 富山県富山市清水町８丁目１−２１",
    "latitude": 36.6856344,
    "longitude": 137.2252201,
    "link": "https://www.google.com/maps/place/%E6%B8%85%E6%B0%B4%E7%94%BA%E5%B9%BC%E7%A8%9A%E5%9C%92/data=!4m7!3m6!1s0x5ff790f6ee189117:0x976722f0fa791d9f!8m2!3d36.6856344!4d137.2252201!16s%2Fg%2F1tmbvzmr!19sChIJF5EY7vaQ918Rnx15-vAiZ5c?authuser=0&hl=ja&rclk=1",
    "category": "幼稚園"
  },
  {
    "name": "まどか幼稚園",
    "address": "\n〒930-0103 富山県富山市北代４１３９",
    "latitude": 36.717409,
    "longitude": 137.17692,
    "link": "https://www.google.com/maps/place/%E3%81%BE%E3%81%A9%E3%81%8B%E5%B9%BC%E7%A8%9A%E5%9C%92/data=!4m7!3m6!1s0x5ff79a5029bcd581:0xcd374986404858f5!8m2!3d36.717409!4d137.17692!16s%2Fg%2F1tfvstb3!19sChIJgdW8KVCa918R9VhIQIZJN80?authuser=0&hl=ja&rclk=1",
    "category": "幼稚園"
  },
  {
    "name": "富山市五番町幼稚園",
    "address": "\n〒930-0058 富山県富山市古鍛冶町２−２２",
    "latitude": 36.687745,
    "longitude": 137.218024,
    "link": "https://www.google.com/maps/place/%E5%AF%8C%E5%B1%B1%E5%B8%82%E4%BA%94%E7%95%AA%E7%94%BA%E5%B9%BC%E7%A8%9A%E5%9C%92/data=!4m7!3m6!1s0x5ff790f5413f151d:0x20f39817cf19b872!8m2!3d36.687745!4d137.218024!16s%2Fg%2F1tdb8pj1!19sChIJHRU_QfWQ918RcrgZzxeY8yA?authuser=0&hl=ja&rclk=1",
    "category": "幼稚園"
  },
  {
    "name": "富山短期大学 附属みどり野幼稚園",
    "address": "\n〒939-0000 富山県富山市願海寺水口４４４",
    "latitude": 36.7211564,
    "longitude": 137.1381254,
    "link": "https://www.google.com/maps/place/%E5%AF%8C%E5%B1%B1%E7%9F%AD%E6%9C%9F%E5%A4%A7%E5%AD%A6+%E9%99%84%E5%B1%9E%E3%81%BF%E3%81%A9%E3%82%8A%E9%87%8E%E5%B9%BC%E7%A8%9A%E5%9C%92/data=!4m7!3m6!1s0x5ff79b0c2b81a921:0x3a8a532e407359ae!8m2!3d36.7211564!4d137.1381254!16s%2Fg%2F1tf35td5!19sChIJIamBKwyb918RrllzQC5Tijo?authuser=0&hl=ja&rclk=1",
    "category": "幼稚園"
  },
  {
    "name": "さみどり幼稚園",
    "address": "\n〒931-8334 富山県富山市千原崎２丁目４−２３",
    "latitude": 36.7453493,
    "longitude": 137.2309809,
    "link": "https://www.google.com/maps/place/%E3%81%95%E3%81%BF%E3%81%A9%E3%82%8A%E5%B9%BC%E7%A8%9A%E5%9C%92/data=!4m7!3m6!1s0x5ff799a63f1b1301:0x21a982116f0e46ad!8m2!3d36.7453493!4d137.2309809!16s%2Fg%2F1tpc7tsz!19sChIJARMbP6aZ918RrUYObxGCqSE?authuser=0&hl=ja&rclk=1",
    "category": "幼稚園"
  },
  {
    "name": "幼保連携型認定こども園アームストロング青葉幼稚園",
    "address": "\n〒930-0085 富山県富山市丸の内２丁目８−１",
    "latitude": 36.6906425,
    "longitude": 137.2085646,
    "link": "https://www.google.com/maps/place/%E5%B9%BC%E4%BF%9D%E9%80%A3%E6%90%BA%E5%9E%8B%E8%AA%8D%E5%AE%9A%E3%81%93%E3%81%A9%E3%82%82%E5%9C%92%E3%82%A2%E3%83%BC%E3%83%A0%E3%82%B9%E3%83%88%E3%83%AD%E3%83%B3%E3%82%B0%E9%9D%92%E8%91%89%E5%B9%BC%E7%A8%9A%E5%9C%92/data=!4m7!3m6!1s0x5ff790627a0adc31:0x74b4185a4a2a18fb!8m2!3d36.6906425!4d137.2085646!16s%2Fg%2F11cly77f93!19sChIJMdwKemKQ918R-xgqSloYtHQ?authuser=0&hl=ja&rclk=1",
    "category": "幼稚園"
  },
  {
    "name": "ＴＬＣキッズクラブ（英語幼稚園・認可外保育施設）",
    "address": "\n〒939-8094 富山県富山市大泉本町１丁目９−１１",
    "latitude": 36.6770296,
    "longitude": 137.2234068,
    "link": "https://www.google.com/maps/place/%EF%BC%B4%EF%BC%AC%EF%BC%A3%E3%82%AD%E3%83%83%E3%82%BA%E3%82%AF%E3%83%A9%E3%83%96%EF%BC%88%E8%8B%B1%E8%AA%9E%E5%B9%BC%E7%A8%9A%E5%9C%92%E3%83%BB%E8%AA%8D%E5%8F%AF%E5%A4%96%E4%BF%9D%E8%82%B2%E6%96%BD%E8%A8%AD%EF%BC%89/data=!4m7!3m6!1s0x5ff79053d257e93b:0x61a7e99718691c88!8m2!3d36.6770296!4d137.2234068!16s%2Fg%2F11f345ps2f!19sChIJO-lX0lOQ918RiBxpGJfpp2E?authuser=0&hl=ja&rclk=1",
    "category": "幼稚園"
  },
  {
    "name": "同朋幼稚園",
    "address": "\n〒936-0027 富山県滑川市常盤町６３０",
    "latitude": 36.76878,
    "longitude": 137.343462,
    "link": "https://www.google.com/maps/place/%E5%90%8C%E6%9C%8B%E5%B9%BC%E7%A8%9A%E5%9C%92/data=!4m7!3m6!1s0x5ff7a2d6d4cc6c69:0x91827ad461951e13!8m2!3d36.76878!4d137.343462!16s%2Fg%2F1thxqhdk!19sChIJaWzM1Nai918REx6VYdR6gpE?authuser=0&hl=ja&rclk=1",
    "category": "幼稚園"
  },
  {
    "name": "出町青葉幼稚園",
    "address": "\n〒939-1377 富山県砺波市寿町３−８",
    "latitude": 36.6428621,
    "longitude": 136.9568121,
    "link": "https://www.google.com/maps/place/%E5%87%BA%E7%94%BA%E9%9D%92%E8%91%89%E5%B9%BC%E7%A8%9A%E5%9C%92/data=!4m7!3m6!1s0x5ff787686ae658ef:0xd40854d1c2e69e8d!8m2!3d36.6428621!4d136.9568121!16s%2Fg%2F1tdlv3l8!19sChIJ71jmamiH918RjZ7mwtFUCNQ?authuser=0&hl=ja&rclk=1",
    "category": "幼稚園"
  },
  {
    "name": "福岡幼稚園",
    "address": "\n〒939-0117 富山県高岡市福岡町福岡新５７９−１ 福岡保育園",
    "latitude": 36.7123895,
    "longitude": 136.9303765,
    "link": "https://www.google.com/maps/place/%E7%A6%8F%E5%B2%A1%E5%B9%BC%E7%A8%9A%E5%9C%92/data=!4m7!3m6!1s0x5ff781f048340b81:0x667e467600a5bf31!8m2!3d36.7123895!4d136.9303765!16s%2Fg%2F1tj57mnq!19sChIJgQs0SPCB918RMb-lAHZGfmY?authuser=0&hl=ja&rclk=1",
    "category": "幼稚園"
  },
  {
    "name": "希望幼稚園",
    "address": "\n〒936-0056 富山県滑川市上小泉２００５",
    "latitude": 36.7590927,
    "longitude": 137.3430221,
    "link": "https://www.google.com/maps/place/%E5%B8%8C%E6%9C%9B%E5%B9%BC%E7%A8%9A%E5%9C%92/data=!4m7!3m6!1s0x5ff7bd34705310b1:0x9ec1059aa45732a7!8m2!3d36.7590927!4d137.3430221!16s%2Fg%2F1wf38gd3!19sChIJsRBTcDS9918RpzJXpJoFwZ4?authuser=0&hl=ja&rclk=1",
    "category": "幼稚園"
  },
  {
    "name": "晴雲幼稚園",
    "address": "\n〒930-2201 富山県富山市草島３３１",
    "latitude": 36.7483191,
    "longitude": 137.2098133,
    "link": "https://www.google.com/maps/place/%E6%99%B4%E9%9B%B2%E5%B9%BC%E7%A8%9A%E5%9C%92/data=!4m7!3m6!1s0x5ff799ae4273b449:0x7f416a3b9b02deb9!8m2!3d36.7483191!4d137.2098133!16s%2Fg%2F11k9ds9qys!19sChIJSbRzQq6Z918Rud4CmztqQX8?authuser=0&hl=ja&rclk=1",
    "category": "幼稚園"
  },
  {
    "name": "清泉学園いずみ幼稚園",
    "address": "\n〒933-0853 富山県高岡市上黒田１４",
    "latitude": 36.722824,
    "longitude": 137.004044,
    "link": "https://www.google.com/maps/place/%E6%B8%85%E6%B3%89%E5%AD%A6%E5%9C%92%E3%81%84%E3%81%9A%E3%81%BF%E5%B9%BC%E7%A8%9A%E5%9C%92/data=!4m7!3m6!1s0x5ff782ff13b99207:0xfcdb75773963d896!8m2!3d36.722824!4d137.004044!16s%2Fg%2F1tdk50fr!19sChIJB5K5E_-C918RlthjOXd12_w?authuser=0&hl=ja&rclk=1",
    "category": "幼稚園"
  },
  {
    "name": "かたかご幼稚園 かたかご保育園",
    "address": "\n〒933-0112 富山県高岡市伏木古国府１６−１５",
    "latitude": 36.793659,
    "longitude": 137.054238,
    "link": "https://www.google.com/maps/place/%E3%81%8B%E3%81%9F%E3%81%8B%E3%81%94%E5%B9%BC%E7%A8%9A%E5%9C%92+%E3%81%8B%E3%81%9F%E3%81%8B%E3%81%94%E4%BF%9D%E8%82%B2%E5%9C%92/data=!4m7!3m6!1s0x5ff776145bc7832d:0xca2b820e4fd63d2!8m2!3d36.793659!4d137.054238!16s%2Fg%2F1tksn663!19sChIJLYPHWxR2918R0mP95CC4ogw?authuser=0&hl=ja&rclk=1",
    "category": "幼稚園"
  },
  {
    "name": "あおい幼稚園",
    "address": "\n〒939-0351 富山県射水市戸破４４０１−１",
    "latitude": 36.7254348,
    "longitude": 137.1035339,
    "link": "https://www.google.com/maps/place/%E3%81%82%E3%81%8A%E3%81%84%E5%B9%BC%E7%A8%9A%E5%9C%92/data=!4m7!3m6!1s0x5ff79b5e4f01e695:0xffc5dfc8bc537b19!8m2!3d36.7254348!4d137.1035339!16s%2Fg%2F1tgdc7_5!19sChIJleYBT16b918RGXtTvMjfxf8?authuser=0&hl=ja&rclk=1",
    "category": "幼稚園"
  },
  {
    "name": "高岡第一学園認定こども園第二幼稚園",
    "address": "\n〒933-0115 富山県高岡市伏木古府元町２−３０",
    "latitude": 36.788745,
    "longitude": 137.048144,
    "link": "https://www.google.com/maps/place/%E9%AB%98%E5%B2%A1%E7%AC%AC%E4%B8%80%E5%AD%A6%E5%9C%92%E8%AA%8D%E5%AE%9A%E3%81%93%E3%81%A9%E3%82%82%E5%9C%92%E7%AC%AC%E4%BA%8C%E5%B9%BC%E7%A8%9A%E5%9C%92/data=!4m7!3m6!1s0x5ff7763bf635bb11:0x79b143de4a35c763!8m2!3d36.788745!4d137.048144!16s%2Fg%2F1tds6k4z!19sChIJEbs19jt2918RY8c1St5DsXk?authuser=0&hl=ja&rclk=1",
    "category": "幼稚園"
  },
  {
    "name": "第三あおい幼稚園",
    "address": "\n〒939-0364 富山県射水市南太閤山１２丁目２２",
    "latitude": 36.697168,
    "longitude": 137.096382,
    "link": "https://www.google.com/maps/place/%E7%AC%AC%E4%B8%89%E3%81%82%E3%81%8A%E3%81%84%E5%B9%BC%E7%A8%9A%E5%9C%92/data=!4m7!3m6!1s0x5ff784dca59fefed:0x47f285b490f21103!8m2!3d36.697168!4d137.096382!16s%2Fg%2F1v_z8rtf!19sChIJ7e-fpdyE918RAxHykLSF8kc?authuser=0&hl=ja&rclk=1",
    "category": "幼稚園"
  },
  {
    "name": "福光青葉幼稚園",
    "address": "\n〒939-1732 富山県南砺市荒木１３０１−１",
    "latitude": 36.5568272,
    "longitude": 136.8801888,
    "link": "https://www.google.com/maps/place/%E7%A6%8F%E5%85%89%E9%9D%92%E8%91%89%E5%B9%BC%E7%A8%9A%E5%9C%92/data=!4m7!3m6!1s0x5ff82f80650006a3:0x5b531da55d8fb003!8m2!3d36.5568272!4d136.8801888!16s%2Fg%2F1wv_s1ss!19sChIJowYAZYAv-F8RA7CPXaUdU1s?authuser=0&hl=ja&rclk=1",
    "category": "幼稚園"
  },
  {
    "name": "富山県私立幼稚園・認定こども園退職金社団",
    "address": "\n〒930-0096 富山県富山市舟橋北町４−１９",
    "latitude": 36.6964266,
    "longitude": 137.2084831,
    "link": "https://www.google.com/maps/place/%E5%AF%8C%E5%B1%B1%E7%9C%8C%E7%A7%81%E7%AB%8B%E5%B9%BC%E7%A8%9A%E5%9C%92%E3%83%BB%E8%AA%8D%E5%AE%9A%E3%81%93%E3%81%A9%E3%82%82%E5%9C%92%E9%80%80%E8%81%B7%E9%87%91%E7%A4%BE%E5%9B%A3/data=!4m7!3m6!1s0x5ff790869d85adb5:0x25df9191e0e32488!8m2!3d36.6964266!4d137.2084831!16s%2Fg%2F11h5rhrh8b!19sChIJta2FnYaQ918RiCTj4JGR3yU?authuser=0&hl=ja&rclk=1",
    "category": "幼稚園"
  },
  {
    "name": "月岡幼稚園",
    "address": "\n〒939-8134 富山県富山市上千俵町５０８",
    "latitude": 36.622281,
    "longitude": 137.253009,
    "link": "https://www.google.com/maps/place/%E6%9C%88%E5%B2%A1%E5%B9%BC%E7%A8%9A%E5%9C%92/data=!4m7!3m6!1s0x5ff78d8543942c49:0xffc5dc623c46a737!8m2!3d36.622281!4d137.253009!16s%2Fg%2F1tqpz2rj!19sChIJSSyUQ4WN918RN6dGPGLcxf8?authuser=0&hl=ja&rclk=1",
    "category": "幼稚園"
  },
  {
    "name": "大沢野幼稚園",
    "address": "\n〒939-2254 富山県富山市高内１４４",
    "latitude": 36.5776016,
    "longitude": 137.2062724,
    "link": "https://www.google.com/maps/place/%E5%A4%A7%E6%B2%A2%E9%87%8E%E5%B9%BC%E7%A8%9A%E5%9C%92/data=!4m7!3m6!1s0x5ff78b61b1dbd669:0xa1a21e80caf607e1!8m2!3d36.5776016!4d137.2062724!16s%2Fg%2F1tk_jkjq!19sChIJadbbsWGL918R4Qf2yoAeoqE?authuser=0&hl=ja&rclk=1",
    "category": "幼稚園"
  },
  {
    "name": "高岡第一学園附属第五幼稚園",
    "address": "\n〒934-0092 富山県高岡市中曽根７４０",
    "latitude": 36.767806,
    "longitude": 137.0772286,
    "link": "https://www.google.com/maps/place/%E9%AB%98%E5%B2%A1%E7%AC%AC%E4%B8%80%E5%AD%A6%E5%9C%92%E9%99%84%E5%B1%9E%E7%AC%AC%E4%BA%94%E5%B9%BC%E7%A8%9A%E5%9C%92/data=!4m7!3m6!1s0x5ff79da317fc10a1:0x6f5f7ee6f71f5cee!8m2!3d36.767806!4d137.0772286!16s%2Fg%2F1tfw2wv5!19sChIJoRD8F6Od918R7lwf9-Z-X28?authuser=0&hl=ja&rclk=1",
    "category": "幼稚園"
  },
  {
    "name": "速星幼稚園",
    "address": "\n〒939-2706 富山県富山市婦中町速星７０６−１ 市立速星幼稚園",
    "latitude": 36.659372,
    "longitude": 137.159156,
    "link": "https://www.google.com/maps/place/%E9%80%9F%E6%98%9F%E5%B9%BC%E7%A8%9A%E5%9C%92/data=!4m7!3m6!1s0x5ff78fbf6b76050f:0x483c9cb73a5c07a8!8m2!3d36.659372!4d137.159156!16s%2Fg%2F1tgpb3mk!19sChIJDwV2a7-P918RqAdcOrecPEg?authuser=0&hl=ja&rclk=1",
    "category": "幼稚園"
  },
  {
    "name": "アソカ幼稚園",
    "address": "\n〒935-0025 富山県氷見市鞍川１２９６",
    "latitude": 36.850712,
    "longitude": 136.9618249,
    "link": "https://www.google.com/maps/place/%E3%82%A2%E3%82%BD%E3%82%AB%E5%B9%BC%E7%A8%9A%E5%9C%92/data=!4m7!3m6!1s0x5ff77184758e8edd:0xad1c0a3b622bb551!8m2!3d36.850712!4d136.9618249!16s%2Fg%2F1vlzb6dc!19sChIJ3Y6OdYRx918RUbUrYjsKHK0?authuser=0&hl=ja&rclk=1",
    "category": "幼稚園"
  },
  {
    "name": "富山市の英語幼稚園 スタンフォードイングリッシュ",
    "address": "\n〒930-0818 富山県富山市奥田町１７−４ スタンフォード",
    "latitude": 36.7100276,
    "longitude": 137.2194006,
    "link": "https://www.google.com/maps/place/%E5%AF%8C%E5%B1%B1%E5%B8%82%E3%81%AE%E8%8B%B1%E8%AA%9E%E5%B9%BC%E7%A8%9A%E5%9C%92+%E3%82%B9%E3%82%BF%E3%83%B3%E3%83%95%E3%82%A9%E3%83%BC%E3%83%89%E3%82%A4%E3%83%B3%E3%82%B0%E3%83%AA%E3%83%83%E3%82%B7%E3%83%A5/data=!4m7!3m6!1s0x5ff79971b5558cc7:0x3ec60e9e0d6ae54c!8m2!3d36.7100276!4d137.2194006!16s%2Fg%2F11g24r9q5j!19sChIJx4xVtXGZ918RTOVqDZ4Oxj4?authuser=0&hl=ja&rclk=1",
    "category": "幼稚園"
  },
  {
    "name": "ひかり幼稚園",
    "address": "\n〒933-0014 富山県高岡市野村１０６８",
    "latitude": 36.755221,
    "longitude": 137.0344,
    "link": "https://www.google.com/maps/place/%E3%81%B2%E3%81%8B%E3%82%8A%E5%B9%BC%E7%A8%9A%E5%9C%92/data=!4m7!3m6!1s0x5ff79d46614f29e7:0x8c1b7e42ddeb7261!8m2!3d36.755221!4d137.0344!16s%2Fg%2F1tdf160_!19sChIJ5ylPYUad918RYXLr3UJ-G4w?authuser=0&hl=ja&rclk=1",
    "category": "幼稚園"
  },
  {
    "name": "水橋幼稚園",
    "address": "\n〒939-0526 富山県富山市水橋舘町３９０−１３ 市立水橋幼稚園",
    "latitude": 36.751584,
    "longitude": 137.308172,
    "link": "https://www.google.com/maps/place/%E6%B0%B4%E6%A9%8B%E5%B9%BC%E7%A8%9A%E5%9C%92/data=!4m7!3m6!1s0x5ff798072849160f:0x27e4944fbc369710!8m2!3d36.751584!4d137.308172!16s%2Fg%2F1td17py7!19sChIJDxZJKAeY918REJc2vE-U5Cc?authuser=0&hl=ja&rclk=1",
    "category": "幼稚園"
  },
  {
    "name": "富山認定こども園",
    "address": "\n〒931-8316 富山県富山市豊丘町２８−２０",
    "latitude": 36.7276058,
    "longitude": 137.2336319,
    "link": "https://www.google.com/maps/place/%E5%AF%8C%E5%B1%B1%E8%AA%8D%E5%AE%9A%E3%81%93%E3%81%A9%E3%82%82%E5%9C%92/data=!4m7!3m6!1s0x5ff79978b4b942a3:0x937ef278fbe7c822!8m2!3d36.7276058!4d137.2336319!16s%2Fg%2F11kqjhyy09!19sChIJo0K5tHiZ918RIsjn-3jyfpM?authuser=0&hl=ja&rclk=1",
    "category": "幼稚園"
  },
  {
    "name": "フローベルズ・インターナショナルスクール FIS",
    "address": "\n〒930-0953 富山県富山市秋吉１２１−９",
    "latitude": 36.6818205,
    "longitude": 137.2432293,
    "link": "https://www.google.com/maps/place/%E3%83%95%E3%83%AD%E3%83%BC%E3%83%99%E3%83%AB%E3%82%BA%E3%83%BB%E3%82%A4%E3%83%B3%E3%82%BF%E3%83%BC%E3%83%8A%E3%82%B7%E3%83%A7%E3%83%8A%E3%83%AB%E3%82%B9%E3%82%AF%E3%83%BC%E3%83%AB+FIS/data=!4m7!3m6!1s0x5ff7910332ea3945:0x6c902507d433ef14!8m2!3d36.6818205!4d137.2432293!16s%2Fg%2F11c1vlj62r!19sChIJRTnqMgOR918RFO8z1AclkGw?authuser=0&hl=ja&rclk=1",
    "category": "幼稚園"
  },
  {
    "name": "高岡第一学園附属第三幼稚園",
    "address": "\n〒933-0827 富山県高岡市泉が丘 泉が丘６４５",
    "latitude": 36.7271289,
    "longitude": 136.9880205,
    "link": "https://www.google.com/maps/place/%E9%AB%98%E5%B2%A1%E7%AC%AC%E4%B8%80%E5%AD%A6%E5%9C%92%E9%99%84%E5%B1%9E%E7%AC%AC%E4%B8%89%E5%B9%BC%E7%A8%9A%E5%9C%92/data=!4m7!3m6!1s0x5ff7825ed9468541:0xa24daf0ab0468244!8m2!3d36.7271289!4d136.9880205!16s%2Fg%2F1tctxdq7!19sChIJQYVG2V6C918RRIJGsAqvTaI?authuser=0&hl=ja&rclk=1",
    "category": "幼稚園"
  },
  {
    "name": "むつみ幼稚園",
    "address": "\n〒930-0214 富山県中新川郡立山町五百石８２",
    "latitude": 36.6663711,
    "longitude": 137.3163071,
    "link": "https://www.google.com/maps/place/%E3%82%80%E3%81%A4%E3%81%BF%E5%B9%BC%E7%A8%9A%E5%9C%92/data=!4m7!3m6!1s0x5ff793f1a8c8ca03:0x4e8155151f347a8e!8m2!3d36.6663711!4d137.3163071!16s%2Fg%2F1tn05nch!19sChIJA8rIqPGT918Rjno0HxVVgU4?authuser=0&hl=ja&rclk=1",
    "category": "幼稚園"
  },
  {
    "name": "北加積幼稚園",
    "address": "\n〒936-0871 富山県滑川市大島新５０９−１",
    "latitude": 36.759579,
    "longitude": 137.375335,
    "link": "https://www.google.com/maps/place/%E5%8C%97%E5%8A%A0%E7%A9%8D%E5%B9%BC%E7%A8%9A%E5%9C%92/data=!4m7!3m6!1s0x5ff7bcde4be41205:0xfafc7746bff02354!8m2!3d36.759579!4d137.375335!16s%2Fg%2F1tk67jsy!19sChIJBRLkS968918RVCPwv0Z3_Po?authuser=0&hl=ja&rclk=1",
    "category": "幼稚園"
  },
  {
    "name": "ジョリーキッズインターナショナルスクール（英語保育/幼稚園）",
    "address": "\n〒939-8216 富山県富山市黒瀬北町２丁目９−７",
    "latitude": 36.6650025,
    "longitude": 137.2029844,
    "link": "https://www.google.com/maps/place/%E3%82%B8%E3%83%A7%E3%83%AA%E3%83%BC%E3%82%AD%E3%83%83%E3%82%BA%E3%82%A4%E3%83%B3%E3%82%BF%E3%83%BC%E3%83%8A%E3%82%B7%E3%83%A7%E3%83%8A%E3%83%AB%E3%82%B9%E3%82%AF%E3%83%BC%E3%83%AB%EF%BC%88%E8%8B%B1%E8%AA%9E%E4%BF%9D%E8%82%B2%2F%E5%B9%BC%E7%A8%9A%E5%9C%92%EF%BC%89/data=!4m7!3m6!1s0x5ff791130fefc45d:0xc55e33ab8d728ca!8m2!3d36.6650025!4d137.2029844!16s%2Fg%2F11n01b9yrj!19sChIJXcTvDxOR918RyijXuDrjVQw?authuser=0&hl=ja&rclk=1",
    "category": "幼稚園"
  },
  {
    "name": "認定こども園こばと幼稚園",
    "address": "\n〒933-0802 富山県高岡市蓮花寺３２",
    "latitude": 36.736518,
    "longitude": 137.037645,
    "link": "https://www.google.com/maps/place/%E8%AA%8D%E5%AE%9A%E3%81%93%E3%81%A9%E3%82%82%E5%9C%92%E3%81%93%E3%81%B0%E3%81%A8%E5%B9%BC%E7%A8%9A%E5%9C%92/data=!4m7!3m6!1s0x5ff782d66f6ddd87:0x9f396e9994087db7!8m2!3d36.736518!4d137.037645!16s%2Fg%2F1tffzbx8!19sChIJh91tb9aC918Rt30IlJluOZ8?authuser=0&hl=ja&rclk=1",
    "category": "幼稚園"
  },
  {
    "name": "森のようちえん まめでっぽう",
    "address": "\n〒939-2633 富山県富山市婦中町細谷",
    "latitude": 36.6383328,
    "longitude": 137.081815,
    "link": "https://www.google.com/maps/place/%E6%A3%AE%E3%81%AE%E3%82%88%E3%81%86%E3%81%A1%E3%81%88%E3%82%93+%E3%81%BE%E3%82%81%E3%81%A7%E3%81%A3%E3%81%BD%E3%81%86/data=!4m7!3m6!1s0x5ff789e35ed1cc9b:0x63b0b1e9a9bb2a6c!8m2!3d36.6383328!4d137.081815!16s%2Fg%2F11fqcv6cwm!19sChIJm8zRXuOJ918RbCq7qemxsGM?authuser=0&hl=ja&rclk=1",
    "category": "幼稚園"
  },
  {
    "name": "高岡第一学園 福岡ひばり園",
    "address": "\n〒939-0127 富山県高岡市福岡町江尻５０−５",
    "latitude": 36.7014313,
    "longitude": 136.9384591,
    "link": "https://www.google.com/maps/place/%E9%AB%98%E5%B2%A1%E7%AC%AC%E4%B8%80%E5%AD%A6%E5%9C%92+%E7%A6%8F%E5%B2%A1%E3%81%B2%E3%81%B0%E3%82%8A%E5%9C%92/data=!4m7!3m6!1s0x5ff781971b3dfba7:0x557509f35157f4cf!8m2!3d36.7014313!4d136.9384591!16s%2Fg%2F1thw1_nl!19sChIJp_s9G5eB918Rz_RXUfMJdVU?authuser=0&hl=ja&rclk=1",
    "category": "幼稚園"
  },
  {
    "name": "富山大学教育学部附属幼稚園",
    "address": "\n〒930-0882 富山県富山市五艘１３００−１３００",
    "latitude": 36.7048784,
    "longitude": 137.1956472,
    "link": "https://www.google.com/maps/place/%E5%AF%8C%E5%B1%B1%E5%A4%A7%E5%AD%A6%E6%95%99%E8%82%B2%E5%AD%A6%E9%83%A8%E9%99%84%E5%B1%9E%E5%B9%BC%E7%A8%9A%E5%9C%92/data=!4m7!3m6!1s0x5ff79a7b2fb7b1c7:0xfbac81f3ebe32713!8m2!3d36.7048784!4d137.1956472!16s%2Fg%2F121xqn2r!19sChIJx7G3L3ua918REyfj6_OBrPs?authuser=0&hl=ja&rclk=1",
    "category": "幼稚園"
  },
  {
    "name": "富山市立 呉羽幼稚園",
    "address": "\n〒930-0138 富山県富山市呉羽町１８７７−４",
    "latitude": 36.717656,
    "longitude": 137.166194,
    "link": "https://www.google.com/maps/place/%E5%AF%8C%E5%B1%B1%E5%B8%82%E7%AB%8B+%E5%91%89%E7%BE%BD%E5%B9%BC%E7%A8%9A%E5%9C%92/data=!4m7!3m6!1s0x5ff79a5488259a95:0xf439e58e00d91ea0!8m2!3d36.717656!4d137.166194!16s%2Fg%2F1tdbf8k0!19sChIJlZoliFSa918RoB7ZAI7lOfQ?authuser=0&hl=ja&rclk=1",
    "category": "幼稚園"
  },
  {
    "name": "高岡第一学園附属第一幼稚園",
    "address": "\n〒933-0947 富山県高岡市本郷２丁目１−３５",
    "latitude": 36.756679,
    "longitude": 136.99925,
    "link": "https://www.google.com/maps/place/%E9%AB%98%E5%B2%A1%E7%AC%AC%E4%B8%80%E5%AD%A6%E5%9C%92%E9%99%84%E5%B1%9E%E7%AC%AC%E4%B8%80%E5%B9%BC%E7%A8%9A%E5%9C%92/data=!4m7!3m6!1s0x5ff77806d1a74b67:0xb2dfded5db88ca0b!8m2!3d36.756679!4d136.99925!16s%2Fg%2F1td0y9sg!19sChIJZ0un0QZ4918RC8qI29Xe37I?authuser=0&hl=ja&rclk=1",
    "category": "幼稚園"
  },
  {
    "name": "ひみ中央こども舎",
    "address": "\n〒935-0005 富山県氷見市栄町１８−８",
    "latitude": 36.8682439,
    "longitude": 136.9787284,
    "link": "https://www.google.com/maps/place/%E3%81%B2%E3%81%BF%E4%B8%AD%E5%A4%AE%E3%81%93%E3%81%A9%E3%82%82%E8%88%8E/data=!4m7!3m6!1s0x5ff77240ddb97efd:0x55c6ca5b00455666!8m2!3d36.8682439!4d136.9787284!16s%2Fg%2F11btww3vgd!19sChIJ_X653UBy918RZlZFAFvKxlU?authuser=0&hl=ja&rclk=1",
    "category": "幼稚園"
  },
  {
    "name": "早月加積幼稚園",
    "address": "\n〒936-0808 富山県滑川市追分３８０１",
    "latitude": 36.7769253,
    "longitude": 137.3828142,
    "link": "https://www.google.com/maps/place/%E6%97%A9%E6%9C%88%E5%8A%A0%E7%A9%8D%E5%B9%BC%E7%A8%9A%E5%9C%92/data=!4m7!3m6!1s0x5ff7bcb47626ff49:0xa3b404a2ba23ebe1!8m2!3d36.7769253!4d137.3828142!16s%2Fg%2F1tfsh7rz!19sChIJSf8mdrS8918R4esjuqIEtKM?authuser=0&hl=ja&rclk=1",
    "category": "幼稚園"
  },
  {
    "name": "西加積認定こども園",
    "address": "\n〒936-0857 富山県滑川市下梅沢３１",
    "latitude": 36.747489,
    "longitude": 137.3429222,
    "link": "https://www.google.com/maps/place/%E8%A5%BF%E5%8A%A0%E7%A9%8D%E8%AA%8D%E5%AE%9A%E3%81%93%E3%81%A9%E3%82%82%E5%9C%92/data=!4m7!3m6!1s0x5ff7bd43735fc843:0xbc848f32e611308b!8m2!3d36.747489!4d137.3429222!16s%2Fg%2F1tmpvv45!19sChIJQ8hfc0O9918RizAR5jKPhLw?authuser=0&hl=ja&rclk=1",
    "category": "幼稚園"
  },
  {
    "name": "かみいいの認定こども園",
    "address": "\n〒930-0827 富山県富山市上飯野１９−２",
    "latitude": 36.7119886,
    "longitude": 137.2519588,
    "link": "https://www.google.com/maps/place/%E3%81%8B%E3%81%BF%E3%81%84%E3%81%84%E3%81%AE%E8%AA%8D%E5%AE%9A%E3%81%93%E3%81%A9%E3%82%82%E5%9C%92/data=!4m7!3m6!1s0x5ff79707a83a9d09:0x4611fff571400f84!8m2!3d36.7119886!4d137.2519588!16s%2Fg%2F11rvjd3hm_!19sChIJCZ06qAeX918RhA9AcfX_EUY?authuser=0&hl=ja&rclk=1",
    "category": "幼稚園"
  },
  {
    "name": "大沢野こども園",
    "address": "\n〒939-2252 富山県富山市上大久保２６７−５",
    "latitude": 36.586495,
    "longitude": 137.208298,
    "link": "https://www.google.com/maps/place/%E5%A4%A7%E6%B2%A2%E9%87%8E%E3%81%93%E3%81%A9%E3%82%82%E5%9C%92/data=!4m7!3m6!1s0x5ff78c85157d0acf:0xe75b98200379b8c1!8m2!3d36.586495!4d137.208298!16s%2Fg%2F1td1pqvk!19sChIJzwp9FYWM918Rwbh5AyCYW-c?authuser=0&hl=ja&rclk=1",
    "category": "幼稚園"
  },
  {
    "name": "中田保育園",
    "address": "\n〒939-1275 富山県高岡市中田４４９８",
    "latitude": 36.681814,
    "longitude": 137.020482,
    "link": "https://www.google.com/maps/place/%E4%B8%AD%E7%94%B0%E4%BF%9D%E8%82%B2%E5%9C%92/data=!4m7!3m6!1s0x5ff7841b2dad7b9b:0xf620bb7153de503f!8m2!3d36.681814!4d137.020482!16s%2Fg%2F1tglmrjg!19sChIJm3utLRuE918RP1DeU3G7IPY?authuser=0&hl=ja&rclk=1",
    "category": "幼稚園"
  },
  {
    "name": "藤ノ木こども園",
    "address": "\n〒930-0936 富山県富山市藤木１２９１",
    "latitude": 36.687942,
    "longitude": 137.2680808,
    "link": "https://www.google.com/maps/place/%E8%97%A4%E3%83%8E%E6%9C%A8%E3%81%93%E3%81%A9%E3%82%82%E5%9C%92/data=!4m7!3m6!1s0x5ff79125ddce1e15:0x444ff79f4f7f1877!8m2!3d36.687942!4d137.2680808!16s%2Fg%2F1vcjm2wh!19sChIJFR7O3SWR918Rdxh_T5_3T0Q?authuser=0&hl=ja&rclk=1",
    "category": "幼稚園"
  },
  {
    "name": "にながわ保育園",
    "address": "\n〒939-8071 富山県富山市上袋１−１ 富山国際学園福祉会にながわ保育園",
    "latitude": 36.655685,
    "longitude": 137.221161,
    "link": "https://www.google.com/maps/place/%E3%81%AB%E3%81%AA%E3%81%8C%E3%82%8F%E4%BF%9D%E8%82%B2%E5%9C%92/data=!4m7!3m6!1s0x5ff791dd22de002f:0x9ab94d172281a008!8m2!3d36.655685!4d137.221161!16s%2Fg%2F1trpqnbr!19sChIJLwDeIt2R918RCKCBIhdNuZo?authuser=0&hl=ja&rclk=1",
    "category": "幼稚園"
  },
  {
    "name": "都市型保育園ポポラー富山山室園",
    "address": "\n〒939-8006 富山県富山市山室226番地2 グリーンモール山室 保育園棟",
    "latitude": 36.6781824,
    "longitude": 137.234587,
    "link": "https://www.google.com/maps/place/%E9%83%BD%E5%B8%82%E5%9E%8B%E4%BF%9D%E8%82%B2%E5%9C%92%E3%83%9D%E3%83%9D%E3%83%A9%E3%83%BC%E5%AF%8C%E5%B1%B1%E5%B1%B1%E5%AE%A4%E5%9C%92/data=!4m7!3m6!1s0x5ff791da45deb16d:0xcf6c8d7af15f0baa!8m2!3d36.6781824!4d137.234587!16s%2Fg%2F11fkq66p66!19sChIJbbHeRdqR918Rqgtf8XqNbM8?authuser=0&hl=ja&rclk=1",
    "category": "幼稚園"
  },
  {
    "name": "やまむろこども園",
    "address": "\n〒939-8006 富山県富山市山室５−３",
    "latitude": 36.6733922,
    "longitude": 137.2398754,
    "link": "https://www.google.com/maps/place/%E3%82%84%E3%81%BE%E3%82%80%E3%82%8D%E3%81%93%E3%81%A9%E3%82%82%E5%9C%92/data=!4m7!3m6!1s0x5ff791a8537d0403:0x4eb5535feb9a6434!8m2!3d36.6733922!4d137.2398754!16s%2Fg%2F1v1tmyj6!19sChIJAwR9U6iR918RNGSa619TtU4?authuser=0&hl=ja&rclk=1",
    "category": "幼稚園"
  },
  {
    "name": "ガンバ村保育園",
    "address": "\n〒930-0992 富山県富山市新庄町２丁目１５−３３",
    "latitude": 36.6996296,
    "longitude": 137.2557219,
    "link": "https://www.google.com/maps/place/%E3%82%AC%E3%83%B3%E3%83%90%E6%9D%91%E4%BF%9D%E8%82%B2%E5%9C%92/data=!4m7!3m6!1s0x5ff790cb0691018f:0x2081813a3b5b8d51!8m2!3d36.6996296!4d137.2557219!16s%2Fg%2F11b5pjc7k5!19sChIJjwGRBsuQ918RUY1bOzqBgSA?authuser=0&hl=ja&rclk=1",
    "category": "幼稚園"
  },
  {
    "name": "グランキッズ",
    "address": "\n〒930-0891 富山県富山市石坂３２７７−１",
    "latitude": 36.7167545,
    "longitude": 137.1999961,
    "link": "https://www.google.com/maps/place/%E3%82%B0%E3%83%A9%E3%83%B3%E3%82%AD%E3%83%83%E3%82%BA/data=!4m7!3m6!1s0x5ff79bfb1f5a23b5:0xf930a227a02c03b!8m2!3d36.7167545!4d137.1999961!16s%2Fg%2F11mwj02ch5!19sChIJtSNaH_ub918RO8ACeiIKkw8?authuser=0&hl=ja&rclk=1",
    "category": "幼稚園"
  },
  {
    "name": "富山市立新保なかよし認定こども園",
    "address": "\n〒939-8233 富山県富山市任海７７４−４ 市立新保なかよし認定こども園",
    "latitude": 36.634848,
    "longitude": 137.195522,
    "link": "https://www.google.com/maps/place/%E5%AF%8C%E5%B1%B1%E5%B8%82%E7%AB%8B%E6%96%B0%E4%BF%9D%E3%81%AA%E3%81%8B%E3%82%88%E3%81%97%E8%AA%8D%E5%AE%9A%E3%81%93%E3%81%A9%E3%82%82%E5%9C%92/data=!4m7!3m6!1s0x5ff78e6fb6847791:0xa8eab7fde2f192e3!8m2!3d36.634848!4d137.195522!16s%2Fg%2F1hhkxllbv!19sChIJkXeEtm-O918R45Lx4v236qg?authuser=0&hl=ja&rclk=1",
    "category": "幼稚園"
  },
  {
    "name": "城南もなみ学園",
    "address": "\n〒939-8272 富山県富山市太郎丸本町３丁目２−６",
    "latitude": 36.67648,
    "longitude": 137.212264,
    "link": "https://www.google.com/maps/place/%E5%9F%8E%E5%8D%97%E3%82%82%E3%81%AA%E3%81%BF%E5%AD%A6%E5%9C%92/data=!4m7!3m6!1s0x5ff7904f435a90e7:0xc987c87d6cfa4b46!8m2!3d36.67648!4d137.212264!16s%2Fg%2F1tmkktys!19sChIJ55BaQ0-Q918RRkv6bH3Ih8k?authuser=0&hl=ja&rclk=1",
    "category": "幼稚園"
  },
  {
    "name": "めぐみこども園",
    "address": "\n〒930-0816 富山県富山市上赤江町１丁目１２−５",
    "latitude": 36.7092981,
    "longitude": 137.2319268,
    "link": "https://www.google.com/maps/place/%E3%82%81%E3%81%90%E3%81%BF%E3%81%93%E3%81%A9%E3%82%82%E5%9C%92/data=!4m7!3m6!1s0x5ff790a8c0ee05c3:0xda91ba45be079e3b!8m2!3d36.7092981!4d137.2319268!16s%2Fg%2F1tyywzds!19sChIJwwXuwKiQ918RO54HvkW6kdo?authuser=0&hl=ja&rclk=1",
    "category": "幼稚園"
  },
  {
    "name": "ささくら保育園",
    "address": "\n〒939-2753 富山県富山市婦中町笹倉１０６−１",
    "latitude": 36.658858,
    "longitude": 137.153285,
    "link": "https://www.google.com/maps/place/%E3%81%95%E3%81%95%E3%81%8F%E3%82%89%E4%BF%9D%E8%82%B2%E5%9C%92/data=!4m7!3m6!1s0x5ff78fbe0cf3b377:0x4ed4344ffb83f55d!8m2!3d36.658858!4d137.153285!16s%2Fg%2F1tksn67l!19sChIJd7PzDL6P918RXfWD-0801E4?authuser=0&hl=ja&rclk=1",
    "category": "幼稚園"
  },
  {
    "name": "ニチイキッズとやま光陽保育園",
    "address": "\n〒939-8211 富山県富山市二口町１丁目２−４",
    "latitude": 36.6737771,
    "longitude": 137.2036558,
    "link": "https://www.google.com/maps/place/%E3%83%8B%E3%83%81%E3%82%A4%E3%82%AD%E3%83%83%E3%82%BA%E3%81%A8%E3%82%84%E3%81%BE%E5%85%89%E9%99%BD%E4%BF%9D%E8%82%B2%E5%9C%92/data=!4m7!3m6!1s0x5ff790383cb31e13:0xedd57c113832e3ef!8m2!3d36.6737771!4d137.2036558!16s%2Fg%2F11f2_wrgl7!19sChIJEx6zPDiQ918R7-MyOBF81e0?authuser=0&hl=ja&rclk=1",
    "category": "幼稚園"
  },
  {
    "name": "黒部市生地こども園",
    "address": "\n〒938-0072 富山県黒部市生地中区２４２",
    "latitude": 36.889511,
    "longitude": 137.418718,
    "link": "https://www.google.com/maps/place/%E9%BB%92%E9%83%A8%E5%B8%82%E7%94%9F%E5%9C%B0%E3%81%93%E3%81%A9%E3%82%82%E5%9C%92/data=!4m7!3m6!1s0x5ff7a91e8bee0145:0xaf79cfd93076044a!8m2!3d36.889511!4d137.418718!16s%2Fg%2F1tmxfdlh!19sChIJRQHuix6p918RSgR2MNnPea8?authuser=0&hl=ja&rclk=1",
    "category": "幼稚園"
  },
  {
    "name": "射水市立大門わかば幼稚園",
    "address": "\n〒939-0234 富山県射水市二口４２７−１",
    "latitude": 36.724756,
    "longitude": 137.054916,
    "link": "https://www.google.com/maps/place/%E5%B0%84%E6%B0%B4%E5%B8%82%E7%AB%8B%E5%A4%A7%E9%96%80%E3%82%8F%E3%81%8B%E3%81%B0%E5%B9%BC%E7%A8%9A%E5%9C%92/data=!4m7!3m6!1s0x5ff78337e0c824b3:0x2cdff96098e4f3a0!8m2!3d36.724756!4d137.054916!16s%2Fg%2F1tflrw32!19sChIJsyTI4DeD918RoPPkmGD53yw?authuser=0&hl=ja&rclk=1",
    "category": "幼稚園"
  },
  {
    "name": "石動青葉保育園（幼保連携型認定こども園）",
    "address": "\n〒932-0046 富山県小矢部市観音町５−４",
    "latitude": 36.6772862,
    "longitude": 136.8636523,
    "link": "https://www.google.com/maps/place/%E7%9F%B3%E5%8B%95%E9%9D%92%E8%91%89%E4%BF%9D%E8%82%B2%E5%9C%92%EF%BC%88%E5%B9%BC%E4%BF%9D%E9%80%A3%E6%90%BA%E5%9E%8B%E8%AA%8D%E5%AE%9A%E3%81%93%E3%81%A9%E3%82%82%E5%9C%92%EF%BC%89/data=!4m7!3m6!1s0x5ff82aa052ab01ab:0x9ff8aa765c4413e1!8m2!3d36.6772862!4d136.8636523!16s%2Fg%2F1tgdc80d!19sChIJqwGrUqAq-F8R4RNEXHaq-J8?authuser=0&hl=ja&rclk=1",
    "category": "幼稚園"
  },
  {
    "name": "企業主導型保育園 ありさわくらす",
    "address": "\n〒930-0862 富山県富山市有沢２６１",
    "latitude": 36.685673,
    "longitude": 137.188956,
    "link": "https://www.google.com/maps/place/%E4%BC%81%E6%A5%AD%E4%B8%BB%E5%B0%8E%E5%9E%8B%E4%BF%9D%E8%82%B2%E5%9C%92+%E3%81%82%E3%82%8A%E3%81%95%E3%82%8F%E3%81%8F%E3%82%89%E3%81%99/data=!4m7!3m6!1s0x5ff791a5bcd958d5:0x69bc87a552169c71!8m2!3d36.685673!4d137.188956!16s%2Fg%2F11r747nt9j!19sChIJ1VjZvKWR918RcZwWUqWHvGk?authuser=0&hl=ja&rclk=1",
    "category": "幼稚園"
  },
  {
    "name": "まつわか保育園",
    "address": "\n〒930-0812 富山県富山市松若町１６−３７",
    "latitude": 36.7170126,
    "longitude": 137.2277352,
    "link": "https://www.google.com/maps/place/%E3%81%BE%E3%81%A4%E3%82%8F%E3%81%8B%E4%BF%9D%E8%82%B2%E5%9C%92/data=!4m7!3m6!1s0x5ff79a03adea7527:0x1826ea73b93a767d!8m2!3d36.7170126!4d137.2277352!16s%2Fg%2F1tlkc6pp!19sChIJJ3XqrQOa918RfXY6uXPqJhg?authuser=0&hl=ja&rclk=1",
    "category": "幼稚園"
  },
  {
    "name": "ひかり保育園",
    "address": "\n〒930-0887 富山県富山市五福５４５",
    "latitude": 36.7008672,
    "longitude": 137.1946488,
    "link": "https://www.google.com/maps/place/%E3%81%B2%E3%81%8B%E3%82%8A%E4%BF%9D%E8%82%B2%E5%9C%92/data=!4m7!3m6!1s0x5ff79a7dd622e95b:0xadbeea2ba33a5e87!8m2!3d36.7008672!4d137.1946488!16s%2Fg%2F1tjdllww!19sChIJW-ki1n2a918Rh146oyvqvq0?authuser=0&hl=ja&rclk=1",
    "category": "幼稚園"
  },
  {
    "name": "射水市立七美幼稚園",
    "address": "\n〒933-0252 富山県射水市七美１０１４",
    "latitude": 36.753562,
    "longitude": 137.143984,
    "link": "https://www.google.com/maps/place/%E5%B0%84%E6%B0%B4%E5%B8%82%E7%AB%8B%E4%B8%83%E7%BE%8E%E5%B9%BC%E7%A8%9A%E5%9C%92/data=!4m7!3m6!1s0x5ff79c0562ed3749:0xfbe66ce29815fa14!8m2!3d36.753562!4d137.143984!16s%2Fg%2F1trtv4yj!19sChIJSTftYgWc918RFPoVmOJs5vs?authuser=0&hl=ja&rclk=1",
    "category": "幼稚園"
  },
  {
    "name": "富山市立 大久保認定こども園",
    "address": "\n〒939-2251 富山県富山市下大久保３１１ 市立大久保保育所",
    "latitude": 36.604991,
    "longitude": 137.212958,
    "link": "https://www.google.com/maps/place/%E5%AF%8C%E5%B1%B1%E5%B8%82%E7%AB%8B+%E5%A4%A7%E4%B9%85%E4%BF%9D%E8%AA%8D%E5%AE%9A%E3%81%93%E3%81%A9%E3%82%82%E5%9C%92/data=!4m7!3m6!1s0x5ff78c501c076eb1:0xd1ae8a14ee8a7d03!8m2!3d36.604991!4d137.212958!16s%2Fg%2F1vvdv1qw!19sChIJsW4HHFCM918RA32K7hSKrtE?authuser=0&hl=ja&rclk=1",
    "category": "幼稚園"
  },
  {
    "name": "わかくさ保育園もみじの家 病児保育室さくらんぼ",
    "address": "\n〒930-0952 富山県富山市町村２１２−８",
    "latitude": 36.6767727,
    "longitude": 137.2567258,
    "link": "https://www.google.com/maps/place/%E3%82%8F%E3%81%8B%E3%81%8F%E3%81%95%E4%BF%9D%E8%82%B2%E5%9C%92%E3%82%82%E3%81%BF%E3%81%98%E3%81%AE%E5%AE%B6+%E7%97%85%E5%85%90%E4%BF%9D%E8%82%B2%E5%AE%A4%E3%81%95%E3%81%8F%E3%82%89%E3%82%93%E3%81%BC/data=!4m7!3m6!1s0x5ff7910fd6d57dfd:0x9ff9d8e39b749a90!8m2!3d36.6767727!4d137.2567258!16s%2Fg%2F1tmqg1kw!19sChIJ_X3V1g-R918RkJp0m-PY-Z8?authuser=0&hl=ja&rclk=1",
    "category": "幼稚園"
  },
  {
    "name": "富山聖マリア保育園",
    "address": "\n〒930-0065 富山県富山市星井町３丁目９−１",
    "latitude": 36.682699,
    "longitude": 137.2142119,
    "link": "https://www.google.com/maps/place/%E5%AF%8C%E5%B1%B1%E8%81%96%E3%83%9E%E3%83%AA%E3%82%A2%E4%BF%9D%E8%82%B2%E5%9C%92/data=!4m7!3m6!1s0x152fa191c5077a49:0xe8c8c923050d1397!8m2!3d36.682699!4d137.2142119!16s%2Fg%2F11b6yh4d5y!19sChIJSXoHxZGhLxURlxMNBSPJyOg?authuser=0&hl=ja&rclk=1",
    "category": "幼稚園"
  },
  {
    "name": "まどか幼稚園 乳児棟",
    "address": "\n〒930-0103 富山県富山市北代４１３５−２３",
    "latitude": 36.7175031,
    "longitude": 137.1786895,
    "link": "https://www.google.com/maps/place/%E3%81%BE%E3%81%A9%E3%81%8B%E5%B9%BC%E7%A8%9A%E5%9C%92+%E4%B9%B3%E5%85%90%E6%A3%9F/data=!4m7!3m6!1s0x5ff79b5684df217b:0x3e44b8ed9eb99152!8m2!3d36.7175031!4d137.1786895!16s%2Fg%2F11r6f3tls1!19sChIJeyHfhFab918RUpG5nu24RD4?authuser=0&hl=ja&rclk=1",
    "category": "幼稚園"
  },
  {
    "name": "ひらきこども園（幼保連携型認定こども園）",
    "address": "\n〒930-0944 富山県富山市開202番地1",
    "latitude": 36.6842699,
    "longitude": 137.2606298,
    "link": "https://www.google.com/maps/place/%E3%81%B2%E3%82%89%E3%81%8D%E3%81%93%E3%81%A9%E3%82%82%E5%9C%92%EF%BC%88%E5%B9%BC%E4%BF%9D%E9%80%A3%E6%90%BA%E5%9E%8B%E8%AA%8D%E5%AE%9A%E3%81%93%E3%81%A9%E3%82%82%E5%9C%92%EF%BC%89/data=!4m7!3m6!1s0x5ff791595f794913:0x61fde60ab159cef3!8m2!3d36.6842699!4d137.2606298!16s%2Fg%2F11l2_pzss6!19sChIJE0l5X1mR918R885ZsQrm_WE?authuser=0&hl=ja&rclk=1",
    "category": "幼稚園"
  },
  {
    "name": "さくら幼稚園",
    "address": "\n〒938-0014 富山県黒部市植木６８",
    "latitude": 36.8815873,
    "longitude": 137.44628,
    "link": "https://www.google.com/maps/place/%E3%81%95%E3%81%8F%E3%82%89%E5%B9%BC%E7%A8%9A%E5%9C%92/data=!4m7!3m6!1s0x5ff7a92d64c56533:0x1b23a7c0b9460f9b!8m2!3d36.8815873!4d137.44628!16s%2Fg%2F1tg_wyw3!19sChIJM2XFZC2p918Rmw9GucCnIxs?authuser=0&hl=ja&rclk=1",
    "category": "幼稚園"
  },
  {
    "name": "鵜坂保育園",
    "address": "\n〒939-2705 富山県富山市婦中町上田島２",
    "latitude": 36.6690178,
    "longitude": 137.1717951,
    "link": "https://www.google.com/maps/place/%E9%B5%9C%E5%9D%82%E4%BF%9D%E8%82%B2%E5%9C%92/data=!4m7!3m6!1s0x5ff78fe0beb8d4f5:0x7ec2ea06a907664d!8m2!3d36.6690178!4d137.1717951!16s%2Fg%2F1hbpwrftg!19sChIJ9dS4vuCP918RTWYHqQbqwn4?authuser=0&hl=ja&rclk=1",
    "category": "幼稚園"
  },
  {
    "name": "鷹寺学園",
    "address": "\n〒939-0341 富山県射水市三ケ高寺１５９７−１",
    "latitude": 36.7244155,
    "longitude": 137.1004426,
    "link": "https://www.google.com/maps/place/%E9%B7%B9%E5%AF%BA%E5%AD%A6%E5%9C%92/data=!4m7!3m6!1s0x5ff79b5ed7ead3eb:0x6fca2f232b4ec298!8m2!3d36.7244155!4d137.1004426!16s%2Fg%2F11f6dm8fsy!19sChIJ69Pq116b918RmMJOKyMvym8?authuser=0&hl=ja&rclk=1",
    "category": "幼稚園"
  },
  {
    "name": "新庄 さくら保育園",
    "address": "\n〒930-0991 富山県富山市新庄銀座２丁目７−１２ 新庄さくら保育園",
    "latitude": 36.7120581,
    "longitude": 137.2633092,
    "link": "https://www.google.com/maps/place/%E6%96%B0%E5%BA%84+%E3%81%95%E3%81%8F%E3%82%89%E4%BF%9D%E8%82%B2%E5%9C%92/data=!4m7!3m6!1s0x5ff797460686f89d:0x7c954baec1d37635!8m2!3d36.7120581!4d137.2633092!16s%2Fg%2F11b5pjfn19!19sChIJnfiGBkaX918RNXbTwa5LlXw?authuser=0&hl=ja&rclk=1",
    "category": "幼稚園"
  },
  {
    "name": "まんまるキッズ英語保育園",
    "address": "\n〒939-8006 富山県富山市山室2階３４０−２ サザンロードビル",
    "latitude": 36.6764109,
    "longitude": 137.2372098,
    "link": "https://www.google.com/maps/place/%E3%81%BE%E3%82%93%E3%81%BE%E3%82%8B%E3%82%AD%E3%83%83%E3%82%BA%E8%8B%B1%E8%AA%9E%E4%BF%9D%E8%82%B2%E5%9C%92/data=!4m7!3m6!1s0x5ff7919e0f47450f:0x2448f6c0975ffca0!8m2!3d36.6764109!4d137.2372098!16s%2Fg%2F11f62l9c3v!19sChIJD0VHD56R918RoPxfl8D2SCQ?authuser=0&hl=ja&rclk=1",
    "category": "幼稚園"
  },
  {
    "name": "庄東認定こども園",
    "address": "\n〒939-1401 富山県砺波市東保７１１",
    "latitude": 36.6581486,
    "longitude": 137.0180731,
    "link": "https://www.google.com/maps/place/%E5%BA%84%E6%9D%B1%E8%AA%8D%E5%AE%9A%E3%81%93%E3%81%A9%E3%82%82%E5%9C%92/data=!4m7!3m6!1s0x5ff7868cc1c52209:0x87dd922870f70e91!8m2!3d36.6581486!4d137.0180731!16s%2Fg%2F1tdfs_2d!19sChIJCSLFwYyG918RkQ73cCiS3Yc?authuser=0&hl=ja&rclk=1",
    "category": "幼稚園"
  },
  {
    "name": "萩浦保育園",
    "address": "\n〒931-8336 富山県富山市高畠町２丁目３−２３ 子育て支援センターアップル",
    "latitude": 36.7477226,
    "longitude": 137.2306645,
    "link": "https://www.google.com/maps/place/%E8%90%A9%E6%B5%A6%E4%BF%9D%E8%82%B2%E5%9C%92/data=!4m7!3m6!1s0x5ff799a822f3dee3:0x5dc5d25ab9ece804!8m2!3d36.7477226!4d137.2306645!16s%2Fg%2F1td0y9v4!19sChIJ497zIqiZ918RBOjsuVrSxV0?authuser=0&hl=ja&rclk=1",
    "category": "幼稚園"
  },
  {
    "name": "わかくさ保育園もみじの家",
    "address": "\n〒930-0952 富山県富山市町村２１２−８",
    "latitude": 36.6767688,
    "longitude": 137.2567246,
    "link": "https://www.google.com/maps/place/%E3%82%8F%E3%81%8B%E3%81%8F%E3%81%95%E4%BF%9D%E8%82%B2%E5%9C%92%E3%82%82%E3%81%BF%E3%81%98%E3%81%AE%E5%AE%B6/data=!4m7!3m6!1s0x5ff791102de630d1:0xb7e62fcbd11c53e8!8m2!3d36.6767688!4d137.2567246!16s%2Fg%2F1ts_6g30!19sChIJ0TDmLRCR918R6FMc0csv5rc?authuser=0&hl=ja&rclk=1",
    "category": "幼稚園"
  },
  {
    "name": "公財)鉄道弘済会 若竹保育園",
    "address": "\n〒931-8316 富山県富山市豊丘町２８−２０ 鉄道弘済会 富山保育所",
    "latitude": 36.7276184,
    "longitude": 137.23328,
    "link": "https://www.google.com/maps/place/%E5%85%AC%E8%B2%A1%29%E9%89%84%E9%81%93%E5%BC%98%E6%B8%88%E4%BC%9A+%E8%8B%A5%E7%AB%B9%E4%BF%9D%E8%82%B2%E5%9C%92/data=!4m7!3m6!1s0x5ff799edc33d4271:0xea5f1f16329f0df6!8m2!3d36.7276184!4d137.23328!16s%2Fg%2F1tjv3c4s!19sChIJcUI9w-2Z918R9g2fMhYfX-o?authuser=0&hl=ja&rclk=1",
    "category": "幼稚園"
  },
  {
    "name": "かたかご保育園",
    "address": "\n〒930-0887 富山県富山市五福９−４３２３",
    "latitude": 36.699709,
    "longitude": 137.183425,
    "link": "https://www.google.com/maps/place/%E3%81%8B%E3%81%9F%E3%81%8B%E3%81%94%E4%BF%9D%E8%82%B2%E5%9C%92/data=!4m7!3m6!1s0x5ff79a85e33d36ef:0x8f3d3544b58be3ba!8m2!3d36.699709!4d137.183425!16s%2Fg%2F1tfftssd!19sChIJ7zY944Wa918RuuOLtUQ1PY8?authuser=0&hl=ja&rclk=1",
    "category": "幼稚園"
  },
  {
    "name": "さくらキッズステーション",
    "address": "\n〒939-8214 富山県富山市黒崎２９１",
    "latitude": 36.6524858,
    "longitude": 137.2073393,
    "link": "https://www.google.com/maps/place/%E3%81%95%E3%81%8F%E3%82%89%E3%82%AD%E3%83%83%E3%82%BA%E3%82%B9%E3%83%86%E3%83%BC%E3%82%B7%E3%83%A7%E3%83%B3/data=!4m7!3m6!1s0x5ff78f2ac54fe88d:0xdb0d996324f833c6!8m2!3d36.6524858!4d137.2073393!16s%2Fg%2F11r34t7bcd!19sChIJjehPxSqP918RxjP4JGOZDds?authuser=0&hl=ja&rclk=1",
    "category": "幼稚園"
  },
  {
    "name": "西田地方保育園",
    "address": "\n〒939-8202 富山県富山市西田地方町２丁目１０−３０",
    "latitude": 36.6822014,
    "longitude": 137.2075223,
    "link": "https://www.google.com/maps/place/%E8%A5%BF%E7%94%B0%E5%9C%B0%E6%96%B9%E4%BF%9D%E8%82%B2%E5%9C%92/data=!4m7!3m6!1s0x5ff790661e919a09:0x5b8bcd5a92bede36!8m2!3d36.6822014!4d137.2075223!16s%2Fg%2F1wg5xvz5!19sChIJCZqRHmaQ918RNt6-klrNi1s?authuser=0&hl=ja&rclk=1",
    "category": "幼稚園"
  },
  {
    "name": "いちい保育園",
    "address": "\n〒939-8191 富山県富山市布市６８２−１",
    "latitude": 36.6446128,
    "longitude": 137.2346235,
    "link": "https://www.google.com/maps/place/%E3%81%84%E3%81%A1%E3%81%84%E4%BF%9D%E8%82%B2%E5%9C%92/data=!4m7!3m6!1s0x5ff791fed19f4ed3:0x725a32ae029a960e!8m2!3d36.6446128!4d137.2346235!16s%2Fg%2F1thq544x!19sChIJ006f0f6R918RDpaaAq4yWnI?authuser=0&hl=ja&rclk=1",
    "category": "幼稚園"
  },
  {
    "name": "ガンバ村保育園petit",
    "address": "\n〒931-8435 富山県富山市小西１７０",
    "latitude": 36.7249867,
    "longitude": 137.2574789,
    "link": "https://www.google.com/maps/place/%E3%82%AC%E3%83%B3%E3%83%90%E6%9D%91%E4%BF%9D%E8%82%B2%E5%9C%92petit/data=!4m7!3m6!1s0x5ff79954992278cb:0x661f0fa7e0bb8d61!8m2!3d36.7249867!4d137.2574789!16s%2Fg%2F11fmf41gkt!19sChIJy3gimVSZ918RYY274KcPH2Y?authuser=0&hl=ja&rclk=1",
    "category": "幼稚園"
  },
  {
    "name": "ピノキオナースリースクール",
    "address": "\n〒939-2713 富山県富山市婦中町上轡田３５−１ 和敬会",
    "latitude": 36.6636497,
    "longitude": 137.1811537,
    "link": "https://www.google.com/maps/place/%E3%83%94%E3%83%8E%E3%82%AD%E3%82%AA%E3%83%8A%E3%83%BC%E3%82%B9%E3%83%AA%E3%83%BC%E3%82%B9%E3%82%AF%E3%83%BC%E3%83%AB/data=!4m7!3m6!1s0x5ff78fd9fc102ec7:0x3329f9952fb43934!8m2!3d36.6636497!4d137.1811537!16s%2Fg%2F1tf4dwwx!19sChIJxy4Q_NmP918RNDm0L5X5KTM?authuser=0&hl=ja&rclk=1",
    "category": "幼稚園"
  },
  {
    "name": "和合保育所",
    "address": "\n〒930-2233 富山県富山市布目４１７３ ワゴウ",
    "latitude": 36.7392208,
    "longitude": 137.1885405,
    "link": "https://www.google.com/maps/place/%E5%92%8C%E5%90%88%E4%BF%9D%E8%82%B2%E6%89%80/data=!4m7!3m6!1s0x5ff79bd81aea4d09:0xdb2705cb804775bd!8m2!3d36.7392208!4d137.1885405!16s%2Fg%2F1t_hyvh0!19sChIJCU3qGtib918RvXVHgMsFJ9s?authuser=0&hl=ja&rclk=1",
    "category": "幼稚園"
  },
  {
    "name": "富山市役所 保育所岩瀬保育所",
    "address": "\n〒931-8341 富山県富山市岩瀬御蔵町１−１",
    "latitude": 36.7546137,
    "longitude": 137.2304985,
    "link": "https://www.google.com/maps/place/%E5%AF%8C%E5%B1%B1%E5%B8%82%E5%BD%B9%E6%89%80+%E4%BF%9D%E8%82%B2%E6%89%80%E5%B2%A9%E7%80%AC%E4%BF%9D%E8%82%B2%E6%89%80/data=!4m7!3m6!1s0x5ff7990249b9e8af:0xf8700a8348f0cd78!8m2!3d36.7546137!4d137.2304985!16s%2Fg%2F11hyl63rcz!19sChIJr-i5SQKZ918ReM3wSIMKcPg?authuser=0&hl=ja&rclk=1",
    "category": "幼稚園"
  },
  {
    "name": "富山市立中央小学校",
    "address": "\n〒930-0052 富山県富山市五番町４−３５",
    "latitude": 36.686951,
    "longitude": 137.219465,
    "link": "https://www.google.com/maps/place/%E5%AF%8C%E5%B1%B1%E5%B8%82%E7%AB%8B%E4%B8%AD%E5%A4%AE%E5%B0%8F%E5%AD%A6%E6%A0%A1/data=!4m7!3m6!1s0x5ff790f59dd09d71:0x4d4b13ca0829360c!8m2!3d36.686951!4d137.219465!16s%2Fg%2F11b66cwpy0!19sChIJcZ3QnfWQ918RDDYpCMoTS00?authuser=0&hl=ja&rclk=1",
    "category": "小学校"
  },
  {
    "name": "富山市立新庄小学校",
    "address": "\n〒930-0992 富山県富山市新庄町１丁目６−３０",
    "latitude": 36.7020999,
    "longitude": 137.2518149,
    "link": "https://www.google.com/maps/place/%E5%AF%8C%E5%B1%B1%E5%B8%82%E7%AB%8B%E6%96%B0%E5%BA%84%E5%B0%8F%E5%AD%A6%E6%A0%A1/data=!4m7!3m6!1s0x5ff790c98db81505:0xf3cb78b3a2ad6592!8m2!3d36.7020999!4d137.2518149!16s%2Fg%2F11b66gnt2v!19sChIJBRW4jcmQ918RkmWtorN4y_M?authuser=0&hl=ja&rclk=1",
    "category": "小学校"
  },
  {
    "name": "富山市立長岡小学校",
    "address": "\n〒930-0111 富山県富山市長岡９４２０",
    "latitude": 36.720053,
    "longitude": 137.189063,
    "link": "https://www.google.com/maps/place/%E5%AF%8C%E5%B1%B1%E5%B8%82%E7%AB%8B%E9%95%B7%E5%B2%A1%E5%B0%8F%E5%AD%A6%E6%A0%A1/data=!4m7!3m6!1s0x5ff79a4794a38d8d:0x54ae3b70058e616a!8m2!3d36.720053!4d137.189063!16s%2Fg%2F11b6bbt4jt!19sChIJjY2jlEea918RamGOBXA7rlQ?authuser=0&hl=ja&rclk=1",
    "category": "小学校"
  },
  {
    "name": "富山市立蜷川小学校",
    "address": "\n〒939-8064 富山県富山市赤田７５−１",
    "latitude": 36.6541152,
    "longitude": 137.2226408,
    "link": "https://www.google.com/maps/place/%E5%AF%8C%E5%B1%B1%E5%B8%82%E7%AB%8B%E8%9C%B7%E5%B7%9D%E5%B0%8F%E5%AD%A6%E6%A0%A1/data=!4m7!3m6!1s0x5ff791e7812cb9f7:0x3722744c26863d32!8m2!3d36.6541152!4d137.2226408!16s%2Fg%2F11b66g7cg9!19sChIJ97ksgeeR918RMj2GJkx0Ijc?authuser=0&hl=ja&rclk=1",
    "category": "小学校"
  },
  {
    "name": "富山市立太田小学校",
    "address": "\n〒939-8048 富山県富山市太田１４−２",
    "latitude": 36.653903,
    "longitude": 137.2505439,
    "link": "https://www.google.com/maps/place/%E5%AF%8C%E5%B1%B1%E5%B8%82%E7%AB%8B%E5%A4%AA%E7%94%B0%E5%B0%8F%E5%AD%A6%E6%A0%A1/data=!4m7!3m6!1s0x5ff7918c7a8edf47:0x25fc5b09185a3e18!8m2!3d36.653903!4d137.2505439!16s%2Fg%2F11b66gylk9!19sChIJR9-OeoyR918RGD5aGAlb_CU?authuser=0&hl=ja&rclk=1",
    "category": "小学校"
  },
  {
    "name": "富山市立岩瀬小学校",
    "address": "\n〒931-8341 富山県富山市岩瀬御蔵町１−１",
    "latitude": 36.7541479,
    "longitude": 137.2305166,
    "link": "https://www.google.com/maps/place/%E5%AF%8C%E5%B1%B1%E5%B8%82%E7%AB%8B%E5%B2%A9%E7%80%AC%E5%B0%8F%E5%AD%A6%E6%A0%A1/data=!4m7!3m6!1s0x5ff79902482f7d73:0x141eaef9cc96d34a!8m2!3d36.7541479!4d137.2305166!16s%2Fg%2F11b6b6z_6z!19sChIJc30vSAKZ918RStOWzPmuHhQ?authuser=0&hl=ja&rclk=1",
    "category": "小学校"
  },
  {
    "name": "富山市立熊野小学校",
    "address": "\n〒939-8171 富山県富山市宮保６０２",
    "latitude": 36.6293538,
    "longitude": 137.2211206,
    "link": "https://www.google.com/maps/place/%E5%AF%8C%E5%B1%B1%E5%B8%82%E7%AB%8B%E7%86%8A%E9%87%8E%E5%B0%8F%E5%AD%A6%E6%A0%A1/data=!4m7!3m6!1s0x5ff78de776d5fd51:0x2aa819916a36f2af!8m2!3d36.6293538!4d137.2211206!16s%2Fg%2F11b66cwpvl!19sChIJUf3VdueN918Rr_I2apEZqCo?authuser=0&hl=ja&rclk=1",
    "category": "小学校"
  },
  {
    "name": "富山市立藤ノ木小学校",
    "address": "\n〒930-0936 富山県富山市藤木１２４６",
    "latitude": 36.6867801,
    "longitude": 137.2678407,
    "link": "https://www.google.com/maps/place/%E5%AF%8C%E5%B1%B1%E5%B8%82%E7%AB%8B%E8%97%A4%E3%83%8E%E6%9C%A8%E5%B0%8F%E5%AD%A6%E6%A0%A1/data=!4m7!3m6!1s0x5ff79125b35055b7:0x21fe37acdad4675a!8m2!3d36.6867801!4d137.2678407!16s%2Fg%2F11b66bn3pt!19sChIJt1VQsyWR918RWmfU2qw3_iE?authuser=0&hl=ja&rclk=1",
    "category": "小学校"
  },
  {
    "name": "富山市立奥田小学校",
    "address": "\n〒930-0851 富山県富山市奥田双葉町１０−１８",
    "latitude": 36.7085401,
    "longitude": 137.220853,
    "link": "https://www.google.com/maps/place/%E5%AF%8C%E5%B1%B1%E5%B8%82%E7%AB%8B%E5%A5%A5%E7%94%B0%E5%B0%8F%E5%AD%A6%E6%A0%A1/data=!4m7!3m6!1s0x5ff79a0a1ac56d13:0xd1c5d19bda1d1a90!8m2!3d36.7085401!4d137.220853!16s%2Fg%2F121k83rt!19sChIJE23FGgqa918RkBod2pvRxdE?authuser=0&hl=ja&rclk=1",
    "category": "小学校"
  },
  {
    "name": "富山市立寒江小学校",
    "address": "\n〒930-0108 富山県富山市本郷中部４２７",
    "latitude": 36.729523,
    "longitude": 137.1528793,
    "link": "https://www.google.com/maps/place/%E5%AF%8C%E5%B1%B1%E5%B8%82%E7%AB%8B%E5%AF%92%E6%B1%9F%E5%B0%8F%E5%AD%A6%E6%A0%A1/data=!4m7!3m6!1s0x5ff79ba32a9c6ecb:0xe5e7b2e400fcd7f!8m2!3d36.729523!4d137.1528793!16s%2Fg%2F11b66f8jgf!19sChIJy26cKqOb918Rf80PQC57Xg4?authuser=0&hl=ja&rclk=1",
    "category": "小学校"
  },
  {
    "name": "富山市立山室中部小学校",
    "address": "\n〒939-8022 富山県富山市山室荒屋１６２−２",
    "latitude": 36.671853,
    "longitude": 137.253566,
    "link": "https://www.google.com/maps/place/%E5%AF%8C%E5%B1%B1%E5%B8%82%E7%AB%8B%E5%B1%B1%E5%AE%A4%E4%B8%AD%E9%83%A8%E5%B0%8F%E5%AD%A6%E6%A0%A1/data=!4m7!3m6!1s0x5ff7910bc04882bd:0x23b935e35eb2e5be!8m2!3d36.671853!4d137.253566!16s%2Fg%2F11vk8pzj9!19sChIJvYJIwAuR918RvuWyXuM1uSM?authuser=0&hl=ja&rclk=1",
    "category": "小学校"
  },
  {
    "name": "富山市立桜谷小学校",
    "address": "\n〒930-0897 富山県富山市田刈屋２７９",
    "latitude": 36.7084486,
    "longitude": 137.1990475,
    "link": "https://www.google.com/maps/place/%E5%AF%8C%E5%B1%B1%E5%B8%82%E7%AB%8B%E6%A1%9C%E8%B0%B7%E5%B0%8F%E5%AD%A6%E6%A0%A1/data=!4m7!3m6!1s0x5ff79a6fca45772f:0x981cc4bc77c09a32!8m2!3d36.7084486!4d137.1990475!16s%2Fg%2F11b66sld1q!19sChIJL3dFym-a918RMprAd7zEHJg?authuser=0&hl=ja&rclk=1",
    "category": "小学校"
  },
  {
    "name": "富山市立音川小学校",
    "address": "\n〒939-2632 富山県富山市婦中町外輪野５９５９",
    "latitude": 36.629797,
    "longitude": 137.094367,
    "link": "https://www.google.com/maps/place/%E5%AF%8C%E5%B1%B1%E5%B8%82%E7%AB%8B%E9%9F%B3%E5%B7%9D%E5%B0%8F%E5%AD%A6%E6%A0%A1/data=!4m7!3m6!1s0x5ff788c8d75ed199:0x3f51ba1c3ef8a0dc!8m2!3d36.629797!4d137.094367!16s%2Fg%2F11b60vk9vq!19sChIJmdFe18iI918R3KD4Phy6UT8?authuser=0&hl=ja&rclk=1",
    "category": "小学校"
  },
  {
    "name": "富山市立大庄小学校",
    "address": "\n〒930-1303 富山県富山市善名４５３",
    "latitude": 36.619101,
    "longitude": 137.278979,
    "link": "https://www.google.com/maps/place/%E5%AF%8C%E5%B1%B1%E5%B8%82%E7%AB%8B%E5%A4%A7%E5%BA%84%E5%B0%8F%E5%AD%A6%E6%A0%A1/data=!4m7!3m6!1s0x5ff792825a03005b:0x8f71c91506f36ae0!8m2!3d36.619101!4d137.278979!16s%2Fg%2F11b62zp87n!19sChIJWwADWoKS918R4GrzBhXJcY8?authuser=0&hl=ja&rclk=1",
    "category": "小学校"
  },
  {
    "name": "富山市立四方小学校",
    "address": "\n〒930-2243 富山県富山市四方４０５",
    "latitude": 36.7546161,
    "longitude": 137.1955564,
    "link": "https://www.google.com/maps/place/%E5%AF%8C%E5%B1%B1%E5%B8%82%E7%AB%8B%E5%9B%9B%E6%96%B9%E5%B0%8F%E5%AD%A6%E6%A0%A1/data=!4m7!3m6!1s0x5ff79940af733063:0xb893c230050aa175!8m2!3d36.7546161!4d137.1955564!16s%2Fg%2F11b6bb7ldf!19sChIJYzBzr0CZ918RdaEKBTDCk7g?authuser=0&hl=ja&rclk=1",
    "category": "小学校"
  },
  {
    "name": "富山市立鵜坂小学校",
    "address": "\n〒939-2717 富山県富山市婦中町上田島６８",
    "latitude": 36.66903,
    "longitude": 137.175585,
    "link": "https://www.google.com/maps/place/%E5%AF%8C%E5%B1%B1%E5%B8%82%E7%AB%8B%E9%B5%9C%E5%9D%82%E5%B0%8F%E5%AD%A6%E6%A0%A1/data=!4m7!3m6!1s0x5ff78fdfce618cb5:0x8e87646bedc3417d!8m2!3d36.66903!4d137.175585!16s%2Fg%2F11bbxqsjqy!19sChIJtYxhzt-P918RfUHD7Wtkh44?authuser=0&hl=ja&rclk=1",
    "category": "小学校"
  },
  {
    "name": "富山市立奥田北小学校",
    "address": "\n〒930-0802 富山県富山市下新北町３−７２",
    "latitude": 36.7192787,
    "longitude": 137.220623,
    "link": "https://www.google.com/maps/place/%E5%AF%8C%E5%B1%B1%E5%B8%82%E7%AB%8B%E5%A5%A5%E7%94%B0%E5%8C%97%E5%B0%8F%E5%AD%A6%E6%A0%A1/data=!4m7!3m6!1s0x5ff79a1c639a0f83:0x92a1f04024f40c9c!8m2!3d36.7192787!4d137.220623!16s%2Fg%2F1222zjld!19sChIJgw-aYxya918RnAz0JEDwoZI?authuser=0&hl=ja&rclk=1",
    "category": "小学校"
  },
  {
    "name": "富山市立小見小学校",
    "address": "\n〒930-1456 富山県富山市小見２５０",
    "latitude": 36.5743305,
    "longitude": 137.384122,
    "link": "https://www.google.com/maps/place/%E5%AF%8C%E5%B1%B1%E5%B8%82%E7%AB%8B%E5%B0%8F%E8%A6%8B%E5%B0%8F%E5%AD%A6%E6%A0%A1/data=!4m7!3m6!1s0x5ff7edefa1d60353:0xed5b89a4931d4717!8m2!3d36.5743305!4d137.384122!16s%2Fg%2F11b631yx73!19sChIJUwPWoe_t918RF0cdk6SJW-0?authuser=0&hl=ja&rclk=1",
    "category": "小学校"
  },
  {
    "name": "富山市立大久保小学校",
    "address": "\n〒939-2251 富山県富山市下大久保２４３０",
    "latitude": 36.604496,
    "longitude": 137.2044251,
    "link": "https://www.google.com/maps/place/%E5%AF%8C%E5%B1%B1%E5%B8%82%E7%AB%8B%E5%A4%A7%E4%B9%85%E4%BF%9D%E5%B0%8F%E5%AD%A6%E6%A0%A1/data=!4m7!3m6!1s0x5ff78c4471c485d9:0xc8a3f18859afbee2!8m2!3d36.604496!4d137.2044251!16s%2Fg%2F11b66gyln8!19sChIJ2YXEcUSM918R4r6vWYjxo8g?authuser=0&hl=ja&rclk=1",
    "category": "小学校"
  },