[
  {
    "name": "割野こども園",
    "address": "\n〒950-0321 新潟県新潟市江南区割野２０９２−３ 同朋福祉協会割野保育園",
    "latitude": 37.8398807,
    "longitude": 139.0910288,
    "link": "https://www.google.com/maps/place/%E5%89%B2%E9%87%8E%E3%81%93%E3%81%A9%E3%82%82%E5%9C%92/data=!4m7!3m6!1s0x5ff4cf9c44ac22cf:0x77e803664cb22b86!8m2!3d37.8398807!4d139.0910288!16s%2Fg%2F1v6qhgck!19sChIJzyKsRJzP9F8RhiuyTGYD6Hc?authuser=0&hl=ja&rclk=1",
    "category": "保育園"
  },
  {
    "name": "新潟認定こども園",
    "address": "\n〒951-8133 新潟県新潟市中央区川岸町３丁目",
    "latitude": 37.9094096,
    "longitude": 139.0259528,
    "link": "https://www.google.com/maps/place/%E6%96%B0%E6%BD%9F%E8%AA%8D%E5%AE%9A%E3%81%93%E3%81%A9%E3%82%82%E5%9C%92/data=!4m7!3m6!1s0x5ff4c9c92daa38b7:0x23374c1847fb75e2!8m2!3d37.9094096!4d139.0259528!16s%2Fg%2F1tgdnd7n!19sChIJtziqLcnJ9F8R4nX7RxhMNyM?authuser=0&hl=ja&rclk=1",
    "category": "保育園"
  },
  {
    "name": "こどものいえこども園",
    "address": "\n〒950-0952 新潟県新潟市中央区親松１０１−１ こどものいえ保育園",
    "latitude": 37.8799504,
    "longitude": 139.0288415,
    "link": "https://www.google.com/maps/place/%E3%81%93%E3%81%A9%E3%82%82%E3%81%AE%E3%81%84%E3%81%88%E3%81%93%E3%81%A9%E3%82%82%E5%9C%92/data=!4m7!3m6!1s0x5ff4c892e94ec821:0x7d7390a69f02b1c4!8m2!3d37.8799504!4d139.0288415!16s%2Fg%2F1tgvdgq8!19sChIJIchO6ZLI9F8RxLECn6aQc30?authuser=0&hl=ja&rclk=1",
    "category": "保育園"
  },
  {
    "name": "赤沢保育園",
    "address": "\n〒951-8028 新潟県新潟市中央区東湊町通守孤扶独幼稚児保護会赤沢保育園 1の町２５４７",
    "latitude": 37.9269716,
    "longitude": 139.0515928,
    "link": "https://www.google.com/maps/place/%E8%B5%A4%E6%B2%A2%E4%BF%9D%E8%82%B2%E5%9C%92/data=!4m7!3m6!1s0x5ff4c9f79dd65c1b:0x5c4ea7797b74bebf!8m2!3d37.9269716!4d139.0515928!16s%2Fg%2F1v8j08fm!19sChIJG1zWnffJ9F8Rv750e3mnTlw?authuser=0&hl=ja&rclk=1",
    "category": "保育園"
  },
  {
    "name": "しなの保育園",
    "address": "\n〒951-8152 新潟県新潟市中央区信濃町１９−２０ 市立しなの保育園",
    "latitude": 37.9097111,
    "longitude": 139.0120762,
    "link": "https://www.google.com/maps/place/%E3%81%97%E3%81%AA%E3%81%AE%E4%BF%9D%E8%82%B2%E5%9C%92/data=!4m7!3m6!1s0x5ff4c832e9f2ea57:0xcc7c6fc0fac01816!8m2!3d37.9097111!4d139.0120762!16s%2Fg%2F1tgx6ftz!19sChIJV-ry6TLI9F8RFhjA-sBvfMw?authuser=0&hl=ja&rclk=1",
    "category": "保育園"
  },
  {
    "name": "万代保育園",
    "address": "\n〒950-0082 新潟県新潟市中央区東万代町９−番52号",
    "latitude": 37.917193,
    "longitude": 139.0628311,
    "link": "https://www.google.com/maps/place/%E4%B8%87%E4%BB%A3%E4%BF%9D%E8%82%B2%E5%9C%92/data=!4m7!3m6!1s0x5ff4c9897558e1f7:0xce6c76876ec8d944!8m2!3d37.917193!4d139.0628311!16s%2Fg%2F1v42fn3r!19sChIJ9-FYdYnJ9F8RRNnIbod2bM4?authuser=0&hl=ja&rclk=1",
    "category": "保育園"
  },
  {
    "name": "新潟えきなかこども園",
    "address": "\n〒950-0086 新潟県新潟市中央区花園１丁目１−１",
    "latitude": 37.9124744,
    "longitude": 139.0637916,
    "link": "https://www.google.com/maps/place/%E6%96%B0%E6%BD%9F%E3%81%88%E3%81%8D%E3%81%AA%E3%81%8B%E3%81%93%E3%81%A9%E3%82%82%E5%9C%92/data=!4m7!3m6!1s0x5ff4c99ad3c1eeeb:0x6700363a36c7ae18!8m2!3d37.9124744!4d139.0637916!16s%2Fg%2F1tp0dhxd!19sChIJ6-7B05rJ9F8RGK7HNjo2AGc?authuser=0&hl=ja&rclk=1",
    "category": "保育園"
  },
  {
    "name": "幼保連携型こやす認定こども園",
    "address": "\n〒950-0073 新潟県新潟市中央区日の出１丁目１４−２３",
    "latitude": 37.9192363,
    "longitude": 139.0725003,
    "link": "https://www.google.com/maps/place/%E5%B9%BC%E4%BF%9D%E9%80%A3%E6%90%BA%E5%9E%8B%E3%81%93%E3%82%84%E3%81%99%E8%AA%8D%E5%AE%9A%E3%81%93%E3%81%A9%E3%82%82%E5%9C%92/data=!4m7!3m6!1s0x5ff4ca27c730e9dd:0x12458ae42da479b9!8m2!3d37.9192363!4d139.0725003!16s%2Fg%2F1tcy445s!19sChIJ3ekwxyfK9F8RuXmkLeSKRRI?authuser=0&hl=ja&rclk=1",
    "category": "保育園"
  },
  {
    "name": "くろとりこども園",
    "address": "\n〒950-0073 新潟県新潟市中央区日の出１丁目１４−２３",
    "latitude": 37.8516345,
    "longitude": 138.9770473,
    "link": "https://www.google.com/maps/place/%E3%81%8F%E3%82%8D%E3%81%A8%E3%82%8A%E3%81%93%E3%81%A9%E3%82%82%E5%9C%92/data=!4m7!3m6!1s0x5ff4c65fb8db18c9:0xd2381a2798c24f6d!8m2!3d37.8516345!4d138.9770473!16s%2Fg%2F1tdr80d9!19sChIJyRjbuF_G9F8RbU_CmCcaONI?authuser=0&hl=ja&rclk=1",
    "category": "保育園"
  },
  {
    "name": "内野保育園",
    "address": "\n〒950-2113 新潟県新潟市西区内野山手２丁目１６−５",
    "latitude": 37.8576355,
    "longitude": 138.9347706,
    "link": "https://www.google.com/maps/place/%E5%86%85%E9%87%8E%E4%BF%9D%E8%82%B2%E5%9C%92/data=!4m7!3m6!1s0x5ff4c71976f663d7:0xbf6b2bb6e2441317!8m2!3d37.8576355!4d138.9347706!16s%2Fg%2F1xfsnl8k!19sChIJ12P2dhnH9F8RFxNE4rYra78?authuser=0&hl=ja&rclk=1",
    "category": "保育園"
  },
  {
    "name": "関屋保育園",
    "address": "\n〒951-8164 新潟県新潟市中央区関屋昭和町３丁目１４５ （一財）和田徳伝会関屋保育園",
    "latitude": 37.9091354,
    "longitude": 139.018395,
    "link": "https://www.google.com/maps/place/%E9%96%A2%E5%B1%8B%E4%BF%9D%E8%82%B2%E5%9C%92/data=!4m7!3m6!1s0x5ff4c9cb623aa8af:0x9712133170f9c11d!8m2!3d37.9091354!4d139.018395!16s%2Fg%2F1td71vfd!19sChIJr6g6YsvJ9F8RHcH5cDETEpc?authuser=0&hl=ja&rclk=1",
    "category": "保育園"
  },
  {
    "name": "新潟市坂井輪保育園",
    "address": "\n〒950-2022 新潟県新潟市西区小針８丁目２１−２１−２６ 市立坂井輪保育園",
    "latitude": 37.8809638,
    "longitude": 138.9872885,
    "link": "https://www.google.com/maps/place/%E6%96%B0%E6%BD%9F%E5%B8%82%E5%9D%82%E4%BA%95%E8%BC%AA%E4%BF%9D%E8%82%B2%E5%9C%92/data=!4m7!3m6!1s0x5ff4c7d71458459b:0xb65ef8984d499f1e!8m2!3d37.8809638!4d138.9872885!16s%2Fg%2F1tlwfh29!19sChIJm0VYFNfH9F8RHp9JTZj4XrY?authuser=0&hl=ja&rclk=1",
    "category": "保育園"
  },
  {
    "name": "笹口こども園",
    "address": "\n〒950-0912 新潟県新潟市中央区南笹口１丁目８−５７ 公和会笹口保育園",
    "latitude": 37.9085254,
    "longitude": 139.0659018,
    "link": "https://www.google.com/maps/place/%E7%AC%B9%E5%8F%A3%E3%81%93%E3%81%A9%E3%82%82%E5%9C%92/data=!4m7!3m6!1s0x5ff4c99c54d8b49b:0x661ea391c841372f!8m2!3d37.9085254!4d139.0659018!16s%2Fg%2F1wnbxw3y!19sChIJm7TYVJzJ9F8RLzdByJGjHmY?authuser=0&hl=ja&rclk=1",
    "category": "保育園"
  },
  {
    "name": "ＹＯＵなかの保育園",
    "address": "\n〒950-0162 新潟県新潟市江南区亀田大月２丁目６−２８",
    "latitude": 37.8828193,
    "longitude": 139.1006252,
    "link": "https://www.google.com/maps/place/%EF%BC%B9%EF%BC%AF%EF%BC%B5%E3%81%AA%E3%81%8B%E3%81%AE%E4%BF%9D%E8%82%B2%E5%9C%92/data=!4m7!3m6!1s0x5ff4ceb54109b7c7:0x3643b88f31828433!8m2!3d37.8828193!4d139.1006252!16s%2Fg%2F1tghpf8z!19sChIJx7cJQbXO9F8RM4SCMY-4QzY?authuser=0&hl=ja&rclk=1",
    "category": "保育園"
  },
  {
    "name": "鳥屋野保育園",
    "address": "\n〒950-0162 新潟県新潟市江南区亀田大月２丁目６−２８",
    "latitude": 37.8861154,
    "longitude": 139.0234566,
    "link": "https://www.google.com/maps/place/%E9%B3%A5%E5%B1%8B%E9%87%8E%E4%BF%9D%E8%82%B2%E5%9C%92/data=!4m7!3m6!1s0x5ff4c8f51dc321d9:0xb10c432d18efe931!8m2!3d37.8861154!4d139.0234566!16s%2Fg%2F1tjhxhlg!19sChIJ2SHDHfXI9F8RMenvGC1DDLE?authuser=0&hl=ja&rclk=1",
    "category": "保育園"
  },
  {
    "name": "紫竹山こども園",
    "address": "\n〒950-0914 新潟県新潟市中央区紫竹山２丁目３−５",
    "latitude": 37.9024818,
    "longitude": 139.0683287,
    "link": "https://www.google.com/maps/place/%E7%B4%AB%E7%AB%B9%E5%B1%B1%E3%81%93%E3%81%A9%E3%82%82%E5%9C%92/data=!4m7!3m6!1s0x5ff4c973808b2995:0x2377338ec55fe34d!8m2!3d37.9024818!4d139.0683287!16s%2Fg%2F1tdyfgqq!19sChIJlSmLgHPJ9F8RTeNfxY4zdyM?authuser=0&hl=ja&rclk=1",
    "category": "保育園"
  },
  {
    "name": "東小針認定こども園",
    "address": "\n〒950-2022 新潟県新潟市西区小針１丁目３３−１２ 新潟市社会事業協会東小針保育園",
    "latitude": 37.8890553,
    "longitude": 139.0004449,
    "link": "https://www.google.com/maps/place/%E6%9D%B1%E5%B0%8F%E9%87%9D%E8%AA%8D%E5%AE%9A%E3%81%93%E3%81%A9%E3%82%82%E5%9C%92/data=!4m7!3m6!1s0x5ff4c86fbd7a7119:0xfcfaa030d5e5829f!8m2!3d37.8890553!4d139.0004449!16s%2Fg%2F1v29bw1f!19sChIJGXF6vW_I9F8Rn4Ll1TCg-vw?authuser=0&hl=ja&rclk=1",
    "category": "保育園"
  },
  {
    "name": "幼保連携型うまこしこやす認定こども園",
    "address": "\n〒950-0865 新潟県新潟市中央区本馬越２丁目９−１４",
    "latitude": 37.91113,
    "longitude": 139.0749925,
    "link": "https://www.google.com/maps/place/%E5%B9%BC%E4%BF%9D%E9%80%A3%E6%90%BA%E5%9E%8B%E3%81%86%E3%81%BE%E3%81%93%E3%81%97%E3%81%93%E3%82%84%E3%81%99%E8%AA%8D%E5%AE%9A%E3%81%93%E3%81%A9%E3%82%82%E5%9C%92/data=!4m7!3m6!1s0x5ff4c9821ff08b6b:0xd5e6b2486aab508c!8m2!3d37.91113!4d139.0749925!16s%2Fg%2F1tcwftsg!19sChIJa4vwH4LJ9F8RjFCrakiy5tU?authuser=0&hl=ja&rclk=1",
    "category": "保育園"
  },
  {
    "name": "ここの実こども園",
    "address": "\n〒950-0963 新潟県新潟市中央区南出来島１丁目４−７",
    "latitude": 37.8956853,
    "longitude": 139.0291933,
    "link": "https://www.google.com/maps/place/%E3%81%93%E3%81%93%E3%81%AE%E5%AE%9F%E3%81%93%E3%81%A9%E3%82%82%E5%9C%92/data=!4m7!3m6!1s0x5ff4c8515a980289:0x6d586139ea57f97!8m2!3d37.8956853!4d139.0291933!16s%2Fg%2F11b5pjss0w!19sChIJiQKYWlHI9F8Rl3-lnhOG1QY?authuser=0&hl=ja&rclk=1",
    "category": "保育園"
  },
  {
    "name": "中之口こども園",
    "address": "\n〒950-1343 新潟県新潟市西蒲区三ツ門５９−２ 市立なかのくち保育園",
    "latitude": 37.721596,
    "longitude": 138.967052,
    "link": "https://www.google.com/maps/place/%E4%B8%AD%E4%B9%8B%E5%8F%A3%E3%81%93%E3%81%A9%E3%82%82%E5%9C%92/data=!4m7!3m6!1s0x5ff4e79c6d82e227:0x2d121c9cffa3576e!8m2!3d37.721596!4d138.967052!16s%2Fg%2F1x5qsmm1!19sChIJJ-KCbZzn9F8Rblej_5wcEi0?authuser=0&hl=ja&rclk=1",
    "category": "保育園"
  },
  {
    "name": "新光町保育園",
    "address": "\n〒950-0965 新潟県新潟市中央区新光町１５−４",
    "latitude": 37.8984622,
    "longitude": 139.0185368,
    "link": "https://www.google.com/maps/place/%E6%96%B0%E5%85%89%E7%94%BA%E4%BF%9D%E8%82%B2%E5%9C%92/data=!4m7!3m6!1s0x5ff4c84f71e5ab19:0xf17c466a3b4a542!8m2!3d37.8984622!4d139.0185368!16s%2Fg%2F1tdjwvqt!19sChIJGavlcU_I9F8RQqW0o2bEFw8?authuser=0&hl=ja&rclk=1",
    "category": "保育園"
  },
  {
    "name": "かめだなかの保育園",
    "address": "\n〒950-0132 新潟県新潟市江南区砂岡５丁目２−１５７１−１ 勇樹会かめだなかの保育園",
    "latitude": 37.8630122,
    "longitude": 139.1249757,
    "link": "https://www.google.com/maps/place/%E3%81%8B%E3%82%81%E3%81%A0%E3%81%AA%E3%81%8B%E3%81%AE%E4%BF%9D%E8%82%B2%E5%9C%92/data=!4m7!3m6!1s0x5ff4cef3e032ff27:0x7e7f3c36a4f6f45a!8m2!3d37.8630122!4d139.1249757!16s%2Fg%2F1tp_66_1!19sChIJJ_8y4PPO9F8RWvT2pDY8f34?authuser=0&hl=ja&rclk=1",
    "category": "保育園"
  },
  {
    "name": "新潟市立 山木戸保育園",
    "address": "\n〒950-0871 新潟県新潟市東区山木戸４丁目１１−２０ 市立山木戸保育園",
    "latitude": 37.9207277,
    "longitude": 139.0868488,
    "link": "https://www.google.com/maps/place/%E6%96%B0%E6%BD%9F%E5%B8%82%E7%AB%8B+%E5%B1%B1%E6%9C%A8%E6%88%B8%E4%BF%9D%E8%82%B2%E5%9C%92/data=!4m7!3m6!1s0x5ff4ca31c04f5321:0xa6a25315ace6f6a4!8m2!3d37.9207277!4d139.0868488!16s%2Fg%2F1v29bw29!19sChIJIVNPwDHK9F8RpPbmrBVToqY?authuser=0&hl=ja&rclk=1",
    "category": "保育園"
  },
  {
    "name": "新潟市立漆山東保育園",
    "address": "\n〒950-0871 新潟県新潟市東区山木戸４丁目１１−２０ 市立山木戸保育園",
    "latitude": 37.748811,
    "longitude": 138.927119,
    "link": "https://www.google.com/maps/place/%E6%96%B0%E6%BD%9F%E5%B8%82%E7%AB%8B%E6%BC%86%E5%B1%B1%E6%9D%B1%E4%BF%9D%E8%82%B2%E5%9C%92/data=!4m7!3m6!1s0x5ff4e81af5ec6b87:0xebfe1883865762b5!8m2!3d37.748811!4d138.927119!16s%2Fg%2F1tdk0f4t!19sChIJh2vs9Rro9F8RtWJXhoMY_us?authuser=0&hl=ja&rclk=1",
    "category": "保育園"
  },
  {
    "name": "ちとせ保育園",
    "address": "\n〒950-3126 新潟県新潟市北区松浜６丁目１１−１",
    "latitude": 37.956803,
    "longitude": 139.141549,
    "link": "https://www.google.com/maps/place/%E3%81%A1%E3%81%A8%E3%81%9B%E4%BF%9D%E8%82%B2%E5%9C%92/data=!4m7!3m6!1s0x5ff4cab5844c04a1:0x1b9aed3216a45be9!8m2!3d37.956803!4d139.141549!16s%2Fg%2F1vtqvyr_!19sChIJoQRMhLXK9F8R6VukFjLtmhs?authuser=0&hl=ja&rclk=1",
    "category": "保育園"
  },
  {
    "name": "あがのこども園",
    "address": "\n〒950-3123 新潟県新潟市北区新元島町３９５３−３",
    "latitude": 37.9452099,
    "longitude": 139.1475013,
    "link": "https://www.google.com/maps/place/%E3%81%82%E3%81%8C%E3%81%AE%E3%81%93%E3%81%A9%E3%82%82%E5%9C%92/data=!4m7!3m6!1s0x5ff4cada1f1b419f:0xfbd2cafa64a7d18f!8m2!3d37.9452099!4d139.1475013!16s%2Fg%2F1thkrjv3!19sChIJn0EbH9rK9F8Rj9GnZPrK0vs?authuser=0&hl=ja&rclk=1",
    "category": "保育園"
  },
  {
    "name": "こども園未来へ",
    "address": "\n〒950-0921 新潟県新潟市中央区京王１丁目７−１３",
    "latitude": 37.8927654,
    "longitude": 139.0751514,
    "link": "https://www.google.com/maps/place/%E3%81%93%E3%81%A9%E3%82%82%E5%9C%92%E6%9C%AA%E6%9D%A5%E3%81%B8/data=!4m7!3m6!1s0x5ff4c91597eac35f:0xd87fa5a5c1841757!8m2!3d37.8927654!4d139.0751514!16s%2Fg%2F1tpn2djj!19sChIJX8PqlxXJ9F8RVxeEwaWlf9g?authuser=0&hl=ja&rclk=1",
    "category": "保育園"
  },
  {
    "name": "愛泉こども園",
    "address": "\n〒950-0994 新潟県新潟市中央区上所３丁目１４−１",
    "latitude": 37.9046558,
    "longitude": 139.0417976,
    "link": "https://www.google.com/maps/place/%E6%84%9B%E6%B3%89%E3%81%93%E3%81%A9%E3%82%82%E5%9C%92/data=!4m7!3m6!1s0x5ff4c9b047658a11:0xee97d1a12e6520ef!8m2!3d37.9046558!4d139.0417976!16s%2Fg%2F1thw1_cl!19sChIJEYplR7DJ9F8R7yBlLqHRl-4?authuser=0&hl=ja&rclk=1",
    "category": "保育園"
  },
  {
    "name": "満日こども園",
    "address": "\n〒956-0802 新潟県新潟市秋葉区七日町１７−２５",
    "latitude": 37.8248292,
    "longitude": 139.1494052,
    "link": "https://www.google.com/maps/place/%E6%BA%80%E6%97%A5%E3%81%93%E3%81%A9%E3%82%82%E5%9C%92/data=!4m7!3m6!1s0x5ff4d0240dbec7ad:0x6f3bb809c5caabb6!8m2!3d37.8248292!4d139.1494052!16s%2Fg%2F1tfrxb4k!19sChIJrce-DSTQ9F8RtqvKxQm4O28?authuser=0&hl=ja&rclk=1",
    "category": "保育園"
  },
  {
    "name": "新通こども園",
    "address": "\n〒956-0802 新潟県新潟市秋葉区七日町１７−２５",
    "latitude": 37.858912,
    "longitude": 138.9526549,
    "link": "https://www.google.com/maps/place/%E6%96%B0%E9%80%9A%E3%81%93%E3%81%A9%E3%82%82%E5%9C%92/data=!4m7!3m6!1s0x5ff4c701fa3cbf9f:0xfdadbd80d2f359d9!8m2!3d37.858912!4d138.9526549!16s%2Fg%2F1th1tx3k!19sChIJn788-gHH9F8R2Vnz0oC9rf0?authuser=0&hl=ja&rclk=1",
    "category": "保育園"
  },
  {
    "name": "青い鳥保育園",
    "address": "\n〒950-3373 新潟県新潟市北区須戸５８８ ふたつわ会青い鳥保育園",
    "latitude": 37.917193,
    "longitude": 139.19193,
    "link": "https://www.google.com/maps/place/%E9%9D%92%E3%81%84%E9%B3%A5%E4%BF%9D%E8%82%B2%E5%9C%92/data=!4m7!3m6!1s0x5ff4cca41bc0d19f:0xaef613306a76dff6!8m2!3d37.917193!4d139.19193!16s%2Fg%2F1tm0s_mx!19sChIJn9HAG6TM9F8R9t92ajAT9q4?authuser=0&hl=ja&rclk=1",
    "category": "保育園"
  },
  {
    "name": "新潟市立 小針保育園",
    "address": "\n〒950-2022 新潟県新潟市西区小針４丁目５−２５ 市立小針保育園",
    "latitude": 37.8846181,
    "longitude": 138.9988606,
    "link": "https://www.google.com/maps/place/%E6%96%B0%E6%BD%9F%E5%B8%82%E7%AB%8B+%E5%B0%8F%E9%87%9D%E4%BF%9D%E8%82%B2%E5%9C%92/data=!4m7!3m6!1s0x5ff4c87bb43a9ce1:0x8e5b727c10a43227!8m2!3d37.8846181!4d138.9988606!16s%2Fg%2F1tk4q_dv!19sChIJ4Zw6tHvI9F8RJzKkEHxyW44?authuser=0&hl=ja&rclk=1",
    "category": "保育園"
  },
  {
    "name": "興野保育園",
    "address": "\n〒950-1112 新潟県新潟市西区金巻７８９−１ 市立興野保育園",
    "latitude": 37.8436333,
    "longitude": 139.009421,
    "link": "https://www.google.com/maps/place/%E8%88%88%E9%87%8E%E4%BF%9D%E8%82%B2%E5%9C%92/data=!4m7!3m6!1s0x5ff4c5d84eb9e6db:0x1c55b847c130cf9b!8m2!3d37.8436333!4d139.009421!16s%2Fg%2F1thf8dg3!19sChIJ2-a5TtjF9F8Rm88wwUe4VRw?authuser=0&hl=ja&rclk=1",
    "category": "保育園"
  },
  {
    "name": "勝楽寺こども園",
    "address": "\n〒951-8061 新潟県新潟市中央区西堀通１５８８",
    "latitude": 37.926738,
    "longitude": 139.0438925,
    "link": "https://www.google.com/maps/place/%E5%8B%9D%E6%A5%BD%E5%AF%BA%E3%81%93%E3%81%A9%E3%82%82%E5%9C%92/data=!4m7!3m6!1s0x5ff4c9fa4d7c683f:0x52affb011ba2c125!8m2!3d37.926738!4d139.0438925!16s%2Fg%2F1tfwk5y0!19sChIJP2h8TfrJ9F8RJcGiGwH7r1I?authuser=0&hl=ja&rclk=1",
    "category": "保育園"
  },
  {
    "name": "三ツ森保育園",
    "address": "\n〒950-3368 新潟県新潟市北区森下１４０９ 市立三ツ森保育園",
    "latitude": 37.905322,
    "longitude": 139.165916,
    "link": "https://www.google.com/maps/place/%E4%B8%89%E3%83%84%E6%A3%AE%E4%BF%9D%E8%82%B2%E5%9C%92/data=!4m7!3m6!1s0x5ff4cc7d8c190f91:0xace707f72c5c25ea!8m2!3d37.905322!4d139.165916!16s%2Fg%2F1td58g3d!19sChIJkQ8ZjH3M9F8R6iVcLPcH56w?authuser=0&hl=ja&rclk=1",
    "category": "保育園"
  },
  {
    "name": "白山保育園",
    "address": "\n〒951-8131 新潟県新潟市中央区白山浦２丁目１８０−７ 市立白山保育園",
    "latitude": 37.9150909,
    "longitude": 139.0299019,
    "link": "https://www.google.com/maps/place/%E7%99%BD%E5%B1%B1%E4%BF%9D%E8%82%B2%E5%9C%92/data=!4m7!3m6!1s0x5ff4c9c43e307905:0x30d9a875577a58db!8m2!3d37.9150909!4d139.0299019!16s%2Fg%2F1thztmzj!19sChIJBXkwPsTJ9F8R21h6V3Wo2TA?authuser=0&hl=ja&rclk=1",
    "category": "保育園"
  },
  {
    "name": "真行保育園",
    "address": "\n〒951-8131 新潟県新潟市中央区白山浦２丁目１８０−７ 市立白山保育園",
    "latitude": 37.8873329,
    "longitude": 138.9827464,
    "link": "https://www.google.com/maps/place/%E7%9C%9F%E8%A1%8C%E4%BF%9D%E8%82%B2%E5%9C%92/data=!4m7!3m6!1s0x5ff4c87581a8dde1:0xb81ed71ca93ab968!8m2!3d37.8873329!4d138.9827464!16s%2Fg%2F1vc81n5s!19sChIJ4d2ogXXI9F8RaLk6qRzXHrg?authuser=0&hl=ja&rclk=1",
    "category": "保育園"
  },
  {
    "name": "めいけこども園",
    "address": "\n〒950-0941 新潟県新潟市中央区女池６丁目４−１８",
    "latitude": 37.891695,
    "longitude": 139.044191,
    "link": "https://www.google.com/maps/place/%E3%82%81%E3%81%84%E3%81%91%E3%81%93%E3%81%A9%E3%82%82%E5%9C%92/data=!4m7!3m6!1s0x5ff4c8fdc25f1811:0x13e4521a3481d7f4!8m2!3d37.891695!4d139.044191!16s%2Fg%2F1tks64lh!19sChIJERhfwv3I9F8R9NeBNBpS5BM?authuser=0&hl=ja&rclk=1",
    "category": "保育園"
  },
  {
    "name": "あゆみ保育園",
    "address": "\n〒951-8126 新潟県新潟市中央区学校町通７５７ 新潟大学事務局総務部あゆみ保育園",
    "latitude": 37.9194775,
    "longitude": 139.0324018,
    "link": "https://www.google.com/maps/place/%E3%81%82%E3%82%86%E3%81%BF%E4%BF%9D%E8%82%B2%E5%9C%92/data=!4m7!3m6!1s0x5ff4c9c2ac0e51f9:0xed5719374e5d22c2!8m2!3d37.9194775!4d139.0324018!16s%2Fg%2F12m9jrx3s!19sChIJ-VEOrMLJ9F8RwiJdTjcZV-0?authuser=0&hl=ja&rclk=1",
    "category": "保育園"
  },
  {
    "name": "まつば保育園",
    "address": "\n〒950-0112 新潟県新潟市江南区松山７６６−５",
    "latitude": 37.8875787,
    "longitude": 139.1403454,
    "link": "https://www.google.com/maps/place/%E3%81%BE%E3%81%A4%E3%81%B0%E4%BF%9D%E8%82%B2%E5%9C%92/data=!4m7!3m6!1s0x5ff4cc19dcf7105f:0x2f93603564936fad!8m2!3d37.8875787!4d139.1403454!16s%2Fg%2F1tgnlxzw!19sChIJXxD33BnM9F8RrW-TZDVgky8?authuser=0&hl=ja&rclk=1",
    "category": "保育園"
  },
  {
    "name": "山五十嵐こども園",
    "address": "\n〒950-2174 新潟県新潟市西区五十嵐３の町西１６−１３",
    "latitude": 37.857735,
    "longitude": 138.924813,
    "link": "https://www.google.com/maps/place/%E5%B1%B1%E4%BA%94%E5%8D%81%E5%B5%90%E3%81%93%E3%81%A9%E3%82%82%E5%9C%92/data=!4m7!3m6!1s0x5ff4c73d72c87103:0x31d554f1c3948eac!8m2!3d37.857735!4d138.924813!16s%2Fg%2F1vd75rqg!19sChIJA3HIcj3H9F8RrI6Uw_FU1TE?authuser=0&hl=ja&rclk=1",
    "category": "保育園"
  },
  {
    "name": "有明こども園",
    "address": "\n〒950-2071 新潟県新潟市西区西有明町１−７６",
    "latitude": 37.897023,
    "longitude": 138.9910873,
    "link": "https://www.google.com/maps/place/%E6%9C%89%E6%98%8E%E3%81%93%E3%81%A9%E3%82%82%E5%9C%92/data=!4m7!3m6!1s0x5ff4c813f050265b:0x2f3281521bbe60fc!8m2!3d37.897023!4d138.9910873!16s%2Fg%2F1tk22s9r!19sChIJWyZQ8BPI9F8R_GC-G1KBMi8?authuser=0&hl=ja&rclk=1",
    "category": "保育園"
  },
  {
    "name": "新潟市立 入舟保育園",
    "address": "\n〒951-8018 新潟県新潟市中央区稲荷町３４７６−２",
    "latitude": 37.9318825,
    "longitude": 139.0551547,
    "link": "https://www.google.com/maps/place/%E6%96%B0%E6%BD%9F%E5%B8%82%E7%AB%8B+%E5%85%A5%E8%88%9F%E4%BF%9D%E8%82%B2%E5%9C%92/data=!4m7!3m6!1s0x5ff4ca03839a0c19:0x17f17861e492cf3!8m2!3d37.9318825!4d139.0551547!16s%2Fg%2F1tvm2lyc!19sChIJGQyagwPK9F8R8yxJHoYXfwE?authuser=0&hl=ja&rclk=1",
    "category": "保育園"
  },
  {
    "name": "はす池保育園",
    "address": "\n〒950-0017 新潟県東区新松崎１丁目１−１０",
    "latitude": 37.9294271,
    "longitude": 139.1157011,
    "link": "https://www.google.com/maps/place/%E3%81%AF%E3%81%99%E6%B1%A0%E4%BF%9D%E8%82%B2%E5%9C%92/data=!4m7!3m6!1s0x5ff4ca5462baa71d:0x5ef046f2d13edb7b!8m2!3d37.9294271!4d139.1157011!16s%2Fg%2F1tfzb0g8!19sChIJHae6YlTK9F8Re9s-0fJG8F4?authuser=0&hl=ja&rclk=1",
    "category": "保育園"
  },
  {
    "name": "こばとこども園",
    "address": "\n〒950-0943 新潟県新潟市中央区女池神明２丁目６−１ 三和会こばと保育園",
    "latitude": 37.889121,
    "longitude": 139.0345409,
    "link": "https://www.google.com/maps/place/%E3%81%93%E3%81%B0%E3%81%A8%E3%81%93%E3%81%A9%E3%82%82%E5%9C%92/data=!4m7!3m6!1s0x5ff4c8f9ef1f9b39:0xf549f7a7f1102922!8m2!3d37.889121!4d139.0345409!16s%2Fg%2F1vpfjczm!19sChIJOZsf7_nI9F8RIikQ8af3SfU?authuser=0&hl=ja&rclk=1",
    "category": "保育園"
  },
  {
    "name": "YOU鐘木こども園",
    "address": "\n〒950-1151 新潟県新潟市中央区湖南２７−６ 勇樹会ＹＯＵ＆コスモス鐘木保育園",
    "latitude": 37.8731767,
    "longitude": 139.042981,
    "link": "https://www.google.com/maps/place/YOU%E9%90%98%E6%9C%A8%E3%81%93%E3%81%A9%E3%82%82%E5%9C%92/data=!4m7!3m6!1s0x5ff4c8b8ae7a073b:0xdabc0ec9183a1fb5!8m2!3d37.8731767!4d139.042981!16s%2Fg%2F1w_vn2_3!19sChIJOwd6rrjI9F8RtR86GMkOvNo?authuser=0&hl=ja&rclk=1",
    "category": "保育園"
  },
  {
    "name": "隣保館認定こども園",
    "address": "\n〒951-8078 新潟県新潟市中央区四ッ屋町１丁目５１４１−５",
    "latitude": 37.9326497,
    "longitude": 139.0441342,
    "link": "https://www.google.com/maps/place/%E9%9A%A3%E4%BF%9D%E9%A4%A8%E8%AA%8D%E5%AE%9A%E3%81%93%E3%81%A9%E3%82%82%E5%9C%92/data=!4m7!3m6!1s0x5ff4c9feba46017b:0x684401d154ba2a47!8m2!3d37.9326497!4d139.0441342!16s%2Fg%2F1trpl13z!19sChIJewFGuv7J9F8RRyq6VNEBRGg?authuser=0&hl=ja&rclk=1",
    "category": "保育園"
  },
  {
    "name": "松の実第二こども園",
    "address": "\n〒950-2045 新潟県新潟市西区五十嵐東３丁目１１−１８ 愛らんど子育て支援センター",
    "latitude": 37.8781461,
    "longitude": 138.9559086,
    "link": "https://www.google.com/maps/place/%E6%9D%BE%E3%81%AE%E5%AE%9F%E7%AC%AC%E4%BA%8C%E3%81%93%E3%81%A9%E3%82%82%E5%9C%92/data=!4m7!3m6!1s0x5ff4c7be18a9ff6d:0x5a27303b23a97df3!8m2!3d37.8781461!4d138.9559086!16s%2Fg%2F1v6p8pr_!19sChIJbf-pGL7H9F8R832pIzswJ1o?authuser=0&hl=ja&rclk=1",
    "category": "保育園"
  },
  {
    "name": "新潟保育園",
    "address": "\n〒954-0006 新潟県見附市新潟町２６２０",
    "latitude": 37.549435,
    "longitude": 138.918043,
    "link": "https://www.google.com/maps/place/%E6%96%B0%E6%BD%9F%E4%BF%9D%E8%82%B2%E5%9C%92/data=!4m7!3m6!1s0x5ff503b33d5d0705:0x1eb5e17030d3292d!8m2!3d37.549435!4d138.918043!16s%2Fg%2F1tjwhllt!19sChIJBQddPbMD9V8RLSnTMHDhtR4?authuser=0&hl=ja&rclk=1",
    "category": "保育園"
  },
  {
    "name": "鎧郷保育園",
    "address": "\n〒959-0438 新潟県新潟市西蒲区下山４０８",
    "latitude": 37.7903927,
    "longitude": 138.8957968,
    "link": "https://www.google.com/maps/place/%E9%8E%A7%E9%83%B7%E4%BF%9D%E8%82%B2%E5%9C%92/data=!4m7!3m6!1s0x5ff4c21984cde5f5:0x7897c18a3b9191a5!8m2!3d37.7903927!4d138.8957968!16s%2Fg%2F1tfjqjy5!19sChIJ9eXNhBnC9F8RpZGRO4rBl3g?authuser=0&hl=ja&rclk=1",
    "category": "保育園"
  },
  {
    "name": "新潟市立両川保育園",
    "address": "\n〒950-0324 新潟県新潟市江南区酒屋町４２４−８",
    "latitude": 37.8349596,
    "longitude": 139.0702669,
    "link": "https://www.google.com/maps/place/%E6%96%B0%E6%BD%9F%E5%B8%82%E7%AB%8B%E4%B8%A1%E5%B7%9D%E4%BF%9D%E8%82%B2%E5%9C%92/data=!4m7!3m6!1s0x5ff4c581dace1555:0xe1df145ae592e73d!8m2!3d37.8349596!4d139.0702669!16s%2Fg%2F1tf6m0_w!19sChIJVRXO2oHF9F8RPeeS5VoU3-E?authuser=0&hl=ja&rclk=1",
    "category": "保育園"
  },
  {
    "name": "新潟市立 中山保育園",
    "address": "\n〒950-0324 新潟県新潟市江南区酒屋町４２４−８",
    "latitude": 37.9154812,
    "longitude": 139.0876614,
    "link": "https://www.google.com/maps/place/%E6%96%B0%E6%BD%9F%E5%B8%82%E7%AB%8B+%E4%B8%AD%E5%B1%B1%E4%BF%9D%E8%82%B2%E5%9C%92/data=!4m7!3m6!1s0x5ff4ca2cca848cd3:0x381e5c80d084cb08!8m2!3d37.9154812!4d139.0876614!16s%2Fg%2F1tjt1sgd!19sChIJ04yEyizK9F8RCMuE0IBcHjg?authuser=0&hl=ja&rclk=1",
    "category": "保育園"
  },
  {
    "name": "幼保連携型認定こども園しょうとくこども園",
    "address": "\n〒950-0016 新潟県新潟市東区河渡本町１５−１６ 社会福祉法人青鸞会 幼保連携型認定こども園 しょうとくこども園",
    "latitude": 37.9349248,
    "longitude": 139.1040298,
    "link": "https://www.google.com/maps/place/%E5%B9%BC%E4%BF%9D%E9%80%A3%E6%90%BA%E5%9E%8B%E8%AA%8D%E5%AE%9A%E3%81%93%E3%81%A9%E3%82%82%E5%9C%92%E3%81%97%E3%82%87%E3%81%86%E3%81%A8%E3%81%8F%E3%81%93%E3%81%A9%E3%82%82%E5%9C%92/data=!4m7!3m6!1s0x5ff4ca5be7505f29:0x11cc1b232e88ea6f!8m2!3d37.9349248!4d139.1040298!16s%2Fg%2F1tj967xk!19sChIJKV9Q51vK9F8Rb-qILiMbzBE?authuser=0&hl=ja&rclk=1",
    "category": "保育園"
  },
  {
    "name": "長嶺保育園",
    "address": "\n〒950-0084 新潟県新潟市中央区明石２丁目１−５１",
    "latitude": 37.9159621,
    "longitude": 139.0680273,
    "link": "https://www.google.com/maps/place/%E9%95%B7%E5%B6%BA%E4%BF%9D%E8%82%B2%E5%9C%92/data=!4m7!3m6!1s0x5ff4c9861e9a7151:0x692dd425894d5540!8m2!3d37.9159621!4d139.0680273!16s%2Fg%2F1tff7g36!19sChIJUXGaHobJ9F8RQFVNiSXULWk?authuser=0&hl=ja&rclk=1",
    "category": "保育園"
  },
  {
    "name": "ノートルダム幼稚園･保育園",
    "address": "\n〒950-2064 新潟県新潟市西区寺尾西３丁目２６−５０",
    "latitude": 37.8759698,
    "longitude": 138.9619691,
    "link": "https://www.google.com/maps/place/%E3%83%8E%E3%83%BC%E3%83%88%E3%83%AB%E3%83%80%E3%83%A0%E5%B9%BC%E7%A8%9A%E5%9C%92%EF%BD%A5%E4%BF%9D%E8%82%B2%E5%9C%92/data=!4m7!3m6!1s0x5ff4c7b92a039d41:0x332f034de5b9b4b0!8m2!3d37.8759698!4d138.9619691!16s%2Fg%2F1tgh2tsj!19sChIJQZ0DKrnH9F8RsLS55U0DLzM?authuser=0&hl=ja&rclk=1",
    "category": "保育園"
  },
  {
    "name": "新潟市立 東中野山保育園",
    "address": "\n〒950-0836 新潟県新潟市東区東中野山６丁目４−２８ 市立東中野山保育園",
    "latitude": 37.9041802,
    "longitude": 139.1161625,
    "link": "https://www.google.com/maps/place/%E6%96%B0%E6%BD%9F%E5%B8%82%E7%AB%8B+%E6%9D%B1%E4%B8%AD%E9%87%8E%E5%B1%B1%E4%BF%9D%E8%82%B2%E5%9C%92/data=!4m7!3m6!1s0x5ff4cbef4cc3f6f3:0xe35c38f27be4ace5!8m2!3d37.9041802!4d139.1161625!16s%2Fg%2F1tvtb5ml!19sChIJ8_bDTO_L9F8R5azke_I4XOM?authuser=0&hl=ja&rclk=1",
    "category": "保育園"
  },
  {
    "name": "上五十嵐保育園",
    "address": "\n〒950-2102 新潟県新潟市西区五十嵐２の町８４０４−１",
    "latitude": 37.866189,
    "longitude": 138.933323,
    "link": "https://www.google.com/maps/place/%E4%B8%8A%E4%BA%94%E5%8D%81%E5%B5%90%E4%BF%9D%E8%82%B2%E5%9C%92/data=!4m7!3m6!1s0x5ff4c70da5f804bf:0xc5e1f33b19392801!8m2!3d37.866189!4d138.933323!16s%2Fg%2F1tfssqqf!19sChIJvwT4pQ3H9F8RASg5GTvz4cU?authuser=0&hl=ja&rclk=1",
    "category": "保育園"
  },
  {
    "name": "(福)健生会 木山保育園",
    "address": "\n〒950-2253 新潟県新潟市西区木山８２５ 健生会木山保育園",
    "latitude": 37.829145,
    "longitude": 138.892011,
    "link": "https://www.google.com/maps/place/%28%E7%A6%8F%29%E5%81%A5%E7%94%9F%E4%BC%9A+%E6%9C%A8%E5%B1%B1%E4%BF%9D%E8%82%B2%E5%9C%92/data=!4m7!3m6!1s0x5ff4c11c8bf86d8f:0xa024870df1bac2a8!8m2!3d37.829145!4d138.892011!16s%2Fg%2F1w0h7bm2!19sChIJj234ixzB9F8RqMK68Q2HJKA?authuser=0&hl=ja&rclk=1",
    "category": "保育園"
  },
  {
    "name": "松の実こども園",
    "address": "\n〒950-2253 新潟県新潟市西区木山８２５ 健生会木山保育園",
    "latitude": 37.8814143,
    "longitude": 138.9705162,
    "link": "https://www.google.com/maps/place/%E6%9D%BE%E3%81%AE%E5%AE%9F%E3%81%93%E3%81%A9%E3%82%82%E5%9C%92/data=!4m7!3m6!1s0x5ff4c7c309b35d3f:0xe101c6c062e979f!8m2!3d37.8814143!4d138.9705162!16s%2Fg%2F1tf81fjt!19sChIJP12zCcPH9F8Rn5cuBmwcEA4?authuser=0&hl=ja&rclk=1",
    "category": "保育園"
  },
  {
    "name": "ふなえこども園",
    "address": "\n〒950-0031 新潟県新潟市東区船江町１丁目５０−３３",
    "latitude": 37.9535758,
    "longitude": 139.0954492,
    "link": "https://www.google.com/maps/place/%E3%81%B5%E3%81%AA%E3%81%88%E3%81%93%E3%81%A9%E3%82%82%E5%9C%92/data=!4m7!3m6!1s0x5ff4ca82e5bfbda1:0xcb3750f0db337254!8m2!3d37.9535758!4d139.0954492!16s%2Fg%2F1tjdwrh8!19sChIJob2_5YLK9F8RVHIz2_BQN8s?authuser=0&hl=ja&rclk=1",
    "category": "保育園"
  },
  {
    "name": "エンジェルこども園",
    "address": "\n〒950-0031 新潟県新潟市東区船江町１丁目５０−３３",
    "latitude": 37.903833,
    "longitude": 139.0516456,
    "link": "https://www.google.com/maps/place/%E3%82%A8%E3%83%B3%E3%82%B8%E3%82%A7%E3%83%AB%E3%81%93%E3%81%A9%E3%82%82%E5%9C%92/data=!4m7!3m6!1s0x5ff4c9a6b49c5cc1:0x72b253e84b5989fa!8m2!3d37.903833!4d139.0516456!16s%2Fg%2F1tw_n26g!19sChIJwVyctKbJ9F8R-olZS-hTsnI?authuser=0&hl=ja&rclk=1",
    "category": "保育園"
  },
  {
    "name": "ニチイキッズはなみずき保育園",
    "address": "\n〒950-0893 新潟県新潟市東区はなみずき１丁目１６−１２",
    "latitude": 37.9148461,
    "longitude": 139.1014462,
    "link": "https://www.google.com/maps/place/%E3%83%8B%E3%83%81%E3%82%A4%E3%82%AD%E3%83%83%E3%82%BA%E3%81%AF%E3%81%AA%E3%81%BF%E3%81%9A%E3%81%8D%E4%BF%9D%E8%82%B2%E5%9C%92/data=!4m7!3m6!1s0x5ff4cbceefd08c5d:0x88eda938a16a4206!8m2!3d37.9148461!4d139.1014462!16s%2Fg%2F11ggpjrgz5!19sChIJXYzQ787L9F8RBkJqoTip7Yg?authuser=0&hl=ja&rclk=1",
    "category": "保育園"
  },
  {
    "name": "早通保育園",
    "address": "\n〒950-0168 新潟県新潟市江南区早通５丁目１−５ 正田会早通保育園",
    "latitude": 37.863056,
    "longitude": 139.0856327,
    "link": "https://www.google.com/maps/place/%E6%97%A9%E9%80%9A%E4%BF%9D%E8%82%B2%E5%9C%92/data=!4m7!3m6!1s0x5ff4cf23908f04e1:0xf7904360dfff2b92!8m2!3d37.863056!4d139.0856327!16s%2Fg%2F1tdvplgg!19sChIJ4QSPkCPP9F8Rkiv_32BDkPc?authuser=0&hl=ja&rclk=1",
    "category": "保育園"
  },
  {
    "name": "なの花こども園",
    "address": "\n〒950-2261 新潟県新潟市西区赤塚２３６２−１",
    "latitude": 37.81866,
    "longitude": 138.881212,
    "link": "https://www.google.com/maps/place/%E3%81%AA%E3%81%AE%E8%8A%B1%E3%81%93%E3%81%A9%E3%82%82%E5%9C%92/data=!4m7!3m6!1s0x5ff4c1a89c1678b1:0x78f16c8cb0359616!8m2!3d37.81866!4d138.881212!16s%2Fg%2F1td6s1tt!19sChIJsXgWnKjB9F8RFpY1sIxs8Xg?authuser=0&hl=ja&rclk=1",
    "category": "保育園"
  },
  {
    "name": "松崎保育園",
    "address": "\n〒950-0013 新潟県新潟市東区白銀２丁目４−７ 松崎福祉会松崎保育園",
    "latitude": 37.9376831,
    "longitude": 139.1149928,
    "link": "https://www.google.com/maps/place/%E6%9D%BE%E5%B4%8E%E4%BF%9D%E8%82%B2%E5%9C%92/data=!4m7!3m6!1s0x5ff4caf71749b6a7:0x33f47a56136df3a2!8m2!3d37.9376831!4d139.1149928!16s%2Fg%2F1td32wzn!19sChIJp7ZJF_fK9F8RovNtE1Z69DM?authuser=0&hl=ja&rclk=1",
    "category": "保育園"
  },
  {
    "name": "にいつ愛慈保育園",
    "address": "\n〒956-0864 新潟県新潟市秋葉区新津本町１丁目９−６",
    "latitude": 37.8013342,
    "longitude": 139.1216419,
    "link": "https://www.google.com/maps/place/%E3%81%AB%E3%81%84%E3%81%A4%E6%84%9B%E6%85%88%E4%BF%9D%E8%82%B2%E5%9C%92/data=!4m7!3m6!1s0x5ff4daa29ae2778f:0x8a2f2a2252a0dac1!8m2!3d37.8013342!4d139.1216419!16s%2Fg%2F1tlc7xtg!19sChIJj3fimqLa9F8RwdqgUiIqL4o?authuser=0&hl=ja&rclk=1",
    "category": "保育園"
  },
  {
    "name": "にこにここども園",
    "address": "\n〒956-0017 新潟県新潟市秋葉区あおば通２丁目２４−５",
    "latitude": 37.8370523,
    "longitude": 139.1036167,
    "link": "https://www.google.com/maps/place/%E3%81%AB%E3%81%93%E3%81%AB%E3%81%93%E3%81%93%E3%81%A9%E3%82%82%E5%9C%92/data=!4m7!3m6!1s0x5ff4cf9700e1f705:0x6f3bacd65f563b10!8m2!3d37.8370523!4d139.1036167!16s%2Fg%2F1tdxf3g3!19sChIJBffhAJfP9F8REDtWX9asO28?authuser=0&hl=ja&rclk=1",
    "category": "保育園"
  },
  {
    "name": "ニチイキッズこばり南保育園",
    "address": "\n〒950-2022 新潟県新潟市西区小針４丁目３３−４",
    "latitude": 37.8836752,
    "longitude": 138.9955641,
    "link": "https://www.google.com/maps/place/%E3%83%8B%E3%83%81%E3%82%A4%E3%82%AD%E3%83%83%E3%82%BA%E3%81%93%E3%81%B0%E3%82%8A%E5%8D%97%E4%BF%9D%E8%82%B2%E5%9C%92/data=!4m7!3m6!1s0x5ff4c8799f69d83f:0x897d3ac2f552437!8m2!3d37.8836752!4d138.9955641!16s%2Fg%2F11j6kt14tq!19sChIJP9hpn3nI9F8RNyRVL6zTlwg?authuser=0&hl=ja&rclk=1",
    "category": "保育園"
  },
  {
    "name": "新潟市立横越双葉保育園",
    "address": "\n〒950-0206 新潟県新潟市江南区木津５丁目５−１０ 市立横越双葉保育園",
    "latitude": 37.835677,
    "longitude": 139.121779,
    "link": "https://www.google.com/maps/place/%E6%96%B0%E6%BD%9F%E5%B8%82%E7%AB%8B%E6%A8%AA%E8%B6%8A%E5%8F%8C%E8%91%89%E4%BF%9D%E8%82%B2%E5%9C%92/data=!4m7!3m6!1s0x5ff4cfc723a5c019:0xbaf3739415f0b1b7!8m2!3d37.835677!4d139.121779!16s%2Fg%2F1vqmj68q!19sChIJGcClI8fP9F8Rt7HwFZRz87o?authuser=0&hl=ja&rclk=1",
    "category": "保育園"
  },
  {
    "name": "山の上福祉保育園",
    "address": "\n〒950-0206 新潟県新潟市江南区木津５丁目５−１０ 市立横越双葉保育園",
    "latitude": 37.951481,
    "longitude": 139.143261,
    "link": "https://www.google.com/maps/place/%E5%B1%B1%E3%81%AE%E4%B8%8A%E7%A6%8F%E7%A5%89%E4%BF%9D%E8%82%B2%E5%9C%92/data=!4m7!3m6!1s0x5ff4cacede8a04d9:0x9408fa7d6092e6a7!8m2!3d37.951481!4d139.143261!16s%2Fg%2F1tj2n984!19sChIJ2QSK3s7K9F8Rp-aSYH36CJQ?authuser=0&hl=ja&rclk=1",
    "category": "保育園"
  },
  {
    "name": "新潟市流作場保育園",
    "address": "\n〒950-0904 新潟県新潟市中央区水島町３−２８",
    "latitude": 37.9108638,
    "longitude": 139.0548088,
    "link": "https://www.google.com/maps/place/%E6%96%B0%E6%BD%9F%E5%B8%82%E6%B5%81%E4%BD%9C%E5%A0%B4%E4%BF%9D%E8%82%B2%E5%9C%92/data=!4m7!3m6!1s0x5ff4c9976198838f:0x408f5c4a6751993!8m2!3d37.9108638!4d139.0548088!16s%2Fg%2F1tnjjdt3!19sChIJj4OYYZfJ9F8Rkxl1psT1CAQ?authuser=0&hl=ja&rclk=1",
    "category": "保育園"
  },
  {
    "name": "愛慈こども園",
    "address": "\n〒950-0904 新潟県新潟市中央区水島町３−２８",
    "latitude": 37.8874121,
    "longitude": 138.9720639,
    "link": "https://www.google.com/maps/place/%E6%84%9B%E6%85%88%E3%81%93%E3%81%A9%E3%82%82%E5%9C%92/data=!4m7!3m6!1s0x5ff4c7e72460b7dd:0xd643ac9a9262c8ed!8m2!3d37.8874121!4d138.9720639!16s%2Fg%2F1tvgv547!19sChIJ3bdgJOfH9F8R7chikpqsQ9Y?authuser=0&hl=ja&rclk=1",
    "category": "保育園"
  },
  {
    "name": "上木戸こども園",
    "address": "\n〒950-0891 新潟県新潟市東区上木戸５丁目１７−１３ 常明会上木戸保育園",
    "latitude": 37.919317,
    "longitude": 139.105279,
    "link": "https://www.google.com/maps/place/%E4%B8%8A%E6%9C%A8%E6%88%B8%E3%81%93%E3%81%A9%E3%82%82%E5%9C%92/data=!4m7!3m6!1s0x5ff4cbca74d68e15:0x5b5f7983a11c476d!8m2!3d37.919317!4d139.105279!16s%2Fg%2F1tk22sc7!19sChIJFY7WdMrL9F8RbUccoYN5X1s?authuser=0&hl=ja&rclk=1",
    "category": "保育園"
  },
  {
    "name": "寄居こども園",
    "address": "\n〒951-8113 新潟県新潟市中央区寄居町７０２ 伊勢由さいとう",
    "latitude": 37.9228427,
    "longitude": 139.0395203,
    "link": "https://www.google.com/maps/place/%E5%AF%84%E5%B1%85%E3%81%93%E3%81%A9%E3%82%82%E5%9C%92/data=!4m7!3m6!1s0x5ff4c9ef7d52e9e5:0x63b0e821799de9d6!8m2!3d37.9228427!4d139.0395203!16s%2Fg%2F1tdcrcjw!19sChIJ5elSfe_J9F8R1umdeSHosGM?authuser=0&hl=ja&rclk=1",
    "category": "保育園"
  },
  {
    "name": "北上保育園",
    "address": "\n〒956-0022 新潟県新潟市秋葉区さつき野４丁目１５−１２",
    "latitude": 37.8088805,
    "longitude": 139.116654,
    "link": "https://www.google.com/maps/place/%E5%8C%97%E4%B8%8A%E4%BF%9D%E8%82%B2%E5%9C%92/data=!4m7!3m6!1s0x5ff4daa893c138a7:0xdd34133cd518e830!8m2!3d37.8088805!4d139.116654!16s%2Fg%2F11h0c8gvs!19sChIJpzjBk6ja9F8RMOgY1TwTNN0?authuser=0&hl=ja&rclk=1",
    "category": "保育園"
  },
  {
    "name": "物見山はじめこども園",
    "address": "\n〒950-0021 新潟県新潟市東区物見山３丁目３−１６",
    "latitude": 37.9456276,
    "longitude": 139.0982027,
    "link": "https://www.google.com/maps/place/%E7%89%A9%E8%A6%8B%E5%B1%B1%E3%81%AF%E3%81%98%E3%82%81%E3%81%93%E3%81%A9%E3%82%82%E5%9C%92/data=!4m7!3m6!1s0x5ff4ca88506edfef:0xa86e13158e77e726!8m2!3d37.9456276!4d139.0982027!16s%2Fg%2F1tzzvbq3!19sChIJ799uUIjK9F8RJud3jhUTbqg?authuser=0&hl=ja&rclk=1",
    "category": "保育園"
  },
  {
    "name": "(福)松樹会 松浜こども園",
    "address": "\n〒950-3125 新潟県新潟市北区松浜本町４丁目２−番３８号",
    "latitude": 37.9516954,
    "longitude": 139.1391112,
    "link": "https://www.google.com/maps/place/%28%E7%A6%8F%29%E6%9D%BE%E6%A8%B9%E4%BC%9A+%E6%9D%BE%E6%B5%9C%E3%81%93%E3%81%A9%E3%82%82%E5%9C%92/data=!4m7!3m6!1s0x5ff4cac5f3c11f17:0xcfced6fa43cd2194!8m2!3d37.9516954!4d139.1391112!16s%2Fg%2F1tdr80fp!19sChIJFx_B88XK9F8RlCHNQ_rWzs8?authuser=0&hl=ja&rclk=1",
    "category": "保育園"
  },
  {
    "name": "幼保連携型認定こども園 にじ",
    "address": "\n〒956-0816 新潟県新潟市秋葉区新津東町２丁目２−８",
    "latitude": 37.8011121,
    "longitude": 139.1404694,
    "link": "https://www.google.com/maps/place/%E5%B9%BC%E4%BF%9D%E9%80%A3%E6%90%BA%E5%9E%8B%E8%AA%8D%E5%AE%9A%E3%81%93%E3%81%A9%E3%82%82%E5%9C%92+%E3%81%AB%E3%81%98/data=!4m7!3m6!1s0x5ff4d192b3fdb943:0xfea190bdb72fe83e!8m2!3d37.8011121!4d139.1404694!16s%2Fg%2F11h764cyxy!19sChIJQ7n9s5LR9F8RPugvt72Qof4?authuser=0&hl=ja&rclk=1",
    "category": "保育園"
  },
  {
    "name": "赤塚こども園",
    "address": "\n〒950-2261 新潟県新潟市西区赤塚２７８３−２",
    "latitude": 37.8147084,
    "longitude": 138.8868804,
    "link": "https://www.google.com/maps/place/%E8%B5%A4%E5%A1%9A%E3%81%93%E3%81%A9%E3%82%82%E5%9C%92/data=!4m7!3m6!1s0x5ff4c1a3d52d29bd:0xf7df92c8f0facfb5!8m2!3d37.8147084!4d138.8868804!16s%2Fg%2F1tdvzqvw!19sChIJvSkt1aPB9F8Rtc_68MiS3_c?authuser=0&hl=ja&rclk=1",
    "category": "保育園"
  },
  {
    "name": "四つ葉こども園",
    "address": "\n〒950-0121 新潟県新潟市江南区亀田向陽２丁目１１−２７",
    "latitude": 37.8789708,
    "longitude": 139.1119145,
    "link": "https://www.google.com/maps/place/%E5%9B%9B%E3%81%A4%E8%91%89%E3%81%93%E3%81%A9%E3%82%82%E5%9C%92/data=!4m7!3m6!1s0x5ff4ceb9c2c2a9c7:0xcc2b1ca1b8df3632!8m2!3d37.8789708!4d139.1119145!16s%2Fg%2F1tdmpx40!19sChIJx6nCwrnO9F8RMjbfuKEcK8w?authuser=0&hl=ja&rclk=1",
    "category": "保育園"
  },
  {
    "name": "みつばちこども園",
    "address": "\n〒950-0843 新潟県新潟市東区粟山３丁目３−８",
    "latitude": 37.8976412,
    "longitude": 139.1012379,
    "link": "https://www.google.com/maps/place/%E3%81%BF%E3%81%A4%E3%81%B0%E3%81%A1%E3%81%93%E3%81%A9%E3%82%82%E5%9C%92/data=!4m7!3m6!1s0x5ff4c9594948ea71:0x266f7bcb0a06adec!8m2!3d37.8976412!4d139.1012379!16s%2Fg%2F1tpc7tfs!19sChIJcepISVnJ9F8R7K0GCst7byY?authuser=0&hl=ja&rclk=1",
    "category": "保育園"
  },
  {
    "name": "えびがせ保育園アミック",
    "address": "\n〒950-0806 新潟県新潟市東区海老ケ瀬３０１７−番地",
    "latitude": 37.9315692,
    "longitude": 139.1233311,
    "link": "https://www.google.com/maps/place/%E3%81%88%E3%81%B3%E3%81%8C%E3%81%9B%E4%BF%9D%E8%82%B2%E5%9C%92%E3%82%A2%E3%83%9F%E3%83%83%E3%82%AF/data=!4m7!3m6!1s0x5ff4caffb7aea9fb:0x3d0f0292cbf43c95!8m2!3d37.9315692!4d139.1233311!16s%2Fg%2F11hd24g7rp!19sChIJ-6mut__K9F8RlTz0y5ICDz0?authuser=0&hl=ja&rclk=1",
    "category": "保育園"
  },
  {
    "name": "認定こども園あそびの森金鵄幼稚園",
    "address": "\n〒950-2012 新潟県新潟市西区小針台１−４",
    "latitude": 37.8911227,
    "longitude": 138.9897651,
    "link": "https://www.google.com/maps/place/%E8%AA%8D%E5%AE%9A%E3%81%93%E3%81%A9%E3%82%82%E5%9C%92%E3%81%82%E3%81%9D%E3%81%B3%E3%81%AE%E6%A3%AE%E9%87%91%E9%B5%84%E5%B9%BC%E7%A8%9A%E5%9C%92/data=!4m7!3m6!1s0x5ff4c872e40d14b9:0x4b03847e3dbbe233!8m2!3d37.8911227!4d138.9897651!16s%2Fg%2F1ttq1yxx!19sChIJuRQN5HLI9F8RM-K7PX6EA0s?authuser=0&hl=ja&rclk=1",
    "category": "保育園"
  },
  {
    "name": "都市型保育園ポポラー 新潟東中通園",
    "address": "\n〒951-8116 新潟県新潟市中央区東中通2−２７４−２ 皆川ビル 1F",
    "latitude": 37.9201405,
    "longitude": 139.0399074,
    "link": "https://www.google.com/maps/place/%E9%83%BD%E5%B8%82%E5%9E%8B%E4%BF%9D%E8%82%B2%E5%9C%92%E3%83%9D%E3%83%9D%E3%83%A9%E3%83%BC+%E6%96%B0%E6%BD%9F%E6%9D%B1%E4%B8%AD%E9%80%9A%E5%9C%92/data=!4m7!3m6!1s0x5ff4c9e9284e4d0b:0xa44477171d489554!8m2!3d37.9201405!4d139.0399074!16s%2Fg%2F11gcmvrvdw!19sChIJC01OKOnJ9F8RVJVIHRd3RKQ?authuser=0&hl=ja&rclk=1",
    "category": "保育園"
  },
  {
    "name": "ニチイキッズさつき野駅前保育園",
    "address": "\n〒956-0861 新潟県新潟市秋葉区北上２丁目１７−１７ 5号",
    "latitude": 37.8140808,
    "longitude": 139.1193234,
    "link": "https://www.google.com/maps/place/%E3%83%8B%E3%83%81%E3%82%A4%E3%82%AD%E3%83%83%E3%82%BA%E3%81%95%E3%81%A4%E3%81%8D%E9%87%8E%E9%A7%85%E5%89%8D%E4%BF%9D%E8%82%B2%E5%9C%92/data=!4m7!3m6!1s0x5ff4d00130dc16ad:0x7957fcc2897e4352!8m2!3d37.8140808!4d139.1193234!16s%2Fg%2F11jmc2s766!19sChIJrRbcMAHQ9F8RUkN-icL8V3k?authuser=0&hl=ja&rclk=1",
    "category": "保育園"
  },
  {
    "name": "メイプル保育園",
    "address": "\n〒950-0814 新潟県新潟市東区逢谷内６丁目８−２５ 日本毛髪構造機構研究所",
    "latitude": 37.922911,
    "longitude": 139.114678,
    "link": "https://www.google.com/maps/place/%E3%83%A1%E3%82%A4%E3%83%97%E3%83%AB%E4%BF%9D%E8%82%B2%E5%9C%92/data=!4m7!3m6!1s0x5ff4cbb23e76db83:0xf48d5e0f19e3abf8!8m2!3d37.922911!4d139.114678!16s%2Fg%2F1tfv4zkd!19sChIJg9t2PrLL9F8R-KvjGQ9ejfQ?authuser=0&hl=ja&rclk=1",
    "category": "保育園"
  },
  {
    "name": "新潟市立 木崎保育園",
    "address": "\n〒950-3311 新潟県新潟市北区横井２７９ 市立木崎保育園",
    "latitude": 37.938074,
    "longitude": 139.2184809,
    "link": "https://www.google.com/maps/place/%E6%96%B0%E6%BD%9F%E5%B8%82%E7%AB%8B+%E6%9C%A8%E5%B4%8E%E4%BF%9D%E8%82%B2%E5%9C%92/data=!4m7!3m6!1s0x5f8b3498ca65231b:0xb75e524b4c27ef4e!8m2!3d37.938074!4d139.2184809!16s%2Fg%2F1tjpq9tf!19sChIJGyNlypg0i18RTu8nTEtSXrc?authuser=0&hl=ja&rclk=1",
    "category": "保育園"
  },
  {
    "name": "恵光保育園",
    "address": "\n〒950-0941 新潟県新潟市中央区女池３丁目４３−１１ 恵光学園認定こども園恵光学園第２幼稚園恵光保育園",
    "latitude": 37.8975361,
    "longitude": 139.0427917,
    "link": "https://www.google.com/maps/place/%E6%81%B5%E5%85%89%E4%BF%9D%E8%82%B2%E5%9C%92/data=!4m7!3m6!1s0x5ff4c9aa6a91c54d:0x55c5e75c6eff1dbf!8m2!3d37.8975361!4d139.0427917!16s%2Fg%2F11b5pjzzkn!19sChIJTcWRaqrJ9F8Rvx3_blznxVU?authuser=0&hl=ja&rclk=1",
    "category": "保育園"
  },
  {
    "name": "新潟市立 和納保育園",
    "address": "\n〒953-0125 新潟県新潟市西蒲区和納９０９",
    "latitude": 37.7208162,
    "longitude": 138.8810599,
    "link": "https://www.google.com/maps/place/%E6%96%B0%E6%BD%9F%E5%B8%82%E7%AB%8B+%E5%92%8C%E7%B4%8D%E4%BF%9D%E8%82%B2%E5%9C%92/data=!4m7!3m6!1s0x5ff4e89f1b4d6077:0xd38fd98de8f6653e!8m2!3d37.7208162!4d138.8810599!16s%2Fg%2F11b5pj2bw6!19sChIJd2BNG5_o9F8RPmX26I3Zj9M?authuser=0&hl=ja&rclk=1",
    "category": "保育園"
  },
  {
    "name": "保古野木保育園",
    "address": "\n〒950-2134 新潟県新潟市西区保古野木９００",
    "latitude": 37.8175823,
    "longitude": 138.9202923,
    "link": "https://www.google.com/maps/place/%E4%BF%9D%E5%8F%A4%E9%87%8E%E6%9C%A8%E4%BF%9D%E8%82%B2%E5%9C%92/data=!4m7!3m6!1s0x5ff4c168989f51a5:0x6f09134b1de6e1aa!8m2!3d37.8175823!4d138.9202923!16s%2Fg%2F1tld001_!19sChIJpVGfmGjB9F8RquHmHUsTCW8?authuser=0&hl=ja&rclk=1",
    "category": "保育園"
  },
  {
    "name": "白根おおぞら保育園",
    "address": "\n〒950-1213 新潟県新潟市南区能登５３５−４",
    "latitude": 37.7680522,
    "longitude": 139.0202977,
    "link": "https://www.google.com/maps/place/%E7%99%BD%E6%A0%B9%E3%81%8A%E3%81%8A%E3%81%9E%E3%82%89%E4%BF%9D%E8%82%B2%E5%9C%92/data=!4m7!3m6!1s0x5ff4dcb79d37e74d:0xb31934826dc8300f!8m2!3d37.7680522!4d139.0202977!16s%2Fg%2F11fvxl4b46!19sChIJTec3nbfc9F8RDzDIbYI0GbM?authuser=0&hl=ja&rclk=1",
    "category": "保育園"
  },
  {
    "name": "月潟保育園",
    "address": "\n〒950-1303 新潟県新潟市南区西萱場１５６５ 市立月潟保育園",
    "latitude": 37.73099,
    "longitude": 138.999028,
    "link": "https://www.google.com/maps/place/%E6%9C%88%E6%BD%9F%E4%BF%9D%E8%82%B2%E5%9C%92/data=!4m7!3m6!1s0x5ff4dd7620708fcb:0x43338eb25e8dd3fa!8m2!3d37.73099!4d138.999028!16s%2Fg%2F1trxk3b9!19sChIJy49wIHbd9F8R-tONXrKOM0M?authuser=0&hl=ja&rclk=1",
    "category": "保育園"
  },
  {
    "name": "名木野保育園",
    "address": "\n〒954-0035 新潟県見附市名木野町３１５４",
    "latitude": 37.51171,
    "longitude": 138.9294051,
    "link": "https://www.google.com/maps/place/%E5%90%8D%E6%9C%A8%E9%87%8E%E4%BF%9D%E8%82%B2%E5%9C%92/data=!4m7!3m6!1s0x5ff506a8d39fd307:0xd6de59bc81ddb6b8!8m2!3d37.51171!4d138.9294051!16s%2Fg%2F1v76zhj1!19sChIJB9Of06gG9V8RuLbdgbxZ3tY?authuser=0&hl=ja&rclk=1",
    "category": "保育園"
  },
  {
    "name": "さくらこども園",
    "address": "\n〒956-0032 新潟県新潟市秋葉区南町１０−３",
    "latitude": 37.7933609,
    "longitude": 139.1170085,
    "link": "https://www.google.com/maps/place/%E3%81%95%E3%81%8F%E3%82%89%E3%81%93%E3%81%A9%E3%82%82%E5%9C%92/data=!4m7!3m6!1s0x5ff4da936bff322d:0xd186a2cde1fd4b6c!8m2!3d37.7933609!4d139.1170085!16s%2Fg%2F1th1ckns!19sChIJLTL_a5Pa9F8RbEv94c2ihtE?authuser=0&hl=ja&rclk=1",
    "category": "保育園"
  },
  {
    "name": "新潟市立亀田第三保育園",
    "address": "\n〒950-0124 新潟県新潟市江南区亀田東町３丁目５−１５ 新潟市立亀田第三保育園",
    "latitude": 37.8675163,
    "longitude": 139.1153331,
    "link": "https://www.google.com/maps/place/%E6%96%B0%E6%BD%9F%E5%B8%82%E7%AB%8B%E4%BA%80%E7%94%B0%E7%AC%AC%E4%B8%89%E4%BF%9D%E8%82%B2%E5%9C%92/data=!4m7!3m6!1s0x5ff4cee9491100f9:0x69261b79a4dcac2f!8m2!3d37.8675163!4d139.1153331!16s%2Fg%2F1tl7nkjp!19sChIJ-QARSenO9F8RL6zcpHkbJmk?authuser=0&hl=ja&rclk=1",
    "category": "保育園"
  },
  {
    "name": "あたごとまとこども園（愛宕福祉会）",
    "address": "\n〒950-3321 新潟県新潟市北区葛塚４８５８",
    "latitude": 37.9255036,
    "longitude": 139.2156381,
    "link": "https://www.google.com/maps/place/%E3%81%82%E3%81%9F%E3%81%94%E3%81%A8%E3%81%BE%E3%81%A8%E3%81%93%E3%81%A9%E3%82%82%E5%9C%92%EF%BC%88%E6%84%9B%E5%AE%95%E7%A6%8F%E7%A5%89%E4%BC%9A%EF%BC%89/data=!4m7!3m6!1s0x5f8b335101549b6f:0x99efca1e42d71478!8m2!3d37.9255036!4d139.2156381!16s%2Fg%2F11btwvd426!19sChIJb5tUAVEzi18ReBTXQh7K75k?authuser=0&hl=ja&rclk=1",
    "category": "保育園"
  },
  {
    "name": "白根そよ風保育園",
    "address": "\n〒950-1456 新潟県新潟市南区茨曽根７６６４−１",
    "latitude": 37.717601,
    "longitude": 139.014727,
    "link": "https://www.google.com/maps/place/%E7%99%BD%E6%A0%B9%E3%81%9D%E3%82%88%E9%A2%A8%E4%BF%9D%E8%82%B2%E5%9C%92/data=!4m7!3m6!1s0x5ff4ddf2921607d5:0x629038e6706eb517!8m2!3d37.717601!4d139.014727!16s%2Fg%2F11cfd4ngs!19sChIJ1QcWkvLd9F8RF7VucOY4kGI?authuser=0&hl=ja&rclk=1",
    "category": "保育園"
  },
  {
    "name": "湖桜保育園",
    "address": "\n〒950-0932 新潟県新潟市中央区長潟２丁目２９−５ 光寿会湖桜保育園",
    "latitude": 37.888575,
    "longitude": 139.0661852,
    "link": "https://www.google.com/maps/place/%E6%B9%96%E6%A1%9C%E4%BF%9D%E8%82%B2%E5%9C%92/data=!4m7!3m6!1s0x5ff4c91863a0c79f:0x924590575e13396!8m2!3d37.888575!4d139.0661852!16s%2Fg%2F1tnbkzqf!19sChIJn8egYxjJ9F8RljPhdQVZJAk?authuser=0&hl=ja&rclk=1",
    "category": "保育園"
  },
  {
    "name": "つぼみ保育園",
    "address": "\n〒959-1261 新潟県燕市秋葉町４丁目１０−４０",
    "latitude": 37.661819,
    "longitude": 138.9163281,
    "link": "https://www.google.com/maps/place/%E3%81%A4%E3%81%BC%E3%81%BF%E4%BF%9D%E8%82%B2%E5%9C%92/data=!4m7!3m6!1s0x5ff4e474e1f5b961:0x50592623f76ecf5b!8m2!3d37.661819!4d138.9163281!16s%2Fg%2F1wn_5z4v!19sChIJYbn14XTk9F8RW89u9yMmWVA?authuser=0&hl=ja&rclk=1",
    "category": "保育園"
  },
  {
    "name": "新潟市立二葉保育園",
    "address": "\n〒950-3344 新潟県新潟市北区浦木１５２３−１ 市立二葉保育園",
    "latitude": 37.889521,
    "longitude": 139.210749,
    "link": "https://www.google.com/maps/place/%E6%96%B0%E6%BD%9F%E5%B8%82%E7%AB%8B%E4%BA%8C%E8%91%89%E4%BF%9D%E8%82%B2%E5%9C%92/data=!4m7!3m6!1s0x5ff4cd03422a7883:0xe62b5c2218c5dfa9!8m2!3d37.889521!4d139.210749!16s%2Fg%2F1v29bw31!19sChIJg3gqQgPN9F8Rqd_FGCJcK-Y?authuser=0&hl=ja&rclk=1",
    "category": "保育園"
  },
  {
    "name": "新潟青陵学園 認定こども園新潟青陵こども園",
    "address": "\n〒951-8121 新潟県新潟市中央区水道町１丁目５９３９",
    "latitude": 37.920978,
    "longitude": 139.0263802,
    "link": "https://www.google.com/maps/place/%E6%96%B0%E6%BD%9F%E9%9D%92%E9%99%B5%E5%AD%A6%E5%9C%92+%E8%AA%8D%E5%AE%9A%E3%81%93%E3%81%A9%E3%82%82%E5%9C%92%E6%96%B0%E6%BD%9F%E9%9D%92%E9%99%B5%E3%81%93%E3%81%A9%E3%82%82%E5%9C%92/data=!4m7!3m6!1s0x5ff4c9dd9916bc37:0xf490da3926012a20!8m2!3d37.920978!4d139.0263802!16s%2Fg%2F1tzgp1ds!19sChIJN7wWmd3J9F8RICoBJjnakPQ?authuser=0&hl=ja&rclk=1",
    "category": "幼稚園"
  },
  {
    "name": "認定こども園あそびの森金鵄幼稚園",
    "address": "\n〒950-2012 新潟県新潟市西区小針台１−４",
    "latitude": 37.8911227,
    "longitude": 138.9897651,
    "link": "https://www.google.com/maps/place/%E8%AA%8D%E5%AE%9A%E3%81%93%E3%81%A9%E3%82%82%E5%9C%92%E3%81%82%E3%81%9D%E3%81%B3%E3%81%AE%E6%A3%AE%E9%87%91%E9%B5%84%E5%B9%BC%E7%A8%9A%E5%9C%92/data=!4m7!3m6!1s0x5ff4c872e40d14b9:0x4b03847e3dbbe233!8m2!3d37.8911227!4d138.9897651!16s%2Fg%2F1ttq1yxx!19sChIJuRQN5HLI9F8RM-K7PX6EA0s?authuser=0&hl=ja&rclk=1",
    "category": "幼稚園"
  },
  {
    "name": "新潟県立幼稚園",
    "address": "\n〒950-0806 新潟県新潟市東区海老ケ瀬４６１",
    "latitude": 37.9249011,
    "longitude": 139.1268288,
    "link": "https://www.google.com/maps/place/%E6%96%B0%E6%BD%9F%E7%9C%8C%E7%AB%8B%E5%B9%BC%E7%A8%9A%E5%9C%92/data=!4m7!3m6!1s0x5ff4cba8ffd4b5c9:0x3ded497b4aeb32a4!8m2!3d37.9249011!4d139.1268288!16s%2Fg%2F1vb9cx6d!19sChIJybXU_6jL9F8RpDLrSntJ7T0?authuser=0&hl=ja&rclk=1",
    "category": "幼稚園"
  },
  {
    "name": "真人幼稚園",
    "address": "\n〒950-0915 新潟県新潟市中央区鐙西２丁目２１−１７ 真人学園真人幼稚園",
    "latitude": 37.9010937,
    "longitude": 139.0608107,
    "link": "https://www.google.com/maps/place/%E7%9C%9F%E4%BA%BA%E5%B9%BC%E7%A8%9A%E5%9C%92/data=!4m7!3m6!1s0x5ff4c90ba669b989:0xdfd876642fd15ff2!8m2!3d37.9010937!4d139.0608107!16s%2Fg%2F1vxz9g6w!19sChIJiblppgvJ9F8R8l_RL2R22N8?authuser=0&hl=ja&rclk=1",
    "category": "幼稚園"
  },
  {
    "name": "あさひ幼稚園",
    "address": "\n〒951-8122 新潟県新潟市中央区旭町通２番町５２３９",
    "latitude": 37.9229162,
    "longitude": 139.0325853,
    "link": "https://www.google.com/maps/place/%E3%81%82%E3%81%95%E3%81%B2%E5%B9%BC%E7%A8%9A%E5%9C%92/data=!4m7!3m6!1s0x5ff4c9e6ef597b1f:0x8bf8a2cd8fc4f002!8m2!3d37.9229162!4d139.0325853!16s%2Fg%2F1tfcn5fn!19sChIJH3tZ7-bJ9F8RAvDEj82i-Is?authuser=0&hl=ja&rclk=1",
    "category": "幼稚園"
  },
  {
    "name": "新潟中央幼稚園",
    "address": "\n〒951-8061 新潟県新潟市中央区西堀通７番町１５５８",
    "latitude": 37.9249267,
    "longitude": 139.0434629,
    "link": "https://www.google.com/maps/place/%E6%96%B0%E6%BD%9F%E4%B8%AD%E5%A4%AE%E5%B9%BC%E7%A8%9A%E5%9C%92/data=!4m7!3m6!1s0x5ff4c9faa2996263:0xfd179b24b7910f30!8m2!3d37.9249267!4d139.0434629!16s%2Fg%2F1tfj2_r3!19sChIJY2KZovrJ9F8RMA-RtySbF_0?authuser=0&hl=ja&rclk=1",
    "category": "幼稚園"
  },
  {
    "name": "寺尾幼稚園",
    "address": "\n〒950-2055 新潟県新潟市西区寺尾上１丁目６−５５",
    "latitude": 37.8795625,
    "longitude": 138.9735564,
    "link": "https://www.google.com/maps/place/%E5%AF%BA%E5%B0%BE%E5%B9%BC%E7%A8%9A%E5%9C%92/data=!4m7!3m6!1s0x5ff4c7c4f639db8d:0x316a1cfc450f963b!8m2!3d37.8795625!4d138.9735564!16s%2Fg%2F1tc_f2sq!19sChIJjds59sTH9F8RO5YPRfwcajE?authuser=0&hl=ja&rclk=1",
    "category": "幼稚園"
  },
  {
    "name": "まるみ幼稚園",
    "address": "\n〒950-0963 新潟県新潟市中央区南出来島１丁目１７−１",
    "latitude": 37.8962269,
    "longitude": 139.0262725,
    "link": "https://www.google.com/maps/place/%E3%81%BE%E3%82%8B%E3%81%BF%E5%B9%BC%E7%A8%9A%E5%9C%92/data=!4m7!3m6!1s0x5ff4c8510503a9e3:0x6ce510575f3a025a!8m2!3d37.8962269!4d139.0262725!16s%2Fg%2F1vfzd_z3!19sChIJ46kDBVHI9F8RWgI6X1cQ5Ww?authuser=0&hl=ja&rclk=1",
    "category": "幼稚園"
  },
  {
    "name": "親松幼稚園",
    "address": "\n〒950-0952 新潟県新潟市中央区親松１３６",
    "latitude": 37.8791306,
    "longitude": 139.0318017,
    "link": "https://www.google.com/maps/place/%E8%A6%AA%E6%9D%BE%E5%B9%BC%E7%A8%9A%E5%9C%92/data=!4m7!3m6!1s0x5ff4c89338a2e667:0x2efb583be5de241c!8m2!3d37.8791306!4d139.0318017!16s%2Fg%2F1tflg1y6!19sChIJZ-aiOJPI9F8RHCTe5TtY-y4?authuser=0&hl=ja&rclk=1",
    "category": "幼稚園"
  },
  {
    "name": "坂井輪東幼稚園",
    "address": "\n〒950-2041 新潟県新潟市西区坂井東１丁目６−８",
    "latitude": 37.8796271,
    "longitude": 138.9844726,
    "link": "https://www.google.com/maps/place/%E5%9D%82%E4%BA%95%E8%BC%AA%E6%9D%B1%E5%B9%BC%E7%A8%9A%E5%9C%92/data=!4m7!3m6!1s0x5ff4c7d0e9458703:0x426352064c347f83!8m2!3d37.8796271!4d138.9844726!16s%2Fg%2F1td13355!19sChIJA4dF6dDH9F8Rg380TAZSY0I?authuser=0&hl=ja&rclk=1",
    "category": "幼稚園"
  },
  {
    "name": "和光幼稚園",
    "address": "\n〒959-0425 新潟県新潟市西蒲区押付１３６１−２",
    "latitude": 37.786404,
    "longitude": 138.915005,
    "link": "https://www.google.com/maps/place/%E5%92%8C%E5%85%89%E5%B9%BC%E7%A8%9A%E5%9C%92/data=!4m7!3m6!1s0x5ff4c240610523df:0xb2ccc47d59a1bc58!8m2!3d37.786404!4d138.915005!16s%2Fg%2F1ts1mgn1!19sChIJ3yMFYUDC9F8RWLyhWX3EzLI?authuser=0&hl=ja&rclk=1",
    "category": "幼稚園"
  },
  {
    "name": "あそびの森有明幼稚園",
    "address": "\n〒951-8153 新潟県新潟市中央区文京町１７−２１",
    "latitude": 37.9076248,
    "longitude": 139.0091167,
    "link": "https://www.google.com/maps/place/%E3%81%82%E3%81%9D%E3%81%B3%E3%81%AE%E6%A3%AE%E6%9C%89%E6%98%8E%E5%B9%BC%E7%A8%9A%E5%9C%92/data=!4m7!3m6!1s0x5ff4c831a152ffc1:0x4b0d794bb7ef142f!8m2!3d37.9076248!4d139.0091167!16s%2Fg%2F12332h986!19sChIJwf9SoTHI9F8RLxTvt0t5DUs?authuser=0&hl=ja&rclk=1",
    "category": "幼稚園"
  },
  {
    "name": "ひのまる幼稚園",
    "address": "\n〒953-0041 新潟県新潟市西蒲区甲７５５−３",
    "latitude": 37.7608228,
    "longitude": 138.8852562,
    "link": "https://www.google.com/maps/place/%E3%81%B2%E3%81%AE%E3%81%BE%E3%82%8B%E5%B9%BC%E7%A8%9A%E5%9C%92/data=!4m7!3m6!1s0x5ff4e9ca03bd1f81:0x7a1f4455234ebf0b!8m2!3d37.7608228!4d138.8852562!16s%2Fg%2F1tp07yvk!19sChIJgR-9A8rp9F8RC79OI1VEH3o?authuser=0&hl=ja&rclk=1",
    "category": "幼稚園"
  },
  {
    "name": "ノートルダム幼稚園･保育園",
    "address": "\n〒950-2064 新潟県新潟市西区寺尾西３丁目２６−５０",
    "latitude": 37.8759698,
    "longitude": 138.9619691,
    "link": "https://www.google.com/maps/place/%E3%83%8E%E3%83%BC%E3%83%88%E3%83%AB%E3%83%80%E3%83%A0%E5%B9%BC%E7%A8%9A%E5%9C%92%EF%BD%A5%E4%BF%9D%E8%82%B2%E5%9C%92/data=!4m7!3m6!1s0x5ff4c7b92a039d41:0x332f034de5b9b4b0!8m2!3d37.8759698!4d138.9619691!16s%2Fg%2F1tgh2tsj!19sChIJQZ0DKrnH9F8RsLS55U0DLzM?authuser=0&hl=ja&rclk=1",
    "category": "幼稚園"
  },
  {
    "name": "新潟市西区 旭が丘幼稚園",
    "address": "\n〒950-2102 新潟県新潟市西区五十嵐２の町８６３３",
    "latitude": 37.8621041,
    "longitude": 138.9348299,
    "link": "https://www.google.com/maps/place/%E6%96%B0%E6%BD%9F%E5%B8%82%E8%A5%BF%E5%8C%BA+%E6%97%AD%E3%81%8C%E4%B8%98%E5%B9%BC%E7%A8%9A%E5%9C%92/data=!4m7!3m6!1s0x5ff4c711b4a52117:0x10b1b20de8723d06!8m2!3d37.8621041!4d138.9348299!16s%2Fg%2F1tkf0tjc!19sChIJFyGltBHH9F8RBj1y6A2ysRA?authuser=0&hl=ja&rclk=1",
    "category": "幼稚園"
  },
  {
    "name": "恵泉こども園",
    "address": "\n〒950-0027 新潟県新潟市東区松和町１６−５",
    "latitude": 37.9397739,
    "longitude": 139.0990739,
    "link": "https://www.google.com/maps/place/%E6%81%B5%E6%B3%89%E3%81%93%E3%81%A9%E3%82%82%E5%9C%92/data=!4m7!3m6!1s0x5ff4ca60c74f3879:0x3a2abae1120a8871!8m2!3d37.9397739!4d139.0990739!16s%2Fg%2F1tdhdvmk!19sChIJeThPx2DK9F8RcYgKEuG6Kjo?authuser=0&hl=ja&rclk=1",
    "category": "幼稚園"
  },
  {
    "name": "あおい幼稚園",
    "address": "\n〒950-0801 新潟県新潟市東区津島屋３丁目１００",
    "latitude": 37.9416491,
    "longitude": 139.1322064,
    "link": "https://www.google.com/maps/place/%E3%81%82%E3%81%8A%E3%81%84%E5%B9%BC%E7%A8%9A%E5%9C%92/data=!4m7!3m6!1s0x5ff4cae65b356ec7:0xc794dc4160712c63!8m2!3d37.9416491!4d139.1322064!16s%2Fg%2F1tf6ggyf!19sChIJx241W-bK9F8RYyxxYEHclMc?authuser=0&hl=ja&rclk=1",
    "category": "幼稚園"
  },
  {
    "name": "学校法人 みどり幼稚園",
    "address": "\n〒951-8116 新潟県新潟市中央区東中通1−８６",
    "latitude": 37.9203582,
    "longitude": 139.0382763,
    "link": "https://www.google.com/maps/place/%E5%AD%A6%E6%A0%A1%E6%B3%95%E4%BA%BA+%E3%81%BF%E3%81%A9%E3%82%8A%E5%B9%BC%E7%A8%9A%E5%9C%92/data=!4m7!3m6!1s0x5ff4c9e8dd7ee297:0x5483f1a9c4e1acc7!8m2!3d37.9203582!4d139.0382763!16s%2Fg%2F1tjjp672!19sChIJl-J-3ejJ9F8Rx6zhxKnxg1Q?authuser=0&hl=ja&rclk=1",
    "category": "幼稚園"
  },
  {
    "name": "坂井輪幼稚園",
    "address": "\n〒950-2041 新潟県新潟市西区坂井東４丁目１２−８",
    "latitude": 37.8718282,
    "longitude": 138.975253,
    "link": "https://www.google.com/maps/place/%E5%9D%82%E4%BA%95%E8%BC%AA%E5%B9%BC%E7%A8%9A%E5%9C%92/data=!4m7!3m6!1s0x5ff4c7ca0f3f5379:0x5c2c428cd163949d!8m2!3d37.8718282!4d138.975253!16s%2Fg%2F1td009_b!19sChIJeVM_D8rH9F8RnZRj0YxCLFw?authuser=0&hl=ja&rclk=1",
    "category": "幼稚園"
  },
  {
    "name": "聖ラファエル幼稚園",
    "address": "\n〒950-0086 新潟県新潟市中央区花園２丁目６−７",
    "latitude": 37.9150832,
    "longitude": 139.0669388,
    "link": "https://www.google.com/maps/place/%E8%81%96%E3%83%A9%E3%83%95%E3%82%A1%E3%82%A8%E3%83%AB%E5%B9%BC%E7%A8%9A%E5%9C%92/data=!4m7!3m6!1s0x5ff4c985e589e081:0xc937bb4d107910d1!8m2!3d37.9150832!4d139.0669388!16s%2Fg%2F1thlz8mf!19sChIJgeCJ5YXJ9F8R0RB5EE27N8k?authuser=0&hl=ja&rclk=1",
    "category": "幼稚園"
  },
  {
    "name": "京王幼稚園",
    "address": "\n〒950-0921 新潟県新潟市中央区京王３丁目１９−１",
    "latitude": 37.8967341,
    "longitude": 139.0820142,
    "link": "https://www.google.com/maps/place/%E4%BA%AC%E7%8E%8B%E5%B9%BC%E7%A8%9A%E5%9C%92/data=!4m7!3m6!1s0x5ff4c96a2cf7e8c3:0xe5e78429cd84277b!8m2!3d37.8967341!4d139.0820142!16s%2Fg%2F1tg6vjx6!19sChIJw-j3LGrJ9F8ReyeEzSmE5-U?authuser=0&hl=ja&rclk=1",
    "category": "幼稚園"
  },
  {
    "name": "村上幼稚園",
    "address": "\n〒958-0834 新潟県村上市新町２−２３",
    "latitude": 38.225623,
    "longitude": 139.484879,
    "link": "https://www.google.com/maps/place/%E6%9D%91%E4%B8%8A%E5%B9%BC%E7%A8%9A%E5%9C%92/data=!4m7!3m6!1s0x5f8b6e4dc77789f7:0x7d3c301841d46c86!8m2!3d38.225623!4d139.484879!16s%2Fg%2F1tfjkz4q!19sChIJ94l3x01ui18RhmzUQRgwPH0?authuser=0&hl=ja&rclk=1",
    "category": "幼稚園"
  },
  {
    "name": "愛泉こども園",
    "address": "\n〒950-0994 新潟県新潟市中央区上所３丁目１４−１",
    "latitude": 37.9046558,
    "longitude": 139.0417976,
    "link": "https://www.google.com/maps/place/%E6%84%9B%E6%B3%89%E3%81%93%E3%81%A9%E3%82%82%E5%9C%92/data=!4m7!3m6!1s0x5ff4c9b047658a11:0xee97d1a12e6520ef!8m2!3d37.9046558!4d139.0417976!16s%2Fg%2F1thw1_cl!19sChIJEYplR7DJ9F8R7yBlLqHRl-4?authuser=0&hl=ja&rclk=1",
    "category": "幼稚園"
  },
  {
    "name": "認定こども園もみじ幼稚園",
    "address": "\n〒943-0834 新潟県上越市西城町３丁目９−１７ 聖公会紅葉幼稚園",
    "latitude": 37.113253,
    "longitude": 138.247264,
    "link": "https://www.google.com/maps/place/%E8%AA%8D%E5%AE%9A%E3%81%93%E3%81%A9%E3%82%82%E5%9C%92%E3%82%82%E3%81%BF%E3%81%98%E5%B9%BC%E7%A8%9A%E5%9C%92/data=!4m7!3m6!1s0x5ff676da63824181:0x2335311a9f275d4e!8m2!3d37.113253!4d138.247264!16s%2Fg%2F1ts3fggx!19sChIJgUGCY9p29l8RTl0nnxoxNSM?authuser=0&hl=ja&rclk=1",
    "category": "幼稚園"
  },
  {
    "name": "藤見幼稚園",
    "address": "\n〒943-0834 新潟県上越市西城町３丁目９−１７ 聖公会紅葉幼稚園",
    "latitude": 37.9374478,
    "longitude": 139.0888493,
    "link": "https://www.google.com/maps/place/%E8%97%A4%E8%A6%8B%E5%B9%BC%E7%A8%9A%E5%9C%92/data=!4m7!3m6!1s0x5ff4ca6894ebbfdf:0x4f5aae700861a021!8m2!3d37.9374478!4d139.0888493!16s%2Fg%2F1tdwds9x!19sChIJ37_rlGjK9F8RIaBhCHCuWk8?authuser=0&hl=ja&rclk=1",
    "category": "幼稚園"
  },
  {
    "name": "沼垂幼稚園",
    "address": "\n〒950-0074 新潟県新潟市中央区鏡が岡５−５",
    "latitude": 37.9168022,
    "longitude": 139.0736921,
    "link": "https://www.google.com/maps/place/%E6%B2%BC%E5%9E%82%E5%B9%BC%E7%A8%9A%E5%9C%92/data=!4m7!3m6!1s0x5ff4c98787f4377f:0x1fa195e1aa539da1!8m2!3d37.9168022!4d139.0736921!16s%2Fg%2F1220l7bk!19sChIJfzf0h4fJ9F8RoZ1TquGVoR8?authuser=0&hl=ja&rclk=1",
    "category": "幼稚園"
  },
  {
    "name": "恵光学園 第一幼稚園",
    "address": "\n〒950-0923 新潟県新潟市中央区天神尾１丁目４−１",
    "latitude": 37.9090916,
    "longitude": 139.0556994,
    "link": "https://www.google.com/maps/place/%E6%81%B5%E5%85%89%E5%AD%A6%E5%9C%92+%E7%AC%AC%E4%B8%80%E5%B9%BC%E7%A8%9A%E5%9C%92/data=!4m7!3m6!1s0x5ff4c99853872fc1:0x4ded75ad55c0dc57!8m2!3d37.9090916!4d139.0556994!16s%2Fg%2F1tcxjm35!19sChIJwS-HU5jJ9F8RV9zAVa117U0?authuser=0&hl=ja&rclk=1",
    "category": "幼稚園"
  },
  {
    "name": "新潟市立結幼稚園",
    "address": "\n〒956-0803 新潟県新潟市秋葉区結１６０−３",
    "latitude": 37.828566,
    "longitude": 139.1205259,
    "link": "https://www.google.com/maps/place/%E6%96%B0%E6%BD%9F%E5%B8%82%E7%AB%8B%E7%B5%90%E5%B9%BC%E7%A8%9A%E5%9C%92/data=!4m7!3m6!1s0x5ff4cfe86e47caa3:0x2f26f0acdd75277d!8m2!3d37.828566!4d139.1205259!16s%2Fg%2F122nzdf7!19sChIJo8pHbujP9F8RfSd13azwJi8?authuser=0&hl=ja&rclk=1",
    "category": "幼稚園"
  },
  {
    "name": "新津カトリック幼稚園",
    "address": "\n〒956-0863 新潟県新潟市秋葉区日宝町２−１",
    "latitude": 37.7979095,
    "longitude": 139.1282944,
    "link": "https://www.google.com/maps/place/%E6%96%B0%E6%B4%A5%E3%82%AB%E3%83%88%E3%83%AA%E3%83%83%E3%82%AF%E5%B9%BC%E7%A8%9A%E5%9C%92/data=!4m7!3m6!1s0x5ff4da9a3416c7f3:0xabec4c0e0e6a139d!8m2!3d37.7979095!4d139.1282944!16s%2Fg%2F1tzlytdt!19sChIJ88cWNJra9F8RnRNqDg5M7Ks?authuser=0&hl=ja&rclk=1",
    "category": "幼稚園"
  },
  {
    "name": "恵光学園第二幼稚園",
    "address": "\n〒950-0941 新潟県新潟市中央区女池３丁目４３−１１",
    "latitude": 37.8974924,
    "longitude": 139.0428229,
    "link": "https://www.google.com/maps/place/%E6%81%B5%E5%85%89%E5%AD%A6%E5%9C%92%E7%AC%AC%E4%BA%8C%E5%B9%BC%E7%A8%9A%E5%9C%92/data=!4m7!3m6!1s0x5ff4c9aa6a55a377:0xda674a31fd8b2a4a!8m2!3d37.8974924!4d139.0428229!16s%2Fg%2F1tfdd98n!19sChIJd6NVaqrJ9F8RSiqL_TFKZ9o?authuser=0&hl=ja&rclk=1",
    "category": "幼稚園"
  },
  {
    "name": "緑が丘幼稚園",
    "address": "\n〒950-0012 新潟県新潟市東区有楽３丁目４−４",
    "latitude": 37.9401086,
    "longitude": 139.111107,
    "link": "https://www.google.com/maps/place/%E7%B7%91%E3%81%8C%E4%B8%98%E5%B9%BC%E7%A8%9A%E5%9C%92/data=!4m7!3m6!1s0x5ff4caf4400607fd:0x292043f79bd4b4a1!8m2!3d37.9401086!4d139.111107!16s%2Fg%2F1wzt26fg!19sChIJ_QcGQPTK9F8RobTUm_dDICk?authuser=0&hl=ja&rclk=1",
    "category": "幼稚園"
  },
  {
    "name": "明美ケ丘こども園",
    "address": "\n〒950-2045 新潟県新潟市西区五十嵐東１丁目１６−３３",
    "latitude": 37.8756986,
    "longitude": 138.9574073,
    "link": "https://www.google.com/maps/place/%E6%98%8E%E7%BE%8E%E3%82%B1%E4%B8%98%E3%81%93%E3%81%A9%E3%82%82%E5%9C%92/data=!4m7!3m6!1s0x5ff4c7bc2153c521:0x5e55ed0a85460852!8m2!3d37.8756986!4d138.9574073!16s%2Fg%2F1tht18wd!19sChIJIcVTIbzH9F8RUghGhQrtVV4?authuser=0&hl=ja&rclk=1",
    "category": "幼稚園"
  },
  {
    "name": "学校法人二葉幼稚園",
    "address": "\n〒950-2045 新潟県新潟市西区五十嵐東１丁目１６−３３",
    "latitude": 37.9211764,
    "longitude": 139.0388834,
    "link": "https://www.google.com/maps/place/%E5%AD%A6%E6%A0%A1%E6%B3%95%E4%BA%BA%E4%BA%8C%E8%91%89%E5%B9%BC%E7%A8%9A%E5%9C%92/data=!4m7!3m6!1s0x5ff4c9e8cac4c973:0xebb61808fc8a0008!8m2!3d37.9211764!4d139.0388834!16s%2Fg%2F1tfzxb4j!19sChIJc8nEyujJ9F8RCACK_AgYtus?authuser=0&hl=ja&rclk=1",
    "category": "幼稚園"
  },
  {
    "name": "学法)新江学園 認定こども園東幼稚園",
    "address": "\n〒957-0065 新潟県新発田市舟入町３丁目４−１４",
    "latitude": 37.9590396,
    "longitude": 139.3066861,
    "link": "https://www.google.com/maps/place/%E5%AD%A6%E6%B3%95%29%E6%96%B0%E6%B1%9F%E5%AD%A6%E5%9C%92+%E8%AA%8D%E5%AE%9A%E3%81%93%E3%81%A9%E3%82%82%E5%9C%92%E6%9D%B1%E5%B9%BC%E7%A8%9A%E5%9C%92/data=!4m7!3m6!1s0x5f8b317743a01f25:0xf19c6e09177ea5b6!8m2!3d37.9590396!4d139.3066861!16s%2Fg%2F11jmc2l18j!19sChIJJR-gQ3cxi18RtqV-FwlunPE?authuser=0&hl=ja&rclk=1",
    "category": "幼稚園"
  },
  {
    "name": "松葉幼稚園",
    "address": "\n〒955-0071 新潟県三条市本町２丁目１−５６",
    "latitude": 37.6312532,
    "longitude": 138.9576551,
    "link": "https://www.google.com/maps/place/%E6%9D%BE%E8%91%89%E5%B9%BC%E7%A8%9A%E5%9C%92/data=!4m7!3m6!1s0x5ff4e24563d9187b:0x1c98eeba1a680704!8m2!3d37.6312532!4d138.9576551!16s%2Fg%2F1tjrptsq!19sChIJexjZY0Xi9F8RBAdoGrrumBw?authuser=0&hl=ja&rclk=1",
    "category": "幼稚園"
  },
  {
    "name": "わかば幼稚園",
    "address": "\n〒957-0016 新潟県新発田市豊町２丁目７−１０",
    "latitude": 37.9411884,
    "longitude": 139.3401043,
    "link": "https://www.google.com/maps/place/%E3%82%8F%E3%81%8B%E3%81%B0%E5%B9%BC%E7%A8%9A%E5%9C%92/data=!4m7!3m6!1s0x5f8b319c059f24a5:0xf80538abf1820d86!8m2!3d37.9411884!4d139.3401043!16s%2Fg%2F11cm047r_6!19sChIJpSSfBZwxi18Rhg2C8as4Bfg?authuser=0&hl=ja&rclk=1",
    "category": "幼稚園"
  },
  {
    "name": "認定こども園 太陽幼稚園・おひさま保育園",
    "address": "\n〒940-2122 新潟県長岡市福山町４４７−２",
    "latitude": 37.4449761,
    "longitude": 138.8095413,
    "link": "https://www.google.com/maps/place/%E8%AA%8D%E5%AE%9A%E3%81%93%E3%81%A9%E3%82%82%E5%9C%92+%E5%A4%AA%E9%99%BD%E5%B9%BC%E7%A8%9A%E5%9C%92%E3%83%BB%E3%81%8A%E3%81%B2%E3%81%95%E3%81%BE%E4%BF%9D%E8%82%B2%E5%9C%92/data=!4m7!3m6!1s0x5ff5a9183d92e73d:0xbf0497b5cb5dee7f!8m2!3d37.4449761!4d138.8095413!16s%2Fg%2F1x6q1lz4!19sChIJPeeSPRip9V8Rf-5dy7WXBL8?authuser=0&hl=ja&rclk=1",
    "category": "幼稚園"
  },
  {
    "name": "栄光こども園",
    "address": "\n〒950-0852 新潟県新潟市東区石山１丁目３−８０ 恵愛学園栄光こども園",
    "latitude": 37.8967517,
    "longitude": 139.0906636,
    "link": "https://www.google.com/maps/place/%E6%A0%84%E5%85%89%E3%81%93%E3%81%A9%E3%82%82%E5%9C%92/data=!4m7!3m6!1s0x5ff4c942faab4031:0xffeaefab27fb6037!8m2!3d37.8967517!4d139.0906636!16s%2Fg%2F1tdp097f!19sChIJMUCr-kLJ9F8RN2D7J6vv6v8?authuser=0&hl=ja&rclk=1",
    "category": "幼稚園"
  },
  {
    "name": "天鐘こども園",
    "address": "\n〒950-2042 新潟県新潟市西区坂井９１４−１",
    "latitude": 37.8674171,
    "longitude": 138.9594383,
    "link": "https://www.google.com/maps/place/%E5%A4%A9%E9%90%98%E3%81%93%E3%81%A9%E3%82%82%E5%9C%92/data=!4m7!3m6!1s0x5ff4c7af3eea915d:0xc98023eaca877bd6!8m2!3d37.8674171!4d138.9594383!16s%2Fg%2F11ggbbhlnr!19sChIJXZHqPq_H9F8R1nuHyuojgMk?authuser=0&hl=ja&rclk=1",
    "category": "幼稚園"
  },
  {
    "name": "（学）長生学園 中島幼稚園／わくわく保育園",
    "address": "\n〒950-2042 新潟県新潟市西区坂井９１４−１",
    "latitude": 37.453661,
    "longitude": 138.838767,
    "link": "https://www.google.com/maps/place/%EF%BC%88%E5%AD%A6%EF%BC%89%E9%95%B7%E7%94%9F%E5%AD%A6%E5%9C%92+%E4%B8%AD%E5%B3%B6%E5%B9%BC%E7%A8%9A%E5%9C%92%EF%BC%8F%E3%82%8F%E3%81%8F%E3%82%8F%E3%81%8F%E4%BF%9D%E8%82%B2%E5%9C%92/data=!4m7!3m6!1s0x5ff5a9a5f34efd65:0x110290f8688e0ef2!8m2!3d37.453661!4d138.838767!16s%2Fg%2F1td3lfmk!19sChIJZf1O86Wp9V8R8g6OaPiQAhE?authuser=0&hl=ja&rclk=1",
    "category": "幼稚園"
  },
  {
    "name": "明幸幼稚園",
    "address": "\n〒940-0835 新潟県長岡市錦１丁目６−２３",
    "latitude": 37.430556,
    "longitude": 138.856194,
    "link": "https://www.google.com/maps/place/%E6%98%8E%E5%B9%B8%E5%B9%BC%E7%A8%9A%E5%9C%92/data=!4m7!3m6!1s0x5ff5a88c4d7ad911:0xe099c0550b030b8a!8m2!3d37.430556!4d138.856194!16s%2Fg%2F1vppscdm!19sChIJEdl6TYyo9V8RigsDC1XAmeA?authuser=0&hl=ja&rclk=1",
    "category": "幼稚園"
  },
  {
    "name": "学校法人 金城学園 金城幼稚園・保育園",
    "address": "\n〒940-0835 新潟県長岡市錦１丁目６−２３",
    "latitude": 37.0384873,
    "longitude": 138.8446778,
    "link": "https://www.google.com/maps/place/%E5%AD%A6%E6%A0%A1%E6%B3%95%E4%BA%BA+%E9%87%91%E5%9F%8E%E5%AD%A6%E5%9C%92+%E9%87%91%E5%9F%8E%E5%B9%BC%E7%A8%9A%E5%9C%92%E3%83%BB%E4%BF%9D%E8%82%B2%E5%9C%92/data=!4m7!3m6!1s0x5ff5f73af36d4197:0xb719bee0806b16db!8m2!3d37.0384873!4d138.8446778!16s%2Fg%2F1wk4cxnr!19sChIJl0Ft8zr39V8R2xZrgOC-Gbc?authuser=0&hl=ja&rclk=1",
    "category": "幼稚園"
  },
  {
    "name": "マハヤナ学園 マハヤナ幼稚園",
    "address": "\n〒942-0063 新潟県上越市下門前１８１７",
    "latitude": 37.156769,
    "longitude": 138.249392,
    "link": "https://www.google.com/maps/place/%E3%83%9E%E3%83%8F%E3%83%A4%E3%83%8A%E5%AD%A6%E5%9C%92+%E3%83%9E%E3%83%8F%E3%83%A4%E3%83%8A%E5%B9%BC%E7%A8%9A%E5%9C%92/data=!4m7!3m6!1s0x5ff6778a76af4fbb:0xce04575892654f1f!8m2!3d37.156769!4d138.249392!16s%2Fg%2F1tkmmdhq!19sChIJu0-vdop39l8RH09lklhXBM4?authuser=0&hl=ja&rclk=1",
    "category": "幼稚園"
  },
  {
    "name": "白根カトリックこども園",
    "address": "\n〒942-0063 新潟県上越市下門前１８１７",
    "latitude": 37.7692569,
    "longitude": 139.0155034,
    "link": "https://www.google.com/maps/place/%E7%99%BD%E6%A0%B9%E3%82%AB%E3%83%88%E3%83%AA%E3%83%83%E3%82%AF%E3%81%93%E3%81%A9%E3%82%82%E5%9C%92/data=!4m7!3m6!1s0x5ff4dcb6113e90cb:0x5de0812a0d64f4!8m2!3d37.7692569!4d139.0155034!16s%2Fg%2F1v8k_fyz!19sChIJy5A-Ebbc9F8R9GQNKoHgXQA?authuser=0&hl=ja&rclk=1",
    "category": "幼稚園"
  },
  {
    "name": "ルーテル幼稚園",
    "address": "\n〒942-0063 新潟県上越市下門前１８１７",
    "latitude": 37.63278,
    "longitude": 138.968869,
    "link": "https://www.google.com/maps/place/%E3%83%AB%E3%83%BC%E3%83%86%E3%83%AB%E5%B9%BC%E7%A8%9A%E5%9C%92/data=!4m7!3m6!1s0x5ff4e24713356181:0x8afaab2fe1fb065e!8m2!3d37.63278!4d138.968869!16s%2Fg%2F1wrtcpt_!19sChIJgWE1E0fi9F8RXgb74S-r-oo?authuser=0&hl=ja&rclk=1",
    "category": "幼稚園"
  },
  {
    "name": "認定こども園日章幼稚園",
    "address": "\n〒959-2002 新潟県阿賀野市下条1562番地1",
    "latitude": 37.8317632,
    "longitude": 139.2150964,
    "link": "https://www.google.com/maps/place/%E8%AA%8D%E5%AE%9A%E3%81%93%E3%81%A9%E3%82%82%E5%9C%92%E6%97%A5%E7%AB%A0%E5%B9%BC%E7%A8%9A%E5%9C%92/data=!4m7!3m6!1s0x5ff4d223a34b5063:0x935c856dcee1cff5!8m2!3d37.8317632!4d139.2150964!16s%2Fg%2F1tftwt07!19sChIJY1BLoyPS9F8R9c_hzm2FXJM?authuser=0&hl=ja&rclk=1",
    "category": "幼稚園"
  },
  {
    "name": "白ゆり学園中沢白ゆり幼稚園",
    "address": "\n〒940-0854 新潟県長岡市中沢町２２８０",
    "latitude": 37.439063,
    "longitude": 138.875377,
    "link": "https://www.google.com/maps/place/%E7%99%BD%E3%82%86%E3%82%8A%E5%AD%A6%E5%9C%92%E4%B8%AD%E6%B2%A2%E7%99%BD%E3%82%86%E3%82%8A%E5%B9%BC%E7%A8%9A%E5%9C%92/data=!4m7!3m6!1s0x5ff5a868f77e4cdf:0xb3795ca73b5910b6!8m2!3d37.439063!4d138.875377!16s%2Fg%2F1tj32zsv!19sChIJ30x-92io9V8RthBZO6dcebM?authuser=0&hl=ja&rclk=1",
    "category": "幼稚園"
  },
  {
    "name": "白ゆり学園 宮内白ゆり幼稚園",
    "address": "\n〒940-1146 新潟県長岡市下条町１４４０ 宮内白ゆり",
    "latitude": 37.407414,
    "longitude": 138.840513,
    "link": "https://www.google.com/maps/place/%E7%99%BD%E3%82%86%E3%82%8A%E5%AD%A6%E5%9C%92+%E5%AE%AE%E5%86%85%E7%99%BD%E3%82%86%E3%82%8A%E5%B9%BC%E7%A8%9A%E5%9C%92/data=!4m7!3m6!1s0x5ff5a6007325d3ad:0x9f45943e1310c5ea!8m2!3d37.407414!4d138.840513!16s%2Fg%2F1tpprtc3!19sChIJrdMlcwCm9V8R6sUQEz6URZ8?authuser=0&hl=ja&rclk=1",
    "category": "幼稚園"
  },
  {
    "name": "村上いずみ幼稚園",
    "address": "\n〒958-0853 新潟県村上市山居町２丁目１０−２２",
    "latitude": 38.2156404,
    "longitude": 139.4637952,
    "link": "https://www.google.com/maps/place/%E6%9D%91%E4%B8%8A%E3%81%84%E3%81%9A%E3%81%BF%E5%B9%BC%E7%A8%9A%E5%9C%92/data=!4m7!3m6!1s0x5f8b6efca99c8073:0x29b581fd45ed738b!8m2!3d38.2156404!4d139.4637952!16s%2Fg%2F1tx155nk!19sChIJc4Ccqfxui18Ri3PtRf2BtSk?authuser=0&hl=ja&rclk=1",
    "category": "幼稚園"
  },
  {
    "name": "加茂白百合幼稚園",
    "address": "\n〒959-1384 新潟県加茂市寿町６−２２",
    "latitude": 37.6599729,
    "longitude": 139.0463899,
    "link": "https://www.google.com/maps/place/%E5%8A%A0%E8%8C%82%E7%99%BD%E7%99%BE%E5%90%88%E5%B9%BC%E7%A8%9A%E5%9C%92/data=!4m7!3m6!1s0x5ff4e0481734c49d:0xdc954c56089be731!8m2!3d37.6599729!4d139.0463899!16s%2Fg%2F1tpbbtqt!19sChIJncQ0F0jg9F8RMeebCFZMldw?authuser=0&hl=ja&rclk=1",
    "category": "幼稚園"
  },
  {
    "name": "明照学園 明照幼稚園",
    "address": "\n〒959-1384 新潟県加茂市寿町６−２２",
    "latitude": 37.118438,
    "longitude": 138.238159,
    "link": "https://www.google.com/maps/place/%E6%98%8E%E7%85%A7%E5%AD%A6%E5%9C%92+%E6%98%8E%E7%85%A7%E5%B9%BC%E7%A8%9A%E5%9C%92/data=!4m7!3m6!1s0x5ff677263687f3e1:0x83ad516d6461c279!8m2!3d37.118438!4d138.238159!16s%2Fg%2F1tfr08g2!19sChIJ4fOHNiZ39l8RecJhZG1RrYM?authuser=0&hl=ja&rclk=1",
    "category": "幼稚園"
  },
  {
    "name": "長岡天使・聖母幼稚園",
    "address": "\n〒940-0071 新潟県長岡市表町４丁目２−１０",
    "latitude": 37.4514083,
    "longitude": 138.8490092,
    "link": "https://www.google.com/maps/place/%E9%95%B7%E5%B2%A1%E5%A4%A9%E4%BD%BF%E3%83%BB%E8%81%96%E6%AF%8D%E5%B9%BC%E7%A8%9A%E5%9C%92/data=!4m7!3m6!1s0x5ff5a9ad8415d797:0xe629440775268b17!8m2!3d37.4514083!4d138.8490092!16s%2Fg%2F1w8w9w3b!19sChIJl9cVhK2p9V8RF4smdQdEKeY?authuser=0&hl=ja&rclk=1",
    "category": "幼稚園"
  },
  {
    "name": "長岡みのり幼稚園",
    "address": "\n〒940-0026 新潟県長岡市石内２丁目５−３８",
    "latitude": 37.4626689,
    "longitude": 138.8514362,
    "link": "https://www.google.com/maps/place/%E9%95%B7%E5%B2%A1%E3%81%BF%E3%81%AE%E3%82%8A%E5%B9%BC%E7%A8%9A%E5%9C%92/data=!4m7!3m6!1s0x5ff5a9c72715c843:0x3863675e3f563b8b!8m2!3d37.4626689!4d138.8514362!16s%2Fg%2F1tf15qp4!19sChIJQ8gVJ8ep9V8RiztWP15nYzg?authuser=0&hl=ja&rclk=1",
    "category": "幼稚園"
  },
  {
    "name": "ひばり認定こども園",
    "address": "\n〒947-0003 新潟県小千谷市ひ生乙９１４−４",
    "latitude": 37.308,
    "longitude": 138.806576,
    "link": "https://www.google.com/maps/place/%E3%81%B2%E3%81%B0%E3%82%8A%E8%AA%8D%E5%AE%9A%E3%81%93%E3%81%A9%E3%82%82%E5%9C%92/data=!4m7!3m6!1s0x5ff5bc8a1deb12c3:0x85d5ded8dca37755!8m2!3d37.308!4d138.806576!16s%2Fg%2F1th86zm1!19sChIJwxLrHYq89V8RVXej3Nje1YU?authuser=0&hl=ja&rclk=1",
    "category": "幼稚園"
  },
  {
    "name": "直江津龍谷学園 真行寺幼稚園",
    "address": "\n〒942-0001 新潟県上越市中央５丁目１−１",
    "latitude": 37.1750735,
    "longitude": 138.242787,
    "link": "https://www.google.com/maps/place/%E7%9B%B4%E6%B1%9F%E6%B4%A5%E9%BE%8D%E8%B0%B7%E5%AD%A6%E5%9C%92+%E7%9C%9F%E8%A1%8C%E5%AF%BA%E5%B9%BC%E7%A8%9A%E5%9C%92/data=!4m7!3m6!1s0x5ff678725b82c2bd:0x6bb92a8dd0a32bf4!8m2!3d37.1750735!4d138.242787!16s%2Fg%2F1vzv3hxy!19sChIJvcKCW3J49l8R9Cuj0I0quWs?authuser=0&hl=ja&rclk=1",
    "category": "幼稚園"
  },
  {
    "name": "曽野木まるみ幼稚園",
    "address": "\n〒950-1135 新潟県新潟市江南区曽野木１丁目１９−１７",
    "latitude": 37.8669713,
    "longitude": 139.040678,
    "link": "https://www.google.com/maps/place/%E6%9B%BD%E9%87%8E%E6%9C%A8%E3%81%BE%E3%82%8B%E3%81%BF%E5%B9%BC%E7%A8%9A%E5%9C%92/data=!4m7!3m6!1s0x5ff4c8b06838ce41:0x92e73922ffce0cc5!8m2!3d37.8669713!4d139.040678!16s%2Fg%2F1tmxqvw0!19sChIJQc44aLDI9F8RxQzO_yI555I?authuser=0&hl=ja&rclk=1",
    "category": "幼稚園"
  },
  {
    "name": "あそびの森つばさ幼稚園",
    "address": "\n〒950-1135 新潟県新潟市江南区曽野木１丁目１９−１７",
    "latitude": 37.8626165,
    "longitude": 138.9387024,
    "link": "https://www.google.com/maps/place/%E3%81%82%E3%81%9D%E3%81%B3%E3%81%AE%E6%A3%AE%E3%81%A4%E3%81%B0%E3%81%95%E5%B9%BC%E7%A8%9A%E5%9C%92/data=!4m7!3m6!1s0x5ff4c70f93569bdd:0xc688ed0499e69bce!8m2!3d37.8626165!4d138.9387024!16s%2Fg%2F1tg8195x!19sChIJ3ZtWkw_H9F8RzpvmmQTtiMY?authuser=0&hl=ja&rclk=1",
    "category": "幼稚園"
  },
  {
    "name": "小鳥の森こども園",
    "address": "\n〒950-1135 新潟県新潟市江南区曽野木１丁目１９−１７",
    "latitude": 37.9043408,
    "longitude": 139.2213054,
    "link": "https://www.google.com/maps/place/%E5%B0%8F%E9%B3%A5%E3%81%AE%E6%A3%AE%E3%81%93%E3%81%A9%E3%82%82%E5%9C%92/data=!4m7!3m6!1s0x5ff4ccda7a70f999:0xca1cf387d505233a!8m2!3d37.9043408!4d139.2213054!16s%2Fg%2F11btww97tf!19sChIJmflwetrM9F8ROiMF1YfzHMo?authuser=0&hl=ja&rclk=1",
    "category": "幼稚園"
  },
  {
    "name": "東光こども園",
    "address": "\n〒950-3322 新潟県新潟市北区嘉山５３３ 533番地",
    "latitude": 37.4303284,
    "longitude": 138.8531436,
    "link": "https://www.google.com/maps/place/%E6%9D%B1%E5%85%89%E3%81%93%E3%81%A9%E3%82%82%E5%9C%92/data=!4m7!3m6!1s0x15320f80d6c4a323:0xb4c27b46f6b32854!8m2!3d37.4303284!4d138.8531436!16s%2Fg%2F1tv23_bv!19sChIJI6PE1oAPMhURVCiz9kZ7wrQ?authuser=0&hl=ja&rclk=1",
    "category": "幼稚園"
  },
  {
    "name": "むいかまちこども園",
    "address": "\n〒949-6681 新潟県南魚沼市余川１５１９",
    "latitude": 37.0718877,
    "longitude": 138.875159,
    "link": "https://www.google.com/maps/place/%E3%82%80%E3%81%84%E3%81%8B%E3%81%BE%E3%81%A1%E3%81%93%E3%81%A9%E3%82%82%E5%9C%92/data=!4m7!3m6!1s0x5ff5f15841996dd1:0xde6d99ff33fd0af6!8m2!3d37.0718877!4d138.875159!16s%2Fg%2F1tkmmdgl!19sChIJ0W2ZQVjx9V8R9gr9M_-Zbd4?authuser=0&hl=ja&rclk=1",
    "category": "幼稚園"
  },
  {
    "name": "幼保連携型うまこしこやす認定こども園",
    "address": "\n〒950-0865 新潟県新潟市中央区本馬越２丁目９−１４",
    "latitude": 37.91113,
    "longitude": 139.0749925,
    "link": "https://www.google.com/maps/place/%E5%B9%BC%E4%BF%9D%E9%80%A3%E6%90%BA%E5%9E%8B%E3%81%86%E3%81%BE%E3%81%93%E3%81%97%E3%81%93%E3%82%84%E3%81%99%E8%AA%8D%E5%AE%9A%E3%81%93%E3%81%A9%E3%82%82%E5%9C%92/data=!4m7!3m6!1s0x5ff4c9821ff08b6b:0xd5e6b2486aab508c!8m2!3d37.91113!4d139.0749925!16s%2Fg%2F1tcwftsg!19sChIJa4vwH4LJ9F8RjFCrakiy5tU?authuser=0&hl=ja&rclk=1",
    "category": "幼稚園"
  },
  {
    "name": "新発田聖母こども園",
    "address": "\n〒957-0053 新潟県新発田市中央町４丁目１０−１８",
    "latitude": 37.950911,
    "longitude": 139.328317,
    "link": "https://www.google.com/maps/place/%E6%96%B0%E7%99%BA%E7%94%B0%E8%81%96%E6%AF%8D%E3%81%93%E3%81%A9%E3%82%82%E5%9C%92/data=!4m7!3m6!1s0x5f8b31721d435d19:0x890b3f7c157fe77a!8m2!3d37.950911!4d139.328317!16s%2Fg%2F1trsxts6!19sChIJGV1DHXIxi18Reud_FXw_C4k?authuser=0&hl=ja&rclk=1",
    "category": "幼稚園"
  },
  {
    "name": "新潟市立西幼稚園",
    "address": "\n〒950-2172 新潟県新潟市西区内野上新町１１７９１−２",
    "latitude": 37.8502287,
    "longitude": 138.9139817,
    "link": "https://www.google.com/maps/place/%E6%96%B0%E6%BD%9F%E5%B8%82%E7%AB%8B%E8%A5%BF%E5%B9%BC%E7%A8%9A%E5%9C%92/data=!4m7!3m6!1s0x5ff4c72e0ca6394f:0x4558ed7341f74310!8m2!3d37.8502287!4d138.9139817!16s%2Fg%2F1tk6_b91!19sChIJTzmmDC7H9F8REEP3QXPtWEU?authuser=0&hl=ja&rclk=1",
    "category": "幼稚園"
  },
  {
    "name": "柏崎中央幼稚園",
    "address": "\n〒950-2172 新潟県新潟市西区内野上新町１１７９１−２",
    "latitude": 37.367986,
    "longitude": 138.551309,
    "link": "https://www.google.com/maps/place/%E6%9F%8F%E5%B4%8E%E4%B8%AD%E5%A4%AE%E5%B9%BC%E7%A8%9A%E5%9C%92/data=!4m7!3m6!1s0x5ff5b5cd566af3e9:0x5dfb8f2fa13ada75!8m2!3d37.367986!4d138.551309!16s%2Fg%2F1tfbhkwl!19sChIJ6fNqVs219V8Rddo6oS-P-10?authuser=0&hl=ja&rclk=1",
    "category": "幼稚園"
  },
  {
    "name": "（学）聖母学園 カトリック天使幼稚園",
    "address": "\n〒943-0834 新潟県上越市西城町２丁目４−４ カトリック天使",
    "latitude": 37.111378,
    "longitude": 138.249011,
    "link": "https://www.google.com/maps/place/%EF%BC%88%E5%AD%A6%EF%BC%89%E8%81%96%E6%AF%8D%E5%AD%A6%E5%9C%92+%E3%82%AB%E3%83%88%E3%83%AA%E3%83%83%E3%82%AF%E5%A4%A9%E4%BD%BF%E5%B9%BC%E7%A8%9A%E5%9C%92/data=!4m7!3m6!1s0x5ff676c5531e7dd9:0x777c0968d3edfe90!8m2!3d37.111378!4d138.249011!16s%2Fg%2F1tflg255!19sChIJ2X0eU8V29l8RkP7t02gJfHc?authuser=0&hl=ja&rclk=1",
    "category": "幼稚園"
  },
  {
    "name": "長生幼稚園 まんまる",
    "address": "\n〒943-0834 新潟県上越市西城町２丁目４−４ カトリック天使",
    "latitude": 37.4417126,
    "longitude": 138.8412519,
    "link": "https://www.google.com/maps/place/%E9%95%B7%E7%94%9F%E5%B9%BC%E7%A8%9A%E5%9C%92+%E3%81%BE%E3%82%93%E3%81%BE%E3%82%8B/data=!4m7!3m6!1s0x5ff5a8fea2c29cbf:0x156f92e99e5096d1!8m2!3d37.4417126!4d138.8412519!16s%2Fg%2F1td04x43!19sChIJv5zCov6o9V8R0ZZQnumSbxU?authuser=0&hl=ja&rclk=1",
    "category": "幼稚園"
  },
  {
    "name": "小千谷幼稚園",
    "address": "\n〒943-0834 新潟県上越市西城町２丁目４−４ カトリック天使",
    "latitude": 37.307634,
    "longitude": 138.794006,
    "link": "https://www.google.com/maps/place/%E5%B0%8F%E5%8D%83%E8%B0%B7%E5%B9%BC%E7%A8%9A%E5%9C%92/data=!4m7!3m6!1s0x5ff5bc7b36b78e37:0x345b7badeb7e881b!8m2!3d37.307634!4d138.794006!16s%2Fg%2F1v93_xx3!19sChIJN463Nnu89V8RG4h-6617WzQ?authuser=0&hl=ja&rclk=1",
    "category": "幼稚園"
  },
  {
    "name": "見附天使幼稚園",
    "address": "\n〒954-0052 新潟県見附市学校町２丁目１４−４",
    "latitude": 37.5334625,
    "longitude": 138.9231901,
    "link": "https://www.google.com/maps/place/%E8%A6%8B%E9%99%84%E5%A4%A9%E4%BD%BF%E5%B9%BC%E7%A8%9A%E5%9C%92/data=!4m7!3m6!1s0x5ff503e9c055c27b:0x44d22f94258d31f8!8m2!3d37.5334625!4d138.9231901!16s%2Fg%2F1v96lmz3!19sChIJe8JVwOkD9V8R-DGNJZQv0kQ?authuser=0&hl=ja&rclk=1",
    "category": "幼稚園"
  },
  {
    "name": "真学園",
    "address": "\n〒959-1201 新潟県燕市灰方７２６",
    "latitude": 37.6838616,
    "longitude": 138.9363353,
    "link": "https://www.google.com/maps/place/%E7%9C%9F%E5%AD%A6%E5%9C%92/data=!4m7!3m6!1s0x5ff4e6bce08b63ab:0xad14ffc7ab7bdd8a!8m2!3d37.6838616!4d138.9363353!16s%2Fg%2F1thl0pvw!19sChIJq2OL4Lzm9F8Rit17q8f_FK0?authuser=0&hl=ja&rclk=1",
    "category": "幼稚園"
  },
  {
    "name": "長峰幼稚園",
    "address": "\n〒940-2126 新潟県長岡市西津町２４４４−１",
    "latitude": 37.4343393,
    "longitude": 138.8108262,
    "link": "https://www.google.com/maps/place/%E9%95%B7%E5%B3%B0%E5%B9%BC%E7%A8%9A%E5%9C%92/data=!4m7!3m6!1s0x5ff5a927b2a144e1:0xad03026de3126d4c!8m2!3d37.4343393!4d138.8108262!16s%2Fg%2F1tdx8k2p!19sChIJ4UShsiep9V8RTG0S420CA60?authuser=0&hl=ja&rclk=1",
    "category": "幼稚園"
  },
  {
    "name": "宝塔院幼稚園",
    "address": "\n〒955-0081 新潟県三条市東裏館１丁目６−５",
    "latitude": 37.6332746,
    "longitude": 138.9589181,
    "link": "https://www.google.com/maps/place/%E5%AE%9D%E5%A1%94%E9%99%A2%E5%B9%BC%E7%A8%9A%E5%9C%92/data=!4m7!3m6!1s0x5ff4e24f16f0d065:0x798423274e72c94c!8m2!3d37.6332746!4d138.9589181!16s%2Fg%2F1tg9hd7c!19sChIJZdDwFk_i9F8RTMlyTicjhHk?authuser=0&hl=ja&rclk=1",
    "category": "幼稚園"
  },
  {
    "name": "つぐみ幼稚園",
    "address": "\n〒954-0111 新潟県見附市今町５丁目３６−１８",
    "latitude": 37.5511452,
    "longitude": 138.8922061,
    "link": "https://www.google.com/maps/place/%E3%81%A4%E3%81%90%E3%81%BF%E5%B9%BC%E7%A8%9A%E5%9C%92/data=!4m7!3m6!1s0x5ff5023bcdbf350d:0x24adb685671def35!8m2!3d37.5511452!4d138.8922061!16s%2Fg%2F1tfvst1w!19sChIJDTW_zTsC9V8RNe8dZ4W2rSQ?authuser=0&hl=ja&rclk=1",
    "category": "幼稚園"
  },
  {
    "name": "鵬幼稚園",
    "address": "\n〒940-0867 新潟県長岡市豊２丁目１３−２４",
    "latitude": 37.4617467,
    "longitude": 138.8700682,
    "link": "https://www.google.com/maps/place/%E9%B5%AC%E5%B9%BC%E7%A8%9A%E5%9C%92/data=!4m7!3m6!1s0x5ff5a9d2264d7bfd:0x3c003787b9c78393!8m2!3d37.4617467!4d138.8700682!16s%2Fg%2F1tkc1z1x!19sChIJ_XtNJtKp9V8Rk4PHuYc3ADw?authuser=0&hl=ja&rclk=1",
    "category": "幼稚園"
  },
  {
    "name": "認定こども園ひまわり幼稚園",
    "address": "\n〒959-2032 新潟県阿賀野市学校町６−５",
    "latitude": 37.8295142,
    "longitude": 139.2242403,
    "link": "https://www.google.com/maps/place/%E8%AA%8D%E5%AE%9A%E3%81%93%E3%81%A9%E3%82%82%E5%9C%92%E3%81%B2%E3%81%BE%E3%82%8F%E3%82%8A%E5%B9%BC%E7%A8%9A%E5%9C%92/data=!4m7!3m6!1s0x5ff4d1812defb17f:0x559fab2d4a6849ee!8m2!3d37.8295142!4d139.2242403!16s%2Fg%2F1tlkc6cs!19sChIJf7HvLYHR9F8R7kloSi2rn1U?authuser=0&hl=ja&rclk=1",
    "category": "幼稚園"
  },
  {
    "name": "認定こども園 帝京長岡幼稚園",
    "address": "\n〒940-0032 新潟県長岡市干場１丁目５−５",
    "latitude": 37.4527602,
    "longitude": 138.8625217,
    "link": "https://www.google.com/maps/place/%E8%AA%8D%E5%AE%9A%E3%81%93%E3%81%A9%E3%82%82%E5%9C%92+%E5%B8%9D%E4%BA%AC%E9%95%B7%E5%B2%A1%E5%B9%BC%E7%A8%9A%E5%9C%92/data=!4m7!3m6!1s0x5ff5a84af16dea47:0x1b291c1e9100efe7!8m2!3d37.4527602!4d138.8625217!16s%2Fg%2F1tfnsvr1!19sChIJR-pt8Uqo9V8R5-8AkR4cKRs?authuser=0&hl=ja&rclk=1",
    "category": "幼稚園"
  },
  {
    "name": "ゆたか幼稚園",
    "address": "\n〒950-3307 新潟県新潟市北区樋ノ入１１４０−１",
    "latitude": 37.942112,
    "longitude": 139.180349,
    "link": "https://www.google.com/maps/place/%E3%82%86%E3%81%9F%E3%81%8B%E5%B9%BC%E7%A8%9A%E5%9C%92/data=!4m7!3m6!1s0x5f8b34cc3a0436cd:0xb716048de43777d9!8m2!3d37.942112!4d139.180349!16s%2Fg%2F1vcl3l7s!19sChIJzTYEOsw0i18R2Xc35I0EFrc?authuser=0&hl=ja&rclk=1",
    "category": "幼稚園"
  },
  {
    "name": "みどり学園 めぐみ幼稚園",
    "address": "\n〒946-0076 新潟県魚沼市井口新田３６０",
    "latitude": 37.2327189,
    "longitude": 138.961836,
    "link": "https://www.google.com/maps/place/%E3%81%BF%E3%81%A9%E3%82%8A%E5%AD%A6%E5%9C%92+%E3%82%81%E3%81%90%E3%81%BF%E5%B9%BC%E7%A8%9A%E5%9C%92/data=!4m7!3m6!1s0x5ff590c566a88493:0xfc2ac9bf194730fc!8m2!3d37.2327189!4d138.961836!16s%2Fg%2F1tvtb5qs!19sChIJk4SoZsWQ9V8R_DBHGb_JKvw?authuser=0&hl=ja&rclk=1",
    "category": "幼稚園"
  },
  {
    "name": "いずみ学園 いずみ幼稚園",
    "address": "\n〒943-0841 新潟県上越市南本町３丁目９−１３",
    "latitude": 37.0992607,
    "longitude": 138.244453,
    "link": "https://www.google.com/maps/place/%E3%81%84%E3%81%9A%E3%81%BF%E5%AD%A6%E5%9C%92+%E3%81%84%E3%81%9A%E3%81%BF%E5%B9%BC%E7%A8%9A%E5%9C%92/data=!4m7!3m6!1s0x5ff6714a0a6b261f:0x675a34eadba0eaf6!8m2!3d37.0992607!4d138.244453!16s%2Fg%2F1v8y3wnm!19sChIJHyZrCkpx9l8R9uqg2-o0Wmc?authuser=0&hl=ja&rclk=1",
    "category": "幼稚園"
  },
  {
    "name": "認定こども園Ａｋｉｈａ森のようちえん",
    "address": "\n〒956-0836 新潟県新潟市秋葉区田家３丁目１７−８０−２５",
    "latitude": 37.7831289,
    "longitude": 139.1353475,
    "link": "https://www.google.com/maps/place/%E8%AA%8D%E5%AE%9A%E3%81%93%E3%81%A9%E3%82%82%E5%9C%92%EF%BC%A1%EF%BD%8B%EF%BD%89%EF%BD%88%EF%BD%81%E6%A3%AE%E3%81%AE%E3%82%88%E3%81%86%E3%81%A1%E3%81%88%E3%82%93/data=!4m7!3m6!1s0x5ff4da606976adc1:0xaa2a17445c3758e2!8m2!3d37.7831289!4d139.1353475!16s%2Fg%2F11jmc2zsl8!19sChIJwa12aWDa9F8R4lg3XEQXKqo?authuser=0&hl=ja&rclk=1",
    "category": "幼稚園"
  },
  {
    "name": "（学）たちばな認定こども園 (春日)",
    "address": "\n〒943-0807 新潟県上越市春日山町３丁目１−３９ 上越学園たちばな春日幼稚園",
    "latitude": 37.14725,
    "longitude": 138.232667,
    "link": "https://www.google.com/maps/place/%EF%BC%88%E5%AD%A6%EF%BC%89%E3%81%9F%E3%81%A1%E3%81%B0%E3%81%AA%E8%AA%8D%E5%AE%9A%E3%81%93%E3%81%A9%E3%82%82%E5%9C%92+%28%E6%98%A5%E6%97%A5%29/data=!4m7!3m6!1s0x5ff6777f017163c3:0x8c278826bcebd787!8m2!3d37.14725!4d138.232667!16s%2Fg%2F1tf5dlgn!19sChIJw2NxAX939l8Rh9frvCaIJ4w?authuser=0&hl=ja&rclk=1",
    "category": "幼稚園"
  },
  {
    "name": "加茂葵幼稚園",
    "address": "\n〒959-1373 新潟県加茂市松坂町６−３",
    "latitude": 37.6572168,
    "longitude": 139.0517542,
    "link": "https://www.google.com/maps/place/%E5%8A%A0%E8%8C%82%E8%91%B5%E5%B9%BC%E7%A8%9A%E5%9C%92/data=!4m7!3m6!1s0x5ff4e0374c2ffd57:0x58b478d549a4cd1b!8m2!3d37.6572168!4d139.0517542!16s%2Fg%2F1thd1n49!19sChIJV_0vTDfg9F8RG82kSdV4tFg?authuser=0&hl=ja&rclk=1",
    "category": "幼稚園"
  },
  {
    "name": "幼保連携型こやす認定こども園",
    "address": "\n〒950-0073 新潟県新潟市中央区日の出１丁目１４−２３",
    "latitude": 37.9192363,
    "longitude": 139.0725003,
    "link": "https://www.google.com/maps/place/%E5%B9%BC%E4%BF%9D%E9%80%A3%E6%90%BA%E5%9E%8B%E3%81%93%E3%82%84%E3%81%99%E8%AA%8D%E5%AE%9A%E3%81%93%E3%81%A9%E3%82%82%E5%9C%92/data=!4m7!3m6!1s0x5ff4ca27c730e9dd:0x12458ae42da479b9!8m2!3d37.9192363!4d139.0725003!16s%2Fg%2F1tcy445s!19sChIJ3ekwxyfK9F8RuXmkLeSKRRI?authuser=0&hl=ja&rclk=1",
    "category": "幼稚園"
  },
  {
    "name": "新潟認定こども園",
    "address": "\n〒951-8133 新潟県新潟市中央区川岸町３丁目",
    "latitude": 37.9094096,
    "longitude": 139.0259528,
    "link": "https://www.google.com/maps/place/%E6%96%B0%E6%BD%9F%E8%AA%8D%E5%AE%9A%E3%81%93%E3%81%A9%E3%82%82%E5%9C%92/data=!4m7!3m6!1s0x5ff4c9c92daa38b7:0x23374c1847fb75e2!8m2!3d37.9094096!4d139.0259528!16s%2Fg%2F1tgdnd7n!19sChIJtziqLcnJ9F8R4nX7RxhMNyM?authuser=0&hl=ja&rclk=1",
    "category": "幼稚園"
  },
  {
    "name": "(学)認定こども園 長岡和光幼稚園なごみ保育園",
    "address": "\n〒940-0053 新潟県長岡市長町２丁目５５０−１",
    "latitude": 37.4586227,
    "longitude": 138.8564916,
    "link": "https://www.google.com/maps/place/%28%E5%AD%A6%29%E8%AA%8D%E5%AE%9A%E3%81%93%E3%81%A9%E3%82%82%E5%9C%92+%E9%95%B7%E5%B2%A1%E5%92%8C%E5%85%89%E5%B9%BC%E7%A8%9A%E5%9C%92%E3%81%AA%E3%81%94%E3%81%BF%E4%BF%9D%E8%82%B2%E5%9C%92/data=!4m7!3m6!1s0x5ff5a9c834faf77b:0x9cc8527111e528de!8m2!3d37.4586227!4d138.8564916!16s%2Fg%2F1ttpgr5n!19sChIJe_f6NMip9V8R3ijlEXFSyJw?authuser=0&hl=ja&rclk=1",
    "category": "幼稚園"
  },
  {
    "name": "小鳩幼稚園",
    "address": "\n〒945-0051 新潟県柏崎市東本町２丁目４−５",
    "latitude": 37.369131,
    "longitude": 138.558586,
    "link": "https://www.google.com/maps/place/%E5%B0%8F%E9%B3%A9%E5%B9%BC%E7%A8%9A%E5%9C%92/data=!4m7!3m6!1s0x5ff5b42dd707570f:0xa80e3398d628e873!8m2!3d37.369131!4d138.558586!16s%2Fg%2F1tcxd10l!19sChIJD1cH1y209V8Rc-go1pgzDqg?authuser=0&hl=ja&rclk=1",
    "category": "幼稚園"
  },
  {
    "name": "愛宕幼稚園",
    "address": "\n〒948-0013 新潟県十日町市川原町８５３−６",
    "latitude": 37.1331761,
    "longitude": 138.7649946,
    "link": "https://www.google.com/maps/place/%E6%84%9B%E5%AE%95%E5%B9%BC%E7%A8%9A%E5%9C%92/data=!4m7!3m6!1s0x5ff5ee9d41907d95:0x3e55afb7b91683fb!8m2!3d37.1331761!4d138.7649946!16s%2Fg%2F1xgzbmmr!19sChIJlX2QQZ3u9V8R-4MWubevVT4?authuser=0&hl=ja&rclk=1",
    "category": "幼稚園"
  },
  {
    "name": "聖公会 聖上智オリーブこども園",
    "address": "\n〒942-0061 新潟県上越市春日新田２丁目９−７ 聖公会学園聖上智オリーブこども園",
    "latitude": 37.171768,
    "longitude": 138.259271,
    "link": "https://www.google.com/maps/place/%E8%81%96%E5%85%AC%E4%BC%9A+%E8%81%96%E4%B8%8A%E6%99%BA%E3%82%AA%E3%83%AA%E3%83%BC%E3%83%96%E3%81%93%E3%81%A9%E3%82%82%E5%9C%92/data=!4m7!3m6!1s0x5ff6780858620a59:0x2cb9774840acf19a!8m2!3d37.171768!4d138.259271!16s%2Fg%2F1td_yfr_!19sChIJWQpiWAh49l8RmvGsQEh3uSw?authuser=0&hl=ja&rclk=1",
    "category": "幼稚園"
  },
  {
    "name": "新潟保育園",
    "address": "\n〒954-0006 新潟県見附市新潟町２６２０",
    "latitude": 37.549435,
    "longitude": 138.918043,
    "link": "https://www.google.com/maps/place/%E6%96%B0%E6%BD%9F%E4%BF%9D%E8%82%B2%E5%9C%92/data=!4m7!3m6!1s0x5ff503b33d5d0705:0x1eb5e17030d3292d!8m2!3d37.549435!4d138.918043!16s%2Fg%2F1tjwhllt!19sChIJBQddPbMD9V8RLSnTMHDhtR4?authuser=0&hl=ja&rclk=1",
    "category": "幼稚園"
  },
  {
    "name": "幼稚園型認定こども園早通みずほ幼稚園",
    "address": "\n〒950-3372 新潟県新潟市北区早通７８",
    "latitude": 37.922179,
    "longitude": 139.177009,
    "link": "https://www.google.com/maps/place/%E5%B9%BC%E7%A8%9A%E5%9C%92%E5%9E%8B%E8%AA%8D%E5%AE%9A%E3%81%93%E3%81%A9%E3%82%82%E5%9C%92%E6%97%A9%E9%80%9A%E3%81%BF%E3%81%9A%E3%81%BB%E5%B9%BC%E7%A8%9A%E5%9C%92/data=!4m7!3m6!1s0x5ff4cb5db2ce0f3d:0x3f068629e35d2681!8m2!3d37.922179!4d139.177009!16s%2Fg%2F1tg5082r!19sChIJPQ_Osl3L9F8RgSZd4ymGBj8?authuser=0&hl=ja&rclk=1",
    "category": "幼稚園"
  },
  {
    "name": "認定こども園 第一幼稚園",
    "address": "\n〒940-2105 新潟県長岡市緑町１丁目３８−３６３ ジュニアスクール認定こども園鵬第一幼稚園",
    "latitude": 37.44905,
    "longitude": 138.823816,
    "link": "https://www.google.com/maps/place/%E8%AA%8D%E5%AE%9A%E3%81%93%E3%81%A9%E3%82%82%E5%9C%92+%E7%AC%AC%E4%B8%80%E5%B9%BC%E7%A8%9A%E5%9C%92/data=!4m7!3m6!1s0x5ff5a90f1cbd5b6b:0x12ad665625b561ef!8m2!3d37.44905!4d138.823816!16s%2Fg%2F1tgx6f_k!19sChIJa1u9HA-p9V8R72G1JVZmrRI?authuser=0&hl=ja&rclk=1",
    "category": "幼稚園"
  },
  {
    "name": "白鳥こども園",
    "address": "\n〒950-0945 新潟県新潟市中央区女池上山２丁目６−１８",
    "latitude": 37.891029,
    "longitude": 139.0294836,
    "link": "https://www.google.com/maps/place/%E7%99%BD%E9%B3%A5%E3%81%93%E3%81%A9%E3%82%82%E5%9C%92/data=!4m7!3m6!1s0x5ff4c8f7c2747725:0x9cf433a2f2d38!8m2!3d37.891029!4d139.0294836!16s%2Fg%2F11fl138531!19sChIJJXd0wvfI9F8ROC0vOkPPCQA?authuser=0&hl=ja&rclk=1",
    "category": "幼稚園"
  },
  {
    "name": "小須戸幼稚園",
    "address": "\n〒956-0121 新潟県新潟市秋葉区横川浜５２７−１ 新潟市立小須戸幼稚園",
    "latitude": 37.753262,
    "longitude": 139.076575,
    "link": "https://www.google.com/maps/place/%E5%B0%8F%E9%A0%88%E6%88%B8%E5%B9%BC%E7%A8%9A%E5%9C%92/data=!4m7!3m6!1s0x5ff4dc77c1da8dbd:0x9c6dcd65cd9b703d!8m2!3d37.753262!4d139.076575!16s%2Fg%2F1216frqw!19sChIJvY3awXfc9F8RPXCbzWXNbZw?authuser=0&hl=ja&rclk=1",
    "category": "幼稚園"
  },
  {
    "name": "田上いずみルーテル幼稚園",
    "address": "\n〒959-1502 新潟県南蒲原郡田上町田上２８２１−２",
    "latitude": 37.7185385,
    "longitude": 139.0795054,
    "link": "https://www.google.com/maps/place/%E7%94%B0%E4%B8%8A%E3%81%84%E3%81%9A%E3%81%BF%E3%83%AB%E3%83%BC%E3%83%86%E3%83%AB%E5%B9%BC%E7%A8%9A%E5%9C%92/data=!4m7!3m6!1s0x5ff4de8f5c332f69:0xa36192191cc7cfb5!8m2!3d37.7185385!4d139.0795054!16s%2Fg%2F1tcwqzy1!19sChIJaS8zXI_e9F8Rtc_HHBmSYaM?authuser=0&hl=ja&rclk=1",
    "category": "幼稚園"
  },
  {
    "name": "幼保連携型認定こども園しょうとくこども園",
    "address": "\n〒950-0016 新潟県新潟市東区河渡本町１５−１６ 社会福祉法人青鸞会 幼保連携型認定こども園 しょうとくこども園",
    "latitude": 37.9349248,
    "longitude": 139.1040298,
    "link": "https://www.google.com/maps/place/%E5%B9%BC%E4%BF%9D%E9%80%A3%E6%90%BA%E5%9E%8B%E8%AA%8D%E5%AE%9A%E3%81%93%E3%81%A9%E3%82%82%E5%9C%92%E3%81%97%E3%82%87%E3%81%86%E3%81%A8%E3%81%8F%E3%81%93%E3%81%A9%E3%82%82%E5%9C%92/data=!4m7!3m6!1s0x5ff4ca5be7505f29:0x11cc1b232e88ea6f!8m2!3d37.9349248!4d139.1040298!16s%2Fg%2F1tj967xk!19sChIJKV9Q51vK9F8Rb-qILiMbzBE?authuser=0&hl=ja&rclk=1",
    "category": "幼稚園"
  },
  {
    "name": "聖心こども園",
    "address": "\n〒959-2646 新潟県胎内市西栄町９−４６",
    "latitude": 38.05095,
    "longitude": 139.401443,
    "link": "https://www.google.com/maps/place/%E8%81%96%E5%BF%83%E3%81%93%E3%81%A9%E3%82%82%E5%9C%92/data=!4m7!3m6!1s0x5f8b38d6b2582bf1:0x814850ae9445a1c!8m2!3d38.05095!4d139.401443!16s%2Fg%2F1v3kmw_0!19sChIJ8StYstY4i18RHFpE6QqFFAg?authuser=0&hl=ja&rclk=1",
    "category": "幼稚園"
  },
  {
    "name": "くろじょうこども園",
    "address": "\n〒940-0007 新潟県長岡市黒津町３７７",
    "latitude": 37.4985062,
    "longitude": 138.8588513,
    "link": "https://www.google.com/maps/place/%E3%81%8F%E3%82%8D%E3%81%98%E3%82%87%E3%81%86%E3%81%93%E3%81%A9%E3%82%82%E5%9C%92/data=!4m7!3m6!1s0x5ff500c63196492f:0x5d1706680034c16a!8m2!3d37.4985062!4d138.8588513!16s%2Fg%2F1tj1mc1t!19sChIJL0mWMcYA9V8RasE0AGgGF10?authuser=0&hl=ja&rclk=1",
    "category": "幼稚園"
  },
  {
    "name": "五泉いずみこども園",
    "address": "\n〒959-1863 新潟県五泉市東本町２丁目８−４１",
    "latitude": 37.7408559,
    "longitude": 139.1823526,
    "link": "https://www.google.com/maps/place/%E4%BA%94%E6%B3%89%E3%81%84%E3%81%9A%E3%81%BF%E3%81%93%E3%81%A9%E3%82%82%E5%9C%92/data=!4m7!3m6!1s0x5ff4d9aedabd25ad:0x9c36f73353d311f4!8m2!3d37.7408559!4d139.1823526!16s%2Fg%2F1tplq4q_!19sChIJrSW92q7Z9F8R9BHTUzP3Npw?authuser=0&hl=ja&rclk=1",
    "category": "幼稚園"
  },
  {
    "name": "こども園未来へ",
    "address": "\n〒950-0921 新潟県新潟市中央区京王１丁目７−１３",
    "latitude": 37.8927654,
    "longitude": 139.0751514,
    "link": "https://www.google.com/maps/place/%E3%81%93%E3%81%A9%E3%82%82%E5%9C%92%E6%9C%AA%E6%9D%A5%E3%81%B8/data=!4m7!3m6!1s0x5ff4c91597eac35f:0xd87fa5a5c1841757!8m2!3d37.8927654!4d139.0751514!16s%2Fg%2F1tpn2djj!19sChIJX8PqlxXJ9F8RVxeEwaWlf9g?authuser=0&hl=ja&rclk=1",
    "category": "幼稚園"
  },
  {
    "name": "認定こども園つくし幼稚園",
    "address": "\n〒947-0027 新潟県小千谷市平成１丁目５−２０",
    "latitude": 37.309391,
    "longitude": 138.7939253,
    "link": "https://www.google.com/maps/place/%E8%AA%8D%E5%AE%9A%E3%81%93%E3%81%A9%E3%82%82%E5%9C%92%E3%81%A4%E3%81%8F%E3%81%97%E5%B9%BC%E7%A8%9A%E5%9C%92/data=!4m7!3m6!1s0x5ff5bc7c80e41ccd:0xadb51b5ef653e141!8m2!3d37.309391!4d138.7939253!16s%2Fg%2F1tywxt4y!19sChIJzRzkgHy89V8RQeFT9l4bta0?authuser=0&hl=ja&rclk=1",
    "category": "幼稚園"
  },
  {
    "name": "恵光保育園",
    "address": "\n〒950-0941 新潟県新潟市中央区女池３丁目４３−１１ 恵光学園認定こども園恵光学園第２幼稚園恵光保育園",
    "latitude": 37.8975361,
    "longitude": 139.0427917,
    "link": "https://www.google.com/maps/place/%E6%81%B5%E5%85%89%E4%BF%9D%E8%82%B2%E5%9C%92/data=!4m7!3m6!1s0x5ff4c9aa6a91c54d:0x55c5e75c6eff1dbf!8m2!3d37.8975361!4d139.0427917!16s%2Fg%2F11b5pjzzkn!19sChIJTcWRaqrJ9F8Rvx3_blznxVU?authuser=0&hl=ja&rclk=1",
    "category": "幼稚園"
  },
  {
    "name": "こどものいえこども園",
    "address": "\n〒950-0952 新潟県新潟市中央区親松１０１−１ こどものいえ保育園",
    "latitude": 37.8799504,
    "longitude": 139.0288415,
    "link": "https://www.google.com/maps/place/%E3%81%93%E3%81%A9%E3%82%82%E3%81%AE%E3%81%84%E3%81%88%E3%81%93%E3%81%A9%E3%82%82%E5%9C%92/data=!4m7!3m6!1s0x5ff4c892e94ec821:0x7d7390a69f02b1c4!8m2!3d37.8799504!4d139.0288415!16s%2Fg%2F1tgvdgq8!19sChIJIchO6ZLI9F8RxLECn6aQc30?authuser=0&hl=ja&rclk=1",
    "category": "こども園"
  },
  {
    "name": "新潟認定こども園",
    "address": "\n〒951-8133 新潟県新潟市中央区川岸町３丁目",
    "latitude": 37.9094096,
    "longitude": 139.0259528,
    "link": "https://www.google.com/maps/place/%E6%96%B0%E6%BD%9F%E8%AA%8D%E5%AE%9A%E3%81%93%E3%81%A9%E3%82%82%E5%9C%92/data=!4m7!3m6!1s0x5ff4c9c92daa38b7:0x23374c1847fb75e2!8m2!3d37.9094096!4d139.0259528!16s%2Fg%2F1tgdnd7n!19sChIJtziqLcnJ9F8R4nX7RxhMNyM?authuser=0&hl=ja&rclk=1",
    "category": "こども園"
  },
  {
    "name": "割野こども園",
    "address": "\n〒950-0321 新潟県新潟市江南区割野２０９２−３ 同朋福祉協会割野保育園",
    "latitude": 37.8398807,
    "longitude": 139.0910288,
    "link": "https://www.google.com/maps/place/%E5%89%B2%E9%87%8E%E3%81%93%E3%81%A9%E3%82%82%E5%9C%92/data=!4m7!3m6!1s0x5ff4cf9c44ac22cf:0x77e803664cb22b86!8m2!3d37.8398807!4d139.0910288!16s%2Fg%2F1v6qhgck!19sChIJzyKsRJzP9F8RhiuyTGYD6Hc?authuser=0&hl=ja&rclk=1",
    "category": "こども園"
  },
  {
    "name": "愛泉こども園",
    "address": "\n〒950-0994 新潟県新潟市中央区上所３丁目１４−１",
    "latitude": 37.9046558,
    "longitude": 139.0417976,
    "link": "https://www.google.com/maps/place/%E6%84%9B%E6%B3%89%E3%81%93%E3%81%A9%E3%82%82%E5%9C%92/data=!4m7!3m6!1s0x5ff4c9b047658a11:0xee97d1a12e6520ef!8m2!3d37.9046558!4d139.0417976!16s%2Fg%2F1thw1_cl!19sChIJEYplR7DJ9F8R7yBlLqHRl-4?authuser=0&hl=ja&rclk=1",
    "category": "こども園"
  },
  {
    "name": "幼保連携型うまこしこやす認定こども園",
    "address": "\n〒950-0865 新潟県新潟市中央区本馬越２丁目９−１４",
    "latitude": 37.91113,
    "longitude": 139.0749925,
    "link": "https://www.google.com/maps/place/%E5%B9%BC%E4%BF%9D%E9%80%A3%E6%90%BA%E5%9E%8B%E3%81%86%E3%81%BE%E3%81%93%E3%81%97%E3%81%93%E3%82%84%E3%81%99%E8%AA%8D%E5%AE%9A%E3%81%93%E3%81%A9%E3%82%82%E5%9C%92/data=!4m7!3m6!1s0x5ff4c9821ff08b6b:0xd5e6b2486aab508c!8m2!3d37.91113!4d139.0749925!16s%2Fg%2F1tcwftsg!19sChIJa4vwH4LJ9F8RjFCrakiy5tU?authuser=0&hl=ja&rclk=1",
    "category": "こども園"
  },
  {
    "name": "中道山こども園",
    "address": "\n〒950-0022 新潟県新潟市東区幸栄２丁目18番8号",
    "latitude": 37.9463587,
    "longitude": 139.1024678,
    "link": "https://www.google.com/maps/place/%E4%B8%AD%E9%81%93%E5%B1%B1%E3%81%93%E3%81%A9%E3%82%82%E5%9C%92/data=!4m7!3m6!1s0x5ff4ca8ed2be7b0b:0xf4d59949dad95d63!8m2!3d37.9463587!4d139.1024678!16s%2Fg%2F1tdfbyz6!19sChIJC3u-0o7K9F8RY13Z2kmZ1fQ?authuser=0&hl=ja&rclk=1",
    "category": "こども園"
  },
  {
    "name": "幼保連携型こやす認定こども園",
    "address": "\n〒950-0073 新潟県新潟市中央区日の出１丁目１４−２３",
    "latitude": 37.9192363,
    "longitude": 139.0725003,
    "link": "https://www.google.com/maps/place/%E5%B9%BC%E4%BF%9D%E9%80%A3%E6%90%BA%E5%9E%8B%E3%81%93%E3%82%84%E3%81%99%E8%AA%8D%E5%AE%9A%E3%81%93%E3%81%A9%E3%82%82%E5%9C%92/data=!4m7!3m6!1s0x5ff4ca27c730e9dd:0x12458ae42da479b9!8m2!3d37.9192363!4d139.0725003!16s%2Fg%2F1tcy445s!19sChIJ3ekwxyfK9F8RuXmkLeSKRRI?authuser=0&hl=ja&rclk=1",
    "category": "こども園"
  },
  {
    "name": "明美ケ丘こども園",
    "address": "\n〒950-2045 新潟県新潟市西区五十嵐東１丁目１６−３３",
    "latitude": 37.8756986,
    "longitude": 138.9574073,
    "link": "https://www.google.com/maps/place/%E6%98%8E%E7%BE%8E%E3%82%B1%E4%B8%98%E3%81%93%E3%81%A9%E3%82%82%E5%9C%92/data=!4m7!3m6!1s0x5ff4c7bc2153c521:0x5e55ed0a85460852!8m2!3d37.8756986!4d138.9574073!16s%2Fg%2F1tht18wd!19sChIJIcVTIbzH9F8RUghGhQrtVV4?authuser=0&hl=ja&rclk=1",
    "category": "こども園"
  },
  {
    "name": "おぎかわこども園",
    "address": "\n〒956-0805 新潟県新潟市秋葉区中野３丁目２０−７",
    "latitude": 37.835874,
    "longitude": 139.1125763,
    "link": "https://www.google.com/maps/place/%E3%81%8A%E3%81%8E%E3%81%8B%E3%82%8F%E3%81%93%E3%81%A9%E3%82%82%E5%9C%92/data=!4m7!3m6!1s0x5ff4cfbfcaf81e8f:0xfdf4eba4cec0248e!8m2!3d37.835874!4d139.1125763!16s%2Fg%2F1tk8bz5c!19sChIJjx74yr_P9F8RjiTAzqTr9P0?authuser=0&hl=ja&rclk=1",
    "category": "こども園"
  },
  {
    "name": "あがのこども園",
    "address": "\n〒950-3123 新潟県新潟市北区新元島町３９５３−３",
    "latitude": 37.9452099,
    "longitude": 139.1475013,
    "link": "https://www.google.com/maps/place/%E3%81%82%E3%81%8C%E3%81%AE%E3%81%93%E3%81%A9%E3%82%82%E5%9C%92/data=!4m7!3m6!1s0x5ff4cada1f1b419f:0xfbd2cafa64a7d18f!8m2!3d37.9452099!4d139.1475013!16s%2Fg%2F1thkrjv3!19sChIJn0EbH9rK9F8Rj9GnZPrK0vs?authuser=0&hl=ja&rclk=1",
    "category": "こども園"
  },
  {
    "name": "新潟青陵学園 認定こども園新潟青陵こども園",
    "address": "\n〒951-8121 新潟県新潟市中央区水道町１丁目５９３９",
    "latitude": 37.920978,
    "longitude": 139.0263802,
    "link": "https://www.google.com/maps/place/%E6%96%B0%E6%BD%9F%E9%9D%92%E9%99%B5%E5%AD%A6%E5%9C%92+%E8%AA%8D%E5%AE%9A%E3%81%93%E3%81%A9%E3%82%82%E5%9C%92%E6%96%B0%E6%BD%9F%E9%9D%92%E9%99%B5%E3%81%93%E3%81%A9%E3%82%82%E5%9C%92/data=!4m7!3m6!1s0x5ff4c9dd9916bc37:0xf490da3926012a20!8m2!3d37.920978!4d139.0263802!16s%2Fg%2F1tzgp1ds!19sChIJN7wWmd3J9F8RICoBJjnakPQ?authuser=0&hl=ja&rclk=1",
    "category": "こども園"
  },
  {
    "name": "新通こども園",
    "address": "\n〒951-8121 新潟県新潟市中央区水道町１丁目５９３９",
    "latitude": 37.858912,
    "longitude": 138.9526549,
    "link": "https://www.google.com/maps/place/%E6%96%B0%E9%80%9A%E3%81%93%E3%81%A9%E3%82%82%E5%9C%92/data=!4m7!3m6!1s0x5ff4c701fa3cbf9f:0xfdadbd80d2f359d9!8m2!3d37.858912!4d138.9526549!16s%2Fg%2F1th1tx3k!19sChIJn788-gHH9F8R2Vnz0oC9rf0?authuser=0&hl=ja&rclk=1",
    "category": "こども園"
  },
  {
    "name": "おむすびこども園",
    "address": "\n〒950-0863 新潟県新潟市東区卸新町２丁目８４８−４９",
    "latitude": 37.9073114,
    "longitude": 139.0920631,
    "link": "https://www.google.com/maps/place/%E3%81%8A%E3%82%80%E3%81%99%E3%81%B3%E3%81%93%E3%81%A9%E3%82%82%E5%9C%92/data=!4m7!3m6!1s0x5ff4cbd810111f09:0x7642908a6e81965f!8m2!3d37.9073114!4d139.0920631!16s%2Fg%2F11c7sr6h68!19sChIJCR8RENjL9F8RX5aBboqQQnY?authuser=0&hl=ja&rclk=1",
    "category": "こども園"
  },
  {
    "name": "新潟えきなかこども園",
    "address": "\n〒950-0863 新潟県新潟市東区卸新町２丁目８４８−４９",
    "latitude": 37.9124744,
    "longitude": 139.0637916,
    "link": "https://www.google.com/maps/place/%E6%96%B0%E6%BD%9F%E3%81%88%E3%81%8D%E3%81%AA%E3%81%8B%E3%81%93%E3%81%A9%E3%82%82%E5%9C%92/data=!4m7!3m6!1s0x5ff4c99ad3c1eeeb:0x6700363a36c7ae18!8m2!3d37.9124744!4d139.0637916!16s%2Fg%2F1tp0dhxd!19sChIJ6-7B05rJ9F8RGK7HNjo2AGc?authuser=0&hl=ja&rclk=1",
    "category": "こども園"
  },
  {
    "name": "認定こども園あそびの森金鵄幼稚園",
    "address": "\n〒950-2012 新潟県新潟市西区小針台１−４",
    "latitude": 37.8911227,
    "longitude": 138.9897651,
    "link": "https://www.google.com/maps/place/%E8%AA%8D%E5%AE%9A%E3%81%93%E3%81%A9%E3%82%82%E5%9C%92%E3%81%82%E3%81%9D%E3%81%B3%E3%81%AE%E6%A3%AE%E9%87%91%E9%B5%84%E5%B9%BC%E7%A8%9A%E5%9C%92/data=!4m7!3m6!1s0x5ff4c872e40d14b9:0x4b03847e3dbbe233!8m2!3d37.8911227!4d138.9897651!16s%2Fg%2F1ttq1yxx!19sChIJuRQN5HLI9F8RM-K7PX6EA0s?authuser=0&hl=ja&rclk=1",
    "category": "こども園"
  },
  {
    "name": "恵泉こども園",
    "address": "\n〒950-0027 新潟県新潟市東区松和町１６−５",
    "latitude": 37.9397739,
    "longitude": 139.0990739,
    "link": "https://www.google.com/maps/place/%E6%81%B5%E6%B3%89%E3%81%93%E3%81%A9%E3%82%82%E5%9C%92/data=!4m7!3m6!1s0x5ff4ca60c74f3879:0x3a2abae1120a8871!8m2!3d37.9397739!4d139.0990739!16s%2Fg%2F1tdhdvmk!19sChIJeThPx2DK9F8RcYgKEuG6Kjo?authuser=0&hl=ja&rclk=1",
    "category": "こども園"
  },
  {
    "name": "笹口こども園",
    "address": "\n〒950-0912 新潟県新潟市中央区南笹口１丁目８−５７ 公和会笹口保育園",
    "latitude": 37.9085254,
    "longitude": 139.0659018,
    "link": "https://www.google.com/maps/place/%E7%AC%B9%E5%8F%A3%E3%81%93%E3%81%A9%E3%82%82%E5%9C%92/data=!4m7!3m6!1s0x5ff4c99c54d8b49b:0x661ea391c841372f!8m2!3d37.9085254!4d139.0659018!16s%2Fg%2F1wnbxw3y!19sChIJm7TYVJzJ9F8RLzdByJGjHmY?authuser=0&hl=ja&rclk=1",
    "category": "こども園"
  },
  {
    "name": "はるまちこども園",
    "address": "\n〒950-0950 新潟県新潟市中央区鳥屋野南３丁目１０−１",
    "latitude": 37.8847048,
    "longitude": 139.028438,
    "link": "https://www.google.com/maps/place/%E3%81%AF%E3%82%8B%E3%81%BE%E3%81%A1%E3%81%93%E3%81%A9%E3%82%82%E5%9C%92/data=!4m7!3m6!1s0x5ff4c8f3a21dedbb:0x5f04dcd6bf96d6c2!8m2!3d37.8847048!4d139.028438!16s%2Fg%2F11g69y5jhj!19sChIJu-0dovPI9F8RwtaWv9bcBF8?authuser=0&hl=ja&rclk=1",
    "category": "こども園"
  },
  {
    "name": "こばとこども園",
    "address": "\n〒950-0943 新潟県新潟市中央区女池神明２丁目６−１ 三和会こばと保育園",
    "latitude": 37.889121,
    "longitude": 139.0345409,
    "link": "https://www.google.com/maps/place/%E3%81%93%E3%81%B0%E3%81%A8%E3%81%93%E3%81%A9%E3%82%82%E5%9C%92/data=!4m7!3m6!1s0x5ff4c8f9ef1f9b39:0xf549f7a7f1102922!8m2!3d37.889121!4d139.0345409!16s%2Fg%2F1vpfjczm!19sChIJOZsf7_nI9F8RIikQ8af3SfU?authuser=0&hl=ja&rclk=1",
    "category": "こども園"
  },
  {
    "name": "ここの実こども園",
    "address": "\n〒950-0943 新潟県新潟市中央区女池神明２丁目６−１ 三和会こばと保育園",
    "latitude": 37.8956853,
    "longitude": 139.0291933,
    "link": "https://www.google.com/maps/place/%E3%81%93%E3%81%93%E3%81%AE%E5%AE%9F%E3%81%93%E3%81%A9%E3%82%82%E5%9C%92/data=!4m7!3m6!1s0x5ff4c8515a980289:0x6d586139ea57f97!8m2!3d37.8956853!4d139.0291933!16s%2Fg%2F11b5pjss0w!19sChIJiQKYWlHI9F8Rl3-lnhOG1QY?authuser=0&hl=ja&rclk=1",
    "category": "こども園"
  },