[
  {
    "name": "水戸幼稚園",
    "address": "〒310-0034 茨城県水戸市緑町３丁目９−３６",
    "latitude": 36.383124,
    "longitude": 140.4438742,
    "link": "https://www.google.com/maps/place/%E6%B0%B4%E6%88%B8%E5%B9%BC%E7%A8%9A%E5%9C%92/data=!4m7!3m6!1s0x6022241175a08a51:0x60f62708ea6ebd4a!8m2!3d36.383124!4d140.4438742!16s%2Fg%2F1vxw8cgn!19sChIJUYqgdREkImARSr1u6ggn9mA?authuser=0&hl=ja&rclk=1",
    "category": "幼稚園"
  },
  {
    "name": "少友幼稚園",
    "address": "〒310-0024 茨城県水戸市備前町５−３６",
    "latitude": 36.3770029,
    "longitude": 140.4644073,
    "link": "https://www.google.com/maps/place/%E5%B0%91%E5%8F%8B%E5%B9%BC%E7%A8%9A%E5%9C%92/data=!4m7!3m6!1s0x6022244fd2af45b9:0x608e06a428341749!8m2!3d36.3770029!4d140.4644073!16s%2Fg%2F1ptwlvwcf!19sChIJuUWv0k8kImARSRc0KKQGjmA?authuser=0&hl=ja&rclk=1",
    "category": "幼稚園"
  },
  {
    "name": "渡里幼稚園",
    "address": "〒310-0903 茨城県水戸市堀町９５８−４ 学校法人 中山学院 渡里幼稚園",
    "latitude": 36.4030221,
    "longitude": 140.4317445,
    "link": "https://www.google.com/maps/place/%E6%B8%A1%E9%87%8C%E5%B9%BC%E7%A8%9A%E5%9C%92/data=!4m7!3m6!1s0x602226b33ca1b453:0x97369e3a085b523f!8m2!3d36.4030221!4d140.4317445!16s%2Fg%2F1tm1ql1r!19sChIJU7ShPLMmImARP1JbCDqeNpc?authuser=0&hl=ja&rclk=1",
    "category": "幼稚園"
  },
  {
    "name": "リリー幼稚園",
    "address": "〒311-4146 茨城県水戸市中丸町２０５２−１７",
    "latitude": 36.3859434,
    "longitude": 140.4095592,
    "link": "https://www.google.com/maps/place/%E3%83%AA%E3%83%AA%E3%83%BC%E5%B9%BC%E7%A8%9A%E5%9C%92/data=!4m7!3m6!1s0x60222160a33c2187:0xb6d079c433138694!8m2!3d36.3859434!4d140.4095592!16s%2Fg%2F1tf710z9!19sChIJhyE8o2AhImARlIYTM8R50LY?authuser=0&hl=ja&rclk=1",
    "category": "幼稚園"
  },
  {
    "name": "水戸英宏平須幼稚園",
    "address": "〒310-0853 茨城県水戸市平須町１８２０−１１６",
    "latitude": 36.3306619,
    "longitude": 140.4392328,
    "link": "https://www.google.com/maps/place/%E6%B0%B4%E6%88%B8%E8%8B%B1%E5%AE%8F%E5%B9%B3%E9%A0%88%E5%B9%BC%E7%A8%9A%E5%9C%92/data=!4m7!3m6!1s0x602224a571535b2b:0x75e17fcf240eb7b6!8m2!3d36.3306619!4d140.4392328!16s%2Fg%2F1tfmcbkt!19sChIJK1tTcaUkImARtrcOJM9_4XU?authuser=0&hl=ja&rclk=1",
    "category": "幼稚園"
  },
  {
    "name": "吉田幼稚園",
    "address": "〒310-0836 茨城県水戸市元吉田町１９７７−３４ 一里塚東１９７７−３４",
    "latitude": 36.3467097,
    "longitude": 140.4793688,
    "link": "https://www.google.com/maps/place/%E5%90%89%E7%94%B0%E5%B9%BC%E7%A8%9A%E5%9C%92/data=!4m7!3m6!1s0x602225271179a449:0xc2484f50914b181!8m2!3d36.3467097!4d140.4793688!16s%2Fg%2F1wcxd5z2!19sChIJSaR5ESclImARgbEUCfWEJAw?authuser=0&hl=ja&rclk=1",
    "category": "幼稚園"
  },
  {
    "name": "リリーの森幼稚園",
    "address": "〒319-0315 茨城県水戸市内原町１３９７−３",
    "latitude": 36.360718,
    "longitude": 140.357361,
    "link": "https://www.google.com/maps/place/%E3%83%AA%E3%83%AA%E3%83%BC%E3%81%AE%E6%A3%AE%E5%B9%BC%E7%A8%9A%E5%9C%92/data=!4m7!3m6!1s0x60222202be57a34b:0x61c8a6b0bf1cb112!8m2!3d36.360718!4d140.357361!16s%2Fg%2F1tcz_mwm!19sChIJS6NXvgIiImARErEcv7CmyGE?authuser=0&hl=ja&rclk=1",
    "category": "幼稚園"
  },
  {
    "name": "赤塚幼稚園",
    "address": "〒311-4141 茨城県水戸市赤塚１丁目１９９７",
    "latitude": 36.384766,
    "longitude": 140.416936,
    "link": "https://www.google.com/maps/place/%E8%B5%A4%E5%A1%9A%E5%B9%BC%E7%A8%9A%E5%9C%92/data=!4m7!3m6!1s0x602223e271d880bd:0x7d0e0f84953ab1b4!8m2!3d36.384766!4d140.416936!16s%2Fg%2F1xb2dpd6!19sChIJvYDYceIjImARtLE6lYQPDn0?authuser=0&hl=ja&rclk=1",
    "category": "幼稚園"
  },
  {
    "name": "あさひ幼稚園",
    "address": "〒310-0826 茨城県水戸市渋井町２５４",
    "latitude": 36.3594635,
    "longitude": 140.5106665,
    "link": "https://www.google.com/maps/place/%E3%81%82%E3%81%95%E3%81%B2%E5%B9%BC%E7%A8%9A%E5%9C%92/data=!4m7!3m6!1s0x60222559b3e41047:0xa2d1b89e61df7003!8m2!3d36.3594635!4d140.5106665!16s%2Fg%2F1td2zkq3!19sChIJRxDks1klImARA3DfYZ640aI?authuser=0&hl=ja&rclk=1",
    "category": "幼稚園"
  },
  {
    "name": "聖母幼稚園",
    "address": "〒310-0063 茨城県水戸市五軒町２丁目４−３２",
    "latitude": 36.3817059,
    "longitude": 140.4629165,
    "link": "https://www.google.com/maps/place/%E8%81%96%E6%AF%8D%E5%B9%BC%E7%A8%9A%E5%9C%92/data=!4m7!3m6!1s0x602224489595e899:0xc37e6081d5bda8b1!8m2!3d36.3817059!4d140.4629165!16s%2Fg%2F1pp2vfrkp!19sChIJmeiVlUgkImARsai91YFgfsM?authuser=0&hl=ja&rclk=1",
    "category": "幼稚園"
  },
  {
    "name": "大塚ひのまる幼稚園",
    "address": "〒311-4143 茨城県水戸市大塚町１５８３ 認定こども園 大塚ひのまる幼稚園",
    "latitude": 36.38686,
    "longitude": 140.395477,
    "link": "https://www.google.com/maps/place/%E5%A4%A7%E5%A1%9A%E3%81%B2%E3%81%AE%E3%81%BE%E3%82%8B%E5%B9%BC%E7%A8%9A%E5%9C%92/data=!4m7!3m6!1s0x60222170b908c4fb:0xdc4193f9ba7e0ab9!8m2!3d36.38686!4d140.395477!16s%2Fg%2F1tjl605g!19sChIJ-8QIuXAhImARuQp-uvmTQdw?authuser=0&hl=ja&rclk=1",
    "category": "幼稚園"
  },
  {
    "name": "常磐大学 幼稚園",
    "address": "〒310-0911 茨城県水戸市見和１丁目４２５",
    "latitude": 36.381751,
    "longitude": 140.441237,
    "link": "https://www.google.com/maps/place/%E5%B8%B8%E7%A3%90%E5%A4%A7%E5%AD%A6+%E5%B9%BC%E7%A8%9A%E5%9C%92/data=!4m7!3m6!1s0x60222411e27791c1:0xef82c0e324694e4!8m2!3d36.381751!4d140.441237!16s%2Fg%2F1vknph90!19sChIJwZF34hEkImAR5JRGMg4s-A4?authuser=0&hl=ja&rclk=1",
    "category": "幼稚園"
  },
  {
    "name": "愛恩幼稚園",
    "address": "〒310-0021 茨城県水戸市南町３丁目４−４４ 学校法人 愛恩幼稚園",
    "latitude": 36.3780172,
    "longitude": 140.4680894,
    "link": "https://www.google.com/maps/place/%E6%84%9B%E6%81%A9%E5%B9%BC%E7%A8%9A%E5%9C%92/data=!4m7!3m6!1s0x6022244df451e2e9:0x379245712aaf3140!8m2!3d36.3780172!4d140.4680894!16s%2Fg%2F1tg9hnw2!19sChIJ6eJR9E0kImARQDGvKnFFkjc?authuser=0&hl=ja&rclk=1",
    "category": "幼稚園"
  },
  {
    "name": "水戸市立常磐幼稚園",
    "address": "〒310-0044 茨城県水戸市西原１丁目３−６５",
    "latitude": 36.388145,
    "longitude": 140.444173,
    "link": "https://www.google.com/maps/place/%E6%B0%B4%E6%88%B8%E5%B8%82%E7%AB%8B%E5%B8%B8%E7%A3%90%E5%B9%BC%E7%A8%9A%E5%9C%92/data=!4m7!3m6!1s0x6022241a5c439c75:0xe1e2da591f1f9a05!8m2!3d36.388145!4d140.444173!16s%2Fg%2F1tjtjcwh!19sChIJdZxDXBokImARBZofH1na4uE?authuser=0&hl=ja&rclk=1",
    "category": "幼稚園"
  },
  {
    "name": "みどり幼稚園",
    "address": "〒310-0836 茨城県水戸市元吉田町２６４９−２",
    "latitude": 36.352388,
    "longitude": 140.487157,
    "link": "https://www.google.com/maps/place/%E3%81%BF%E3%81%A9%E3%82%8A%E5%B9%BC%E7%A8%9A%E5%9C%92/data=!4m7!3m6!1s0x6022253be60c0207:0x5e615a349d75a023!8m2!3d36.352388!4d140.487157!16s%2Fg%2F1tdg7xkj!19sChIJBwIM5jslImARI6B1nTRaYV4?authuser=0&hl=ja&rclk=1",
    "category": "幼稚園"
  },
  {
    "name": "水戸英宏愛宕幼稚園",
    "address": "〒310-0054 茨城県水戸市愛宕町１０−５ 愛宕幼稚園",
    "latitude": 36.3958354,
    "longitude": 140.4516803,
    "link": "https://www.google.com/maps/place/%E6%B0%B4%E6%88%B8%E8%8B%B1%E5%AE%8F%E6%84%9B%E5%AE%95%E5%B9%BC%E7%A8%9A%E5%9C%92/data=!4m7!3m6!1s0x60222421d923cafd:0x5b954e7a0e6c57!8m2!3d36.3958354!4d140.4516803!16s%2Fg%2F1tjwhv_t!19sChIJ_coj2SEkImARV2wOek6VWwA?authuser=0&hl=ja&rclk=1",
    "category": "幼稚園"
  },
  {
    "name": "水戸市立石川幼稚園",
    "address": "〒310-0905 茨城県水戸市石川４丁目４０３７−６",
    "latitude": 36.390638,
    "longitude": 140.42178,
    "link": "https://www.google.com/maps/place/%E6%B0%B4%E6%88%B8%E5%B8%82%E7%AB%8B%E7%9F%B3%E5%B7%9D%E5%B9%BC%E7%A8%9A%E5%9C%92/data=!4m7!3m6!1s0x602221573f8ad1d3:0x9464efff562f9c0e!8m2!3d36.390638!4d140.42178!16s%2Fg%2F1tgpsqvc!19sChIJ09GKP1chImARDpwvVv_vZJQ?authuser=0&hl=ja&rclk=1",
    "category": "幼稚園"
  },
  {
    "name": "ときわの杜保育園",
    "address": "〒310-0843 茨城県水戸市元石川町２５３４−２",
    "latitude": 36.32182,
    "longitude": 140.494284,
    "link": "https://www.google.com/maps/place/%E3%81%A8%E3%81%8D%E3%82%8F%E3%81%AE%E6%9D%9C%E4%BF%9D%E8%82%B2%E5%9C%92/data=!4m7!3m6!1s0x60223a951f0a2637:0xb78f2c4fe3addf58!8m2!3d36.32182!4d140.494284!16s%2Fg%2F1td7231d!19sChIJNyYKH5U6ImARWN-t408sj7c?authuser=0&hl=ja&rclk=1",
    "category": "保育園"
  },
  {
    "name": "ユーアイ・ほいくえん",
    "address": "〒310-0827 茨城県水戸市吉沼町１４４７−１",
    "latitude": 36.3635963,
    "longitude": 140.5164222,
    "link": "https://www.google.com/maps/place/%E3%83%A6%E3%83%BC%E3%82%A2%E3%82%A4%E3%83%BB%E3%81%BB%E3%81%84%E3%81%8F%E3%81%88%E3%82%93/data=!4m7!3m6!1s0x60222f8ace71f209:0x599f1c39d54ca2f3!8m2!3d36.3635963!4d140.5164222!16s%2Fg%2F11c59xvr4_!19sChIJCfJxzoovImAR86JM1Tkcn1k?authuser=0&hl=ja&rclk=1",
    "category": "保育園"
  },
  {
    "name": "わくわくの森保育園 水戸市認可",
    "address": "〒310-0903 茨城県水戸市堀町２２９６−７",
    "latitude": 36.3939001,
    "longitude": 140.4194134,
    "link": "https://www.google.com/maps/place/%E3%82%8F%E3%81%8F%E3%82%8F%E3%81%8F%E3%81%AE%E6%A3%AE%E4%BF%9D%E8%82%B2%E5%9C%92+%E6%B0%B4%E6%88%B8%E5%B8%82%E8%AA%8D%E5%8F%AF/data=!4m7!3m6!1s0x602221cbb8fafadf:0x622ff3f6682aa7f7!8m2!3d36.3939001!4d140.4194134!16s%2Fg%2F11fjzkclgq!19sChIJ3_r6uMshImAR96cqaPbzL2I?authuser=0&hl=ja&rclk=1",
    "category": "保育園"
  },
  {
    "name": "葉山保育園",
    "address": "〒310-0851 茨城県水戸市千波町１６８８−３",
    "latitude": 36.3540311,
    "longitude": 140.4580118,
    "link": "https://www.google.com/maps/place/%E8%91%89%E5%B1%B1%E4%BF%9D%E8%82%B2%E5%9C%92/data=!4m7!3m6!1s0x602224ee69d314e7:0x4718cd4756deb5c1!8m2!3d36.3540311!4d140.4580118!16s%2Fg%2F1td6y6w4!19sChIJ5xTTae4kImARwbXeVkfNGEc?authuser=0&hl=ja&rclk=1",
    "category": "保育園"
  },
  {
    "name": "どんぐりの友保育園",
    "address": "〒311-4144 茨城県水戸市開江町１６２３",
    "latitude": 36.3997156,
    "longitude": 140.4071123,
    "link": "https://www.google.com/maps/place/%E3%81%A9%E3%82%93%E3%81%90%E3%82%8A%E3%81%AE%E5%8F%8B%E4%BF%9D%E8%82%B2%E5%9C%92/data=!4m7!3m6!1s0x602221a4507e7485:0xae38719f2fb91621!8m2!3d36.3997156!4d140.4071123!16s%2Fg%2F11h464yg2p!19sChIJhXR-UKQhImARIRa5L59xOK4?authuser=0&hl=ja&rclk=1",
    "category": "保育園"
  },
  {
    "name": "水戸市立浜田幼稚園",
    "address": "〒310-0812 茨城県水戸市浜田１丁目１−２",
    "latitude": 36.3629661,
    "longitude": 140.4947065,
    "link": "https://www.google.com/maps/place/%E6%B0%B4%E6%88%B8%E5%B8%82%E7%AB%8B%E6%B5%9C%E7%94%B0%E5%B9%BC%E7%A8%9A%E5%9C%92/data=!4m7!3m6!1s0x6022256ae3147c17:0x328404e7a8afc7a3!8m2!3d36.3629661!4d140.4947065!16s%2Fg%2F1thqgw1_!19sChIJF3wU42olImARo8evqOcEhDI?authuser=0&hl=ja&rclk=1",
    "category": "幼稚園"
  },
  {
    "name": "こばと東保育園",
    "address": "〒310-0826 茨城県水戸市渋井町４０４−１",
    "latitude": 36.3642068,
    "longitude": 140.5076608,
    "link": "https://www.google.com/maps/place/%E3%81%93%E3%81%B0%E3%81%A8%E6%9D%B1%E4%BF%9D%E8%82%B2%E5%9C%92/data=!4m7!3m6!1s0x6022255dcfdc2caf:0xb2a7680df63dedd7!8m2!3d36.3642068!4d140.5076608!16s%2Fg%2F1tsr39pd!19sChIJryzcz10lImAR1-099g1op7I?authuser=0&hl=ja&rclk=1",
    "category": "保育園"
  },
  {
    "name": "水戸市 内原幼稚園",
    "address": "〒319-0315 茨城県水戸市内原町７２０−１ ウチハラ",
    "latitude": 36.3691731,
    "longitude": 140.3594348,
    "link": "https://www.google.com/maps/place/%E6%B0%B4%E6%88%B8%E5%B8%82+%E5%86%85%E5%8E%9F%E5%B9%BC%E7%A8%9A%E5%9C%92/data=!4m7!3m6!1s0x602221f08c0f95b5:0xf35f2444b51e0e4d!8m2!3d36.3691731!4d140.3594348!16s%2Fg%2F1vrq9rdg!19sChIJtZUPjPAhImARTQ4etUQkX_M?authuser=0&hl=ja&rclk=1",
    "category": "幼稚園"
  },
  {
    "name": "ほうとく保育園",
    "address": "〒311-4153 茨城県水戸市河和田町３９６１",
    "latitude": 36.3515895,
    "longitude": 140.4035807,
    "link": "https://www.google.com/maps/place/%E3%81%BB%E3%81%86%E3%81%A8%E3%81%8F%E4%BF%9D%E8%82%B2%E5%9C%92/data=!4m7!3m6!1s0x602223a4c713d275:0xfba46fae21167ac2!8m2!3d36.3515895!4d140.4035807!16s%2Fg%2F1th5cp6h!19sChIJddITx6QjImARwnoWIa5vpPs?authuser=0&hl=ja&rclk=1",
    "category": "保育園"
  },
  {
    "name": "水戸市立緑岡幼稚園",
    "address": "〒310-0913 茨城県水戸市見川町２５６３",
    "latitude": 36.3550456,
    "longitude": 140.443753,
    "link": "https://www.google.com/maps/place/%E6%B0%B4%E6%88%B8%E5%B8%82%E7%AB%8B%E7%B7%91%E5%B2%A1%E5%B9%BC%E7%A8%9A%E5%9C%92/data=!4m7!3m6!1s0x602224892821045f:0x1b05c814817bae69!8m2!3d36.3550456!4d140.443753!16s%2Fg%2F1td7hvd_!19sChIJXwQhKIkkImARaa57gRTIBRs?authuser=0&hl=ja&rclk=1",
    "category": "幼稚園"
  },
  {
    "name": "ちゃいるどはうす森のほいくえん",
    "address": "〒310-0853 茨城県水戸市平須町２３６６−１",
    "latitude": 36.3329579,
    "longitude": 140.4278041,
    "link": "https://www.google.com/maps/place/%E3%81%A1%E3%82%83%E3%81%84%E3%82%8B%E3%81%A9%E3%81%AF%E3%81%86%E3%81%99%E6%A3%AE%E3%81%AE%E3%81%BB%E3%81%84%E3%81%8F%E3%81%88%E3%82%93/data=!4m7!3m6!1s0x602224b027778207:0xa7c435ca6bf16a65!8m2!3d36.3329579!4d140.4278041!16s%2Fg%2F11b808x_zg!19sChIJB4J3J7AkImARZWrxa8o1xKc?authuser=0&hl=ja&rclk=1",
    "category": "保育園"
  },
  {
    "name": "ルミエール保育園",
    "address": "〒310-0853 茨城県水戸市平須町１２１８ 社会福祉法人 三愛福祉会 ルミエール保育園",
    "latitude": 36.329936,
    "longitude": 140.4250508,
    "link": "https://www.google.com/maps/place/%E3%83%AB%E3%83%9F%E3%82%A8%E3%83%BC%E3%83%AB%E4%BF%9D%E8%82%B2%E5%9C%92/data=!4m7!3m6!1s0x6022235c180fffff:0x282f880e986bc35d!8m2!3d36.329936!4d140.4250508!16s%2Fg%2F11bwgw7w0l!19sChIJ__8PGFwjImARXcNrmA6ILyg?authuser=0&hl=ja&rclk=1",
    "category": "保育園"
  },
  {
    "name": "彩の国保育園",
    "address": "〒310-0852 茨城県水戸市笠原町１２２８−１０",
    "latitude": 36.345016,
    "longitude": 140.4499121,
    "link": "https://www.google.com/maps/place/%E5%BD%A9%E3%81%AE%E5%9B%BD%E4%BF%9D%E8%82%B2%E5%9C%92/data=!4m7!3m6!1s0x602224951a23a487:0xdfde7ddf921c128f!8m2!3d36.345016!4d140.4499121!16s%2Fg%2F1tfpvcg8!19sChIJh6QjGpUkImARjxIckt993t8?authuser=0&hl=ja&rclk=1",
    "category": "保育園"
  },
  {
    "name": "笠原幼稚園",
    "address": "〒310-0852 茨城県水戸市笠原町９２ 水戸市立笠原幼稚園",
    "latitude": 36.3422127,
    "longitude": 140.4577483,
    "link": "https://www.google.com/maps/place/%E7%AC%A0%E5%8E%9F%E5%B9%BC%E7%A8%9A%E5%9C%92/data=!4m7!3m6!1s0x602224c3f2500a9d:0xe79b6034778c5223!8m2!3d36.3422127!4d140.4577483!16s%2Fg%2F1tff7qm9!19sChIJnQpQ8sMkImARI1KMdzRgm-c?authuser=0&hl=ja&rclk=1",
    "category": "幼稚園"
  },
  {
    "name": "すみよし保育園",
    "address": "〒310-0844 茨城県水戸市住吉町１１５−１",
    "latitude": 36.3330488,
    "longitude": 140.4744694,
    "link": "https://www.google.com/maps/place/%E3%81%99%E3%81%BF%E3%82%88%E3%81%97%E4%BF%9D%E8%82%B2%E5%9C%92/data=!4m7!3m6!1s0x60223ad51c6dc401:0xc8f264e9a2ca8338!8m2!3d36.3330488!4d140.4744694!16s%2Fg%2F1tdnw_zc!19sChIJAcRtHNU6ImAROIPKoulk8sg?authuser=0&hl=ja&rclk=1",
    "category": "保育園"
  },
  {
    "name": "すぎのこ見和保育園",
    "address": "〒310-0911 茨城県水戸市見和１丁目３０７−８",
    "latitude": 36.377661,
    "longitude": 140.4367253,
    "link": "https://www.google.com/maps/place/%E3%81%99%E3%81%8E%E3%81%AE%E3%81%93%E8%A6%8B%E5%92%8C%E4%BF%9D%E8%82%B2%E5%9C%92/data=!4m7!3m6!1s0x602225059bc7852d:0xd0ffc7136003eeb9!8m2!3d36.377661!4d140.4367253!16s%2Fg%2F11s0qmhmhl!19sChIJLYXHmwUlImARue4DYBPH_9A?authuser=0&hl=ja&rclk=1",
    "category": "保育園"
  },
  {
    "name": "桜ノ牧保育園",
    "address": "〒310-0914 茨城県水戸市小吹町２０５３−３３",
    "latitude": 36.3516309,
    "longitude": 140.4201503,
    "link": "https://www.google.com/maps/place/%E6%A1%9C%E3%83%8E%E7%89%A7%E4%BF%9D%E8%82%B2%E5%9C%92/data=!4m7!3m6!1s0x6022239d2e21f0d1:0x582a88a00c5f5b1d!8m2!3d36.3516309!4d140.4201503!16s%2Fg%2F11f00j6617!19sChIJ0fAhLp0jImARHVtfDKCIKlg?authuser=0&hl=ja&rclk=1",
    "category": "保育園"
  },
  {
    "name": "水戸市立寿幼稚園",
    "address": "〒310-0853 茨城県水戸市平須町１７６１",
    "latitude": 36.3280282,
    "longitude": 140.4295699,
    "link": "https://www.google.com/maps/place/%E6%B0%B4%E6%88%B8%E5%B8%82%E7%AB%8B%E5%AF%BF%E5%B9%BC%E7%A8%9A%E5%9C%92/data=!4m7!3m6!1s0x602223586753025d:0xa2fbec250e4510ec!8m2!3d36.3280282!4d140.4295699!16s%2Fg%2F1w8wb3n4!19sChIJXQJTZ1gjImAR7BBFDiXs-6I?authuser=0&hl=ja&rclk=1",
    "category": "幼稚園"
  },
  {
    "name": "酒門幼稚園",
    "address": "〒310-0841 茨城県水戸市酒門町１２４６−５ 水戸市立酒門幼稚園",
    "latitude": 36.3456969,
    "longitude": 140.4913182,
    "link": "https://www.google.com/maps/place/%E9%85%92%E9%96%80%E5%B9%BC%E7%A8%9A%E5%9C%92/data=!4m7!3m6!1s0x60222535df384b29:0x3318ce86ce853126!8m2!3d36.3456969!4d140.4913182!16s%2Fg%2F1tk23102!19sChIJKUs43zUlImARJjGFzobOGDM?authuser=0&hl=ja&rclk=1",
    "category": "幼稚園"
  },
  {
    "name": "元気の森・保育園",
    "address": "〒310-0846 茨城県水戸市東野町６２０−４",
    "latitude": 36.3283298,
    "longitude": 140.452029,
    "link": "https://www.google.com/maps/place/%E5%85%83%E6%B0%97%E3%81%AE%E6%A3%AE%E3%83%BB%E4%BF%9D%E8%82%B2%E5%9C%92/data=!4m7!3m6!1s0x602224ca63b6635f:0xe5f2fd09bc97ff58!8m2!3d36.3283298!4d140.452029!16s%2Fg%2F11f2_tz7qq!19sChIJX2O2Y8okImARWP-XvAn98uU?authuser=0&hl=ja&rclk=1",
    "category": "保育園"
  },
  {
    "name": "聖光学園保育部",
    "address": "〒310-0036 茨城県水戸市新荘１丁目４−８",
    "latitude": 36.382879,
    "longitude": 140.452772,
    "link": "https://www.google.com/maps/place/%E8%81%96%E5%85%89%E5%AD%A6%E5%9C%92%E4%BF%9D%E8%82%B2%E9%83%A8/data=!4m7!3m6!1s0x6022243fc82b18c5:0x5192e866967db4de!8m2!3d36.382879!4d140.452772!16s%2Fg%2F1tznmg9p!19sChIJxRgryD8kImAR3rR9lmboklE?authuser=0&hl=ja&rclk=1",
    "category": "保育園"
  },
  {
    "name": "ヴィクトリアナーサリー",
    "address": "〒311-4151 茨城県水戸市姫子２丁目７５１−１７",
    "latitude": 36.378931,
    "longitude": 140.424344,
    "link": "https://www.google.com/maps/place/%E3%83%B4%E3%82%A3%E3%82%AF%E3%83%88%E3%83%AA%E3%82%A2%E3%83%8A%E3%83%BC%E3%82%B5%E3%83%AA%E3%83%BC/data=!4m7!3m6!1s0x602223f09f89d6f3:0x16c83108d5f0534c!8m2!3d36.378931!4d140.424344!16s%2Fg%2F1tscp39v!19sChIJ89aJn_AjImARTFPw1QgxyBY?authuser=0&hl=ja&rclk=1",
    "category": "保育園"
  },
  {
    "name": "キララかわわだ ナーサリー",
    "address": "〒311-4153 茨城県水戸市河和田町１１９３−５",
    "latitude": 36.370218,
    "longitude": 140.420589,
    "link": "https://www.google.com/maps/place/%E3%82%AD%E3%83%A9%E3%83%A9%E3%81%8B%E3%82%8F%E3%82%8F%E3%81%A0+%E3%83%8A%E3%83%BC%E3%82%B5%E3%83%AA%E3%83%BC/data=!4m7!3m6!1s0x602223f2825b0f9f:0x894eb8bb629aac87!8m2!3d36.370218!4d140.420589!16s%2Fg%2F11h19bk5pm!19sChIJnw9bgvIjImARh6yaYru4Tok?authuser=0&hl=ja&rclk=1",
    "category": "保育園"
  },
  {
    "name": "ひばり保育園",
    "address": "〒310-0853 茨城県水戸市平須町１８２４−２２ 社会福祉法人 小川会 ひばり保育園",
    "latitude": 36.3364397,
    "longitude": 140.4360664,
    "link": "https://www.google.com/maps/place/%E3%81%B2%E3%81%B0%E3%82%8A%E4%BF%9D%E8%82%B2%E5%9C%92/data=!4m7!3m6!1s0x602224a220ee5965:0xc55c58deef2655a3!8m2!3d36.3364397!4d140.4360664!16s%2Fg%2F1tdnw_xv!19sChIJZVnuIKIkImARo1Um795YXMU?authuser=0&hl=ja&rclk=1",
    "category": "保育園"
  },
  {
    "name": "こばとラブリィ保育園",
    "address": "〒310-0836 茨城県水戸市元吉田町２９８１",
    "latitude": 36.3602979,
    "longitude": 140.4847929,
    "link": "https://www.google.com/maps/place/%E3%81%93%E3%81%B0%E3%81%A8%E3%83%A9%E3%83%96%E3%83%AA%E3%82%A3%E4%BF%9D%E8%82%B2%E5%9C%92/data=!4m7!3m6!1s0x602225d738680363:0x9e0b1c8e9fcd3f2a!8m2!3d36.3602979!4d140.4847929!16s%2Fg%2F11ghq41tqw!19sChIJYwNoONclImARKj_Nn44cC54?authuser=0&hl=ja&rclk=1",
    "category": "保育園"
  },
  {
    "name": "第二めぐみ保育園",
    "address": "〒311-4153 茨城県水戸市河和田町４２５",
    "latitude": 36.3613401,
    "longitude": 140.4168756,
    "link": "https://www.google.com/maps/place/%E7%AC%AC%E4%BA%8C%E3%82%81%E3%81%90%E3%81%BF%E4%BF%9D%E8%82%B2%E5%9C%92/data=!4m7!3m6!1s0x6022238c024d1fff:0xb245a245cf1948c0!8m2!3d36.3613401!4d140.4168756!16s%2Fg%2F12hlpj46w!19sChIJ_x9NAowjImARwEgZz0WiRbI?authuser=0&hl=ja&rclk=1",
    "category": "保育園"
  },
  {
    "name": "つばさ保育園",
    "address": "〒319-0323 茨城県水戸市鯉淵町２０６６−１４",
    "latitude": 36.3536186,
    "longitude": 140.378398,
    "link": "https://www.google.com/maps/place/%E3%81%A4%E3%81%B0%E3%81%95%E4%BF%9D%E8%82%B2%E5%9C%92/data=!4m7!3m6!1s0x60222238342b1065:0xac347f5fd477b6de!8m2!3d36.3536186!4d140.378398!16s%2Fg%2F1tvtbg4k!19sChIJZRArNDgiImAR3rZ31F9_NKw?authuser=0&hl=ja&rclk=1",
    "category": "保育園"
  },
  {
    "name": "ひまわりのお家",
    "address": "〒310-0852 茨城県水戸市笠原町１３９６−３",
    "latitude": 36.3407654,
    "longitude": 140.4379275,
    "link": "https://www.google.com/maps/place/%E3%81%B2%E3%81%BE%E3%82%8F%E3%82%8A%E3%81%AE%E3%81%8A%E5%AE%B6/data=!4m7!3m6!1s0x60222498e2b2b067:0xb8ac59d6ffb68b93!8m2!3d36.3407654!4d140.4379275!16s%2Fg%2F1tgdcj3h!19sChIJZ7Cy4pgkImARk4u2_9ZZrLg?authuser=0&hl=ja&rclk=1",
    "category": ""
  },
  {
    "name": "スワン保育園",
    "address": "〒310-0035 茨城県水戸市東原３丁目２−６",
    "latitude": 36.3861742,
    "longitude": 140.4481798,
    "link": "https://www.google.com/maps/place/%E3%82%B9%E3%83%AF%E3%83%B3%E4%BF%9D%E8%82%B2%E5%9C%92/data=!4m7!3m6!1s0x602224171d1509b3:0x7eb9503000af193d!8m2!3d36.3861742!4d140.4481798!16s%2Fg%2F1tcx73hn!19sChIJswkVHRckImARPRmvADBQuX4?authuser=0&hl=ja&rclk=1",
    "category": "保育園"
  },
  {
    "name": "さんさん保育園",
    "address": "〒310-0847 茨城県水戸市米沢町３３０−１",
    "latitude": 36.3462896,
    "longitude": 140.4612486,
    "link": "https://www.google.com/maps/place/%E3%81%95%E3%82%93%E3%81%95%E3%82%93%E4%BF%9D%E8%82%B2%E5%9C%92/data=!4m7!3m6!1s0x602224c2b84e63f3:0xb254204ad5b7bdef!8m2!3d36.3462896!4d140.4612486!16s%2Fg%2F11j5j3zdsv!19sChIJ82NOuMIkImAR77231UogVLI?authuser=0&hl=ja&rclk=1",
    "category": "保育園"
  },
  {
    "name": "こばと保育園分園",
    "address": "〒310-0851 茨城県水戸市千波町７７７",
    "latitude": 36.363997,
    "longitude": 140.4653024,
    "link": "https://www.google.com/maps/place/%E3%81%93%E3%81%B0%E3%81%A8%E4%BF%9D%E8%82%B2%E5%9C%92%E5%88%86%E5%9C%92/data=!4m7!3m6!1s0x602224f96c46849f:0xd88cc0e2ba3ab0b4!8m2!3d36.363997!4d140.4653024!16s%2Fg%2F1tj52q96!19sChIJn4RGbPkkImARtLA6uuLAjNg?authuser=0&hl=ja&rclk=1",
    "category": "保育園"
  },
  {
    "name": "笠原保育園",
    "address": "〒310-0852 茨城県水戸市笠原町１８２７−３",
    "latitude": 36.3332848,
    "longitude": 140.4510244,
    "link": "https://www.google.com/maps/place/%E7%AC%A0%E5%8E%9F%E4%BF%9D%E8%82%B2%E5%9C%92/data=!4m7!3m6!1s0x602224b7ddae6eaf:0x53bd2063221b9ed!8m2!3d36.3332848!4d140.4510244!16s%2Fg%2F1tdnfc6m!19sChIJr26u3bckImAR7bkhMgbSOwU?authuser=0&hl=ja&rclk=1",
    "category": "保育園"
  },
  {
    "name": "のぎく保育園",
    "address": "〒310-0841 茨城県水戸市酒門町５０３８",
    "latitude": 36.3594492,
    "longitude": 140.4998874,
    "link": "https://www.google.com/maps/place/%E3%81%AE%E3%81%8E%E3%81%8F%E4%BF%9D%E8%82%B2%E5%9C%92/data=!4m7!3m6!1s0x60222543bc78cb2d:0xf1074ed7706a21d5!8m2!3d36.3594492!4d140.4998874!16s%2Fg%2F1tngqd7c!19sChIJLct4vEMlImAR1SFqcNdOB_E?authuser=0&hl=ja&rclk=1",
    "category": "保育園"
  },
  {
    "name": "ベリーベルすずき保育室",
    "address": "〒310-0847 茨城県水戸市米沢町８５−２",
    "latitude": 36.3354359,
    "longitude": 140.4600553,
    "link": "https://www.google.com/maps/place/%E3%83%99%E3%83%AA%E3%83%BC%E3%83%99%E3%83%AB%E3%81%99%E3%81%9A%E3%81%8D%E4%BF%9D%E8%82%B2%E5%AE%A4/data=!4m7!3m6!1s0x6022252f55d8ea93:0x8909a0f836b10868!8m2!3d36.3354359!4d140.4600553!16s%2Fg%2F11mc6x5bvv!19sChIJk-rYVS8lImARaAixNvigCYk?authuser=0&hl=ja&rclk=1",
    "category": "保育園"
  },
  {
    "name": "つぼみさく保育園",
    "address": "〒310-0852 茨城県水戸市笠原町４００−３",
    "latitude": 36.3390514,
    "longitude": 140.4536133,
    "link": "https://www.google.com/maps/place/%E3%81%A4%E3%81%BC%E3%81%BF%E3%81%95%E3%81%8F%E4%BF%9D%E8%82%B2%E5%9C%92/data=!4m7!3m6!1s0x602224ecf700f8f5:0x2645c77ceb511538!8m2!3d36.3390514!4d140.4536133!16s%2Fg%2F11btwtrzgb!19sChIJ9fgA9-wkImAROBVR63zHRSY?authuser=0&hl=ja&rclk=1",
    "category": "保育園"
  },
  {
    "name": "こばとリバティー保育園",
    "address": "〒310-0042 茨城県水戸市自由が丘５−４３",
    "latitude": 36.3871132,
    "longitude": 140.4394217,
    "link": "https://www.google.com/maps/place/%E3%81%93%E3%81%B0%E3%81%A8%E3%83%AA%E3%83%90%E3%83%86%E3%82%A3%E3%83%BC%E4%BF%9D%E8%82%B2%E5%9C%92/data=!4m7!3m6!1s0x6022252b5c176ab9:0x5581632a8cc8b16f!8m2!3d36.3871132!4d140.4394217!16s%2Fg%2F11ssz9x9ch!19sChIJuWoXXCslImARb7HIjCpjgVU?authuser=0&hl=ja&rclk=1",
    "category": "保育園"
  },
  {
    "name": "稲荷第一幼稚園",
    "address": "〒311-1115 茨城県水戸市大串町７８９ 水戸市立稲荷第一幼稚園",
    "latitude": 36.336552,
    "longitude": 140.539399,
    "link": "https://www.google.com/maps/place/%E7%A8%B2%E8%8D%B7%E7%AC%AC%E4%B8%80%E5%B9%BC%E7%A8%9A%E5%9C%92/data=!4m7!3m6!1s0x60223043f7fabdc9:0xfd4c248e22fee253!8m2!3d36.336552!4d140.539399!16s%2Fg%2F1tgx23q6!19sChIJyb3690MwImARU-L-Io4kTP0?authuser=0&hl=ja&rclk=1",
    "category": "幼稚園"
  },
  {
    "name": "ちゃいるどはうす保育園",
    "address": "〒310-0852 茨城県水戸市笠原町１５０ 地球の子ども会ちゃいるどは",
    "latitude": 36.3450578,
    "longitude": 140.4583219,
    "link": "https://www.google.com/maps/place/%E3%81%A1%E3%82%83%E3%81%84%E3%82%8B%E3%81%A9%E3%81%AF%E3%81%86%E3%81%99%E4%BF%9D%E8%82%B2%E5%9C%92/data=!4m7!3m6!1s0x602224c2440e3c0b:0xfd5a6ea631ec9fe1!8m2!3d36.3450578!4d140.4583219!16s%2Fg%2F1w112907!19sChIJCzwORMIkImAR4Z_sMaZuWv0?authuser=0&hl=ja&rclk=1",
    "category": "保育園"
  },
  {
    "name": "すずらん保育園",
    "address": "〒310-0813 茨城県水戸市浜田町４４３−１",
    "latitude": 36.369999,
    "longitude": 140.5021942,
    "link": "https://www.google.com/maps/place/%E3%81%99%E3%81%9A%E3%82%89%E3%82%93%E4%BF%9D%E8%82%B2%E5%9C%92/data=!4m7!3m6!1s0x6022256f6ea6707b:0x8baafda14a35c7f8!8m2!3d36.369999!4d140.5021942!16s%2Fg%2F11bwq6gqmt!19sChIJe3Cmbm8lImAR-Mc1SqH9qos?authuser=0&hl=ja&rclk=1",
    "category": "保育園"
  },
  {
    "name": "すぎのこ住吉保育園",
    "address": "〒310-0844 茨城県水戸市住吉町５０−１５",
    "latitude": 36.3366692,
    "longitude": 140.4777499,
    "link": "https://www.google.com/maps/place/%E3%81%99%E3%81%8E%E3%81%AE%E3%81%93%E4%BD%8F%E5%90%89%E4%BF%9D%E8%82%B2%E5%9C%92/data=!4m7!3m6!1s0x602225bec61b3d4f:0x6b91ac16769872fa!8m2!3d36.3366692!4d140.4777499!16s%2Fg%2F11h11f6h3b!19sChIJTz0bxr4lImAR-nKYdhaskWs?authuser=0&hl=ja&rclk=1",
    "category": "保育園"
  },
  {
    "name": "見和めぐみ保育園",
    "address": "〒310-0911 茨城県水戸市見和２丁目１９８−５ めぐみ",
    "latitude": 36.3743325,
    "longitude": 140.4286444,
    "link": "https://www.google.com/maps/place/%E8%A6%8B%E5%92%8C%E3%82%81%E3%81%90%E3%81%BF%E4%BF%9D%E8%82%B2%E5%9C%92/data=!4m7!3m6!1s0x602223f5afbfffed:0x8cd548fc8b79c94c!8m2!3d36.3743325!4d140.4286444!16s%2Fg%2F1tdzlp14!19sChIJ7f-_r_UjImARTMl5i_xI1Yw?authuser=0&hl=ja&rclk=1",
    "category": "保育園"
  },
  {
    "name": "河和田幼稚園",
    "address": "〒311-4153 茨城県水戸市河和田町１１８３",
    "latitude": 36.3698789,
    "longitude": 140.4182606,
    "link": "https://www.google.com/maps/place/%E6%B2%B3%E5%92%8C%E7%94%B0%E5%B9%BC%E7%A8%9A%E5%9C%92/data=!4m7!3m6!1s0x602223eb28b83ccf:0xa8af8166332fe285!8m2!3d36.3698789!4d140.4182606!16s%2Fg%2F11wwwxqwhx!19sChIJzzy4KOsjImARheIvM2aBr6g?authuser=0&hl=ja&rclk=1",
    "category": "幼稚園"
  },
  {
    "name": "けやき台保育園",
    "address": "〒310-0841 茨城県水戸市酒門町１５７８−８",
    "latitude": 36.339553,
    "longitude": 140.486934,
    "link": "https://www.google.com/maps/place/%E3%81%91%E3%82%84%E3%81%8D%E5%8F%B0%E4%BF%9D%E8%82%B2%E5%9C%92/data=!4m7!3m6!1s0x602225334d17d49b:0x63373a225832f449!8m2!3d36.339553!4d140.486934!16s%2Fg%2F1tdmvq_r!19sChIJm9QXTTMlImARSfQyWCI6N2M?authuser=0&hl=ja&rclk=1",
    "category": "保育園"
  },
  {
    "name": "石川保育園",
    "address": "〒310-0905 茨城県水戸市石川１丁目３９７４ 社会福祉法人 若葉会 石川保育園",
    "latitude": 36.3891477,
    "longitude": 140.4279367,
    "link": "https://www.google.com/maps/place/%E7%9F%B3%E5%B7%9D%E4%BF%9D%E8%82%B2%E5%9C%92/data=!4m7!3m6!1s0x602223fe2c2ca6ff:0xb247bf37e3e74e30!8m2!3d36.3891477!4d140.4279367!16s%2Fg%2F1vn_z1q5!19sChIJ_6YsLP4jImARME7n4ze_R7I?authuser=0&hl=ja&rclk=1",
    "category": "保育園"
  },
  {
    "name": "ひかり保育園",
    "address": "〒310-0055 茨城県水戸市袴塚１丁目５−１８",
    "latitude": 36.3942323,
    "longitude": 140.4474669,
    "link": "https://www.google.com/maps/place/%E3%81%B2%E3%81%8B%E3%82%8A%E4%BF%9D%E8%82%B2%E5%9C%92/data=!4m7!3m6!1s0x6022241e93334791:0x5b68adb742643390!8m2!3d36.3942323!4d140.4474669!16s%2Fg%2F1tpps1y6!19sChIJkUczkx4kImARkDNkQretaFs?authuser=0&hl=ja&rclk=1",
    "category": "保育園"
  },
  {
    "name": "梅の香保育園",
    "address": "〒311-4141 茨城県水戸市赤塚１丁目１９９６−３１",
    "latitude": 36.383799,
    "longitude": 140.416809,
    "link": "https://www.google.com/maps/place/%E6%A2%85%E3%81%AE%E9%A6%99%E4%BF%9D%E8%82%B2%E5%9C%92/data=!4m7!3m6!1s0x602223e2413d51bd:0xc0438ef26b3ea46!8m2!3d36.383799!4d140.416809!16s%2Fg%2F11gmgnrktw!19sChIJvVE9QeIjImARRuqzJu84BAw?authuser=0&hl=ja&rclk=1",
    "category": "保育園"
  },
  {
    "name": "白ゆり保育園",
    "address": "〒310-0903 茨城県水戸市堀町８３２−１",
    "latitude": 36.4065412,
    "longitude": 140.4235466,
    "link": "https://www.google.com/maps/place/%E7%99%BD%E3%82%86%E3%82%8A%E4%BF%9D%E8%82%B2%E5%9C%92/data=!4m7!3m6!1s0x602221362efc9b21:0xde6eac336421fe2d!8m2!3d36.4065412!4d140.4235466!16s%2Fg%2F1tj3378r!19sChIJIZv8LjYhImARLf4hZDOsbt4?authuser=0&hl=ja&rclk=1",
    "category": "保育園"
  },
  {
    "name": "つぼみさく ｙｕｍｅ保育園",
    "address": "〒310-0852 茨城県水戸市笠原町６５６−１",
    "latitude": 36.3389879,
    "longitude": 140.4532602,
    "link": "https://www.google.com/maps/place/%E3%81%A4%E3%81%BC%E3%81%BF%E3%81%95%E3%81%8F+%EF%BD%99%EF%BD%95%EF%BD%8D%EF%BD%85%E4%BF%9D%E8%82%B2%E5%9C%92/data=!4m7!3m6!1s0x602224c73fb1eb9f:0x1e1310eee3407269!8m2!3d36.3389879!4d140.4532602!16s%2Fg%2F11h_rd7wyw!19sChIJn-uxP8ckImARaXJA4-4QEx4?authuser=0&hl=ja&rclk=1",
    "category": "保育園"
  },
  {
    "name": "チャイルドランドナーサリー",
    "address": "〒311-4143 茨城県水戸市大塚町１８６３−１８６ 認定こども園 プリンセスリリー チャイルドランドナーサリー",
    "latitude": 36.385428,
    "longitude": 140.4093848,
    "link": "https://www.google.com/maps/place/%E3%83%81%E3%83%A3%E3%82%A4%E3%83%AB%E3%83%89%E3%83%A9%E3%83%B3%E3%83%89%E3%83%8A%E3%83%BC%E3%82%B5%E3%83%AA%E3%83%BC/data=!4m7!3m6!1s0x60222160972574e1:0x5e6c735cdf085acb!8m2!3d36.385428!4d140.4093848!16s%2Fg%2F1tfc6qjd!19sChIJ4XQll2AhImARy1oI31xzbF4?authuser=0&hl=ja&rclk=1",
    "category": "保育園"
  },
  {
    "name": "水戸市立国田幼稚園",
    "address": "〒311-4205 茨城県水戸市下国井町２５９５",
    "latitude": 36.4272122,
    "longitude": 140.4336894,
    "link": "https://www.google.com/maps/place/%E6%B0%B4%E6%88%B8%E5%B8%82%E7%AB%8B%E5%9B%BD%E7%94%B0%E5%B9%BC%E7%A8%9A%E5%9C%92/data=!4m7!3m6!1s0x602226d4fe1248fd:0xb2c50c76e6078d3b!8m2!3d36.4272122!4d140.4336894!16s%2Fg%2F1tfrxlnj!19sChIJ_UgS_tQmImARO40H5nYMxbI?authuser=0&hl=ja&rclk=1",
    "category": "幼稚園"
  },
  {
    "name": "のぎくhope保育園 （認可小規模）",
    "address": "〒310-0012 茨城県水戸市城東１丁目４−２０ 弓和ハイム １F",
    "latitude": 36.3704446,
    "longitude": 140.4880334,
    "link": "https://www.google.com/maps/place/%E3%81%AE%E3%81%8E%E3%81%8Fhope%E4%BF%9D%E8%82%B2%E5%9C%92+%EF%BC%88%E8%AA%8D%E5%8F%AF%E5%B0%8F%E8%A6%8F%E6%A8%A1%EF%BC%89/data=!4m7!3m6!1s0x60222566ce87b08f:0xf6049d6d80327ecb!8m2!3d36.3704446!4d140.4880334!16s%2Fg%2F11q8s73pf1!19sChIJj7CHzmYlImARy34ygG2dBPY?authuser=0&hl=ja&rclk=1",
    "category": "保育園"
  },
  {
    "name": "ひので保育園",
    "address": "〒310-0836 茨城県水戸市元吉田町７２０−２ ローズマリー学苑ひので保育園",
    "latitude": 36.355143,
    "longitude": 140.4799238,
    "link": "https://www.google.com/maps/place/%E3%81%B2%E3%81%AE%E3%81%A7%E4%BF%9D%E8%82%B2%E5%9C%92/data=!4m7!3m6!1s0x6022251880718b4f:0x95c054d12e6f9acd!8m2!3d36.355143!4d140.4799238!16s%2Fg%2F1tgzbggm!19sChIJT4txgBglImARzZpvLtFUwJU?authuser=0&hl=ja&rclk=1",
    "category": "保育園"
  },
  {
    "name": "家庭的保育 ハピスマイル",
    "address": "〒310-0851 茨城県水戸市千波町２０５７−１７",
    "latitude": 36.3528212,
    "longitude": 140.441607,
    "link": "https://www.google.com/maps/place/%E5%AE%B6%E5%BA%AD%E7%9A%84%E4%BF%9D%E8%82%B2+%E3%83%8F%E3%83%94%E3%82%B9%E3%83%9E%E3%82%A4%E3%83%AB/data=!4m7!3m6!1s0x6022254272fc539d:0x91e1afd8eb7b89fe!8m2!3d36.3528212!4d140.441607!16s%2Fg%2F11kprg9_1c!19sChIJnVP8ckIlImAR_ol769iv4ZE?authuser=0&hl=ja&rclk=1",
    "category": "保育園"
  },
  {
    "name": "キンダーワールドナーサリー",
    "address": "〒310-0022 茨城県水戸市梅香２丁目１−４４ リリーこども&スポーツ専門学校",
    "latitude": 36.375266,
    "longitude": 140.468102,
    "link": "https://www.google.com/maps/place/%E3%82%AD%E3%83%B3%E3%83%80%E3%83%BC%E3%83%AF%E3%83%BC%E3%83%AB%E3%83%89%E3%83%8A%E3%83%BC%E3%82%B5%E3%83%AA%E3%83%BC/data=!4m7!3m6!1s0x60222453b44cabbb:0x83fdae8fc6e7e3c8!8m2!3d36.375266!4d140.468102!16s%2Fg%2F1tf3p01g!19sChIJu6tMtFMkImARyOPnxo-u_YM?authuser=0&hl=ja&rclk=1",
    "category": "保育園"
  },
  {
    "name": "小吹保育園",
    "address": "〒310-0914 茨城県水戸市小吹町２３０５−１ 社会福祉法人 桃季苑会 小吹保育園",
    "latitude": 36.3443572,
    "longitude": 140.4345491,
    "link": "https://www.google.com/maps/place/%E5%B0%8F%E5%90%B9%E4%BF%9D%E8%82%B2%E5%9C%92/data=!4m7!3m6!1s0x6022249cf4bd44d7:0x26bc31e18f81eaa5!8m2!3d36.3443572!4d140.4345491!16s%2Fg%2F1trc51rm!19sChIJ10S99JwkImARpeqBj-ExvCY?authuser=0&hl=ja&rclk=1",
    "category": "保育園"
  },
  {
    "name": "わかな保育園",
    "address": "〒310-0067 茨城県水戸市根本２丁目５８２",
    "latitude": 36.3830696,
    "longitude": 140.4710684,
    "link": "https://www.google.com/maps/place/%E3%82%8F%E3%81%8B%E3%81%AA%E4%BF%9D%E8%82%B2%E5%9C%92/data=!4m7!3m6!1s0x6022244cbacf89b9:0xaeb6b4d130774132!8m2!3d36.3830696!4d140.4710684!16s%2Fg%2F1th63h84!19sChIJuYnPukwkImARMkF3MNG0tq4?authuser=0&hl=ja&rclk=1",
    "category": "保育園"
  },
  {
    "name": "元吉田さくら認定こども園",
    "address": "〒310-0836 茨城県水戸市元吉田町１８３３−４４",
    "latitude": 36.3410699,
    "longitude": 140.4743421,
    "link": "https://www.google.com/maps/place/%E5%85%83%E5%90%89%E7%94%B0%E3%81%95%E3%81%8F%E3%82%89%E8%AA%8D%E5%AE%9A%E3%81%93%E3%81%A9%E3%82%82%E5%9C%92/data=!4m7!3m6!1s0x60222529ab653c5d:0xb9fafc754f71f182!8m2!3d36.3410699!4d140.4743421!16s%2Fg%2F11clvyzj9_!19sChIJXTxlqyklImARgvFxT3X8-rk?authuser=0&hl=ja&rclk=1",
    "category": "こども園"
  },
  {
    "name": "はーとぴあ保育園桜ノ牧",
    "address": "〒310-0914 茨城県水戸市小吹町１９９５−１",
    "latitude": 36.3494687,
    "longitude": 140.428616,
    "link": "https://www.google.com/maps/place/%E3%81%AF%E3%83%BC%E3%81%A8%E3%81%B4%E3%81%82%E4%BF%9D%E8%82%B2%E5%9C%92%E6%A1%9C%E3%83%8E%E7%89%A7/data=!4m7!3m6!1s0x602223d28316f38b:0xa7ba9191ed7a94c4!8m2!3d36.3494687!4d140.428616!16s%2Fg%2F11h0sgcg25!19sChIJi_MWg9IjImARxJR67ZGRuqc?authuser=0&hl=ja&rclk=1",
    "category": "保育園"
  },
  {
    "name": "千波保育園",
    "address": "〒310-0851 茨城県水戸市千波町２８３１−１９",
    "latitude": 36.3585072,
    "longitude": 140.4540934,
    "link": "https://www.google.com/maps/place/%E5%8D%83%E6%B3%A2%E4%BF%9D%E8%82%B2%E5%9C%92/data=!4m7!3m6!1s0x602224f381c6ed11:0x8cf2f783130cd6f!8m2!3d36.3585072!4d140.4540934!16s%2Fg%2F1w96gvmr!19sChIJEe3GgfMkImARb80wMXgvzwg?authuser=0&hl=ja&rclk=1",
    "category": "保育園"
  },
  {
    "name": "はーとぴあ保育園",
    "address": "〒311-4143 茨城県水戸市大塚町１８０３−１",
    "latitude": 36.3866697,
    "longitude": 140.3986365,
    "link": "https://www.google.com/maps/place/%E3%81%AF%E3%83%BC%E3%81%A8%E3%81%B4%E3%81%82%E4%BF%9D%E8%82%B2%E5%9C%92/data=!4m7!3m6!1s0x6022217aa28cc51f:0x1bb575141e05029!8m2!3d36.3866697!4d140.3986365!16s%2Fg%2F1tfj_z7h!19sChIJH8WMonohImARKVDgQVFXuwE?authuser=0&hl=ja&rclk=1",
    "category": "保育園"
  },
  {
    "name": "ちゃいるどはうす・Ｎｉｄｏ＆Ｉｎｆａｎｔ",
    "address": "〒310-0911 茨城県水戸市見和１丁目３２１−７",
    "latitude": 36.3769115,
    "longitude": 140.4414809,
    "link": "https://www.google.com/maps/place/%E3%81%A1%E3%82%83%E3%81%84%E3%82%8B%E3%81%A9%E3%81%AF%E3%81%86%E3%81%99%E3%83%BB%EF%BC%AE%EF%BD%89%EF%BD%84%EF%BD%8F%EF%BC%86%EF%BC%A9%EF%BD%8E%EF%BD%86%EF%BD%81%EF%BD%8E%EF%BD%94/data=!4m7!3m6!1s0x60222412aebad541:0x4fc580e3ac86e562!8m2!3d36.3769115!4d140.4414809!16s%2Fg%2F11c6cbz93b!19sChIJQdW6rhIkImARYuWGrOOAxU8?authuser=0&hl=ja&rclk=1",
    "category": ""
  },
  {
    "name": "水戸市立 城東保育所",
    "address": "〒310-0012 茨城県水戸市城東２丁目６−３９ 水戸市立城東保育所",
    "latitude": 36.372258,
    "longitude": 140.495014,
    "link": "https://www.google.com/maps/place/%E6%B0%B4%E6%88%B8%E5%B8%82%E7%AB%8B+%E5%9F%8E%E6%9D%B1%E4%BF%9D%E8%82%B2%E6%89%80/data=!4m7!3m6!1s0x60222572fc637f59:0x9a495ff75494458c!8m2!3d36.372258!4d140.495014!16s%2Fg%2F1tfrb8y3!19sChIJWX9j_HIlImARjEWUVPdfSZo?authuser=0&hl=ja&rclk=1",
    "category": "保育園"
  },
  {
    "name": "常澄保育所",
    "address": "〒311-1115 茨城県水戸市大串町７８９−２",
    "latitude": 36.3364031,
    "longitude": 140.5388618,
    "link": "https://www.google.com/maps/place/%E5%B8%B8%E6%BE%84%E4%BF%9D%E8%82%B2%E6%89%80/data=!4m7!3m6!1s0x60223043faa01f57:0xb3e9e57f52b35964!8m2!3d36.3364031!4d140.5388618!16s%2Fg%2F1th0m__m!19sChIJVx-g-kMwImARZFmzUn_l6bM?authuser=0&hl=ja&rclk=1",
    "category": "保育園"
  },
  {
    "name": "かしわノ木県庁前保育園",
    "address": "〒310-0852 茨城県水戸市笠原町",
    "latitude": 36.3376796,
    "longitude": 140.453236,
    "link": "https://www.google.com/maps/place/%E3%81%8B%E3%81%97%E3%82%8F%E3%83%8E%E6%9C%A8%E7%9C%8C%E5%BA%81%E5%89%8D%E4%BF%9D%E8%82%B2%E5%9C%92/data=!4m7!3m6!1s0x602224c7a7f2e4cd:0x80e238ae0eac779f!8m2!3d36.3376796!4d140.453236!16s%2Fg%2F11ggr01_lf!19sChIJzeTyp8ckImARn3esDq444oA?authuser=0&hl=ja&rclk=1",
    "category": "保育園"
  },
  {
    "name": "すまいるキッズ緑岡保育園",
    "address": "〒310-0851 茨城県水戸市千波町２３６２−１３",
    "latitude": 36.3580732,
    "longitude": 140.4470298,
    "link": "https://www.google.com/maps/place/%E3%81%99%E3%81%BE%E3%81%84%E3%82%8B%E3%82%AD%E3%83%83%E3%82%BA%E7%B7%91%E5%B2%A1%E4%BF%9D%E8%82%B2%E5%9C%92/data=!4m7!3m6!1s0x6022248bd36d9db7:0xa790ed1fe6f90ae0!8m2!3d36.3580732!4d140.4470298!16s%2Fg%2F11h5jvjp4f!19sChIJt51t04skImAR4Ar55h_tkKc?authuser=0&hl=ja&rclk=1",
    "category": "保育園"
  },
  {
    "name": "かしわノ木保育園",
    "address": "〒310-0024 茨城県水戸市備前町３−３８",
    "latitude": 36.3750158,
    "longitude": 140.4640955,
    "link": "https://www.google.com/maps/place/%E3%81%8B%E3%81%97%E3%82%8F%E3%83%8E%E6%9C%A8%E4%BF%9D%E8%82%B2%E5%9C%92/data=!4m7!3m6!1s0x60222546cd001fd5:0x7fe7346ec42ccc77!8m2!3d36.3750158!4d140.4640955!16s%2Fg%2F11fjqjkz_3!19sChIJ1R8AzUYlImARd8wsxG40538?authuser=0&hl=ja&rclk=1",
    "category": "保育園"
  },
  {
    "name": "こばとスイート保育園",
    "address": "〒310-0836 茨城県水戸市元吉田町２９８３−２",
    "latitude": 36.3606536,
    "longitude": 140.4851228,
    "link": "https://www.google.com/maps/place/%E3%81%93%E3%81%B0%E3%81%A8%E3%82%B9%E3%82%A4%E3%83%BC%E3%83%88%E4%BF%9D%E8%82%B2%E5%9C%92/data=!4m7!3m6!1s0x60222516df8181a9:0x50001b5dc95e0925!8m2!3d36.3606536!4d140.4851228!16s%2Fg%2F11h5jv0qls!19sChIJqYGB3xYlImARJQleyV0bAFA?authuser=0&hl=ja&rclk=1",
    "category": "保育園"
  },
  {
    "name": "あさひ保育園",
    "address": "〒310-0826 茨城県水戸市渋井町",
    "latitude": 36.3595823,
    "longitude": 140.5097948,
    "link": "https://www.google.com/maps/place/%E3%81%82%E3%81%95%E3%81%B2%E4%BF%9D%E8%82%B2%E5%9C%92/data=!4m7!3m6!1s0x602225b35ddd7e6b:0xa87ecb86896cef09!8m2!3d36.3595823!4d140.5097948!16s%2Fg%2F11g1mvn887!19sChIJa37dXbMlImARCe9siYbLfqg?authuser=0&hl=ja&rclk=1",
    "category": "保育園"
  },
  {
    "name": "スマイルハウス水戸",
    "address": "〒310-0852 茨城県水戸市笠原町９７８−３９ ロゼオ水戸 内",
    "latitude": 36.3400169,
    "longitude": 140.4513038,
    "link": "https://www.google.com/maps/place/%E3%82%B9%E3%83%9E%E3%82%A4%E3%83%AB%E3%83%8F%E3%82%A6%E3%82%B9%E6%B0%B4%E6%88%B8/data=!4m7!3m6!1s0x602224bf56d06069:0xd79826ed898fb92b!8m2!3d36.3400169!4d140.4513038!16s%2Fg%2F11btrr5hp9!19sChIJaWDQVr8kImARK7mPie0mmNc?authuser=0&hl=ja&rclk=1",
    "category": ""
  },
  {
    "name": "一の牧保育所",
    "address": "〒310-0913 茨城県水戸市見川町２１３１−１７４１",
    "latitude": 36.3644077,
    "longitude": 140.4252272,
    "link": "https://www.google.com/maps/place/%E4%B8%80%E3%81%AE%E7%89%A7%E4%BF%9D%E8%82%B2%E6%89%80/data=!4m7!3m6!1s0x6022238ec9c89f6b:0x5aa416a8ad16fbed!8m2!3d36.3644077!4d140.4252272!16s%2Fg%2F1tl9mpgq!19sChIJa5_IyY4jImAR7fsWragWpFo?authuser=0&hl=ja&rclk=1",
    "category": "保育園"
  },
  {
    "name": "茨城大学教育学部附属幼稚園",
    "address": "〒310-0011 茨城県水戸市三の丸２丁目６−８ 茨城大教育学部附属",
    "latitude": 36.3746378,
    "longitude": 140.4793908,
    "link": "https://www.google.com/maps/place/%E8%8C%A8%E5%9F%8E%E5%A4%A7%E5%AD%A6%E6%95%99%E8%82%B2%E5%AD%A6%E9%83%A8%E9%99%84%E5%B1%9E%E5%B9%BC%E7%A8%9A%E5%9C%92/data=!4m7!3m6!1s0x602225a9b6edacdb:0xc6c9f782b90611ea!8m2!3d36.3746378!4d140.4793908!16s%2Fg%2F121w1k6b!19sChIJ26zttqklImAR6hEGuYL3ycY?authuser=0&hl=ja&rclk=1",
    "category": "幼稚園"
  },
  {
    "name": "緑岡保育所",
    "address": "〒310-0913 茨城県水戸市見川町２１３１−１５１９",
    "latitude": 36.3562636,
    "longitude": 140.4338185,
    "link": "https://www.google.com/maps/place/%E7%B7%91%E5%B2%A1%E4%BF%9D%E8%82%B2%E6%89%80/data=!4m7!3m6!1s0x6022247e364284f3:0xc8c6c76d546af615!8m2!3d36.3562636!4d140.4338185!16s%2Fg%2F1tffd9f1!19sChIJ84RCNn4kImARFfZqVG3Hxsg?authuser=0&hl=ja&rclk=1",
    "category": "保育園"
  },
  {
    "name": "こはく保育室",
    "address": "〒310-0818 茨城県水戸市東台１丁目５−３４",
    "latitude": 36.3665238,
    "longitude": 140.4927214,
    "link": "https://www.google.com/maps/place/%E3%81%93%E3%81%AF%E3%81%8F%E4%BF%9D%E8%82%B2%E5%AE%A4/data=!4m7!3m6!1s0x60222569afdb1c31:0xe0f8f944c16bb371!8m2!3d36.3665238!4d140.4927214!16s%2Fg%2F11vcx47jrx!19sChIJMRzbr2klImARcbNrwUT5-OA?authuser=0&hl=ja&rclk=1",
    "category": "保育園"
  },
  {
    "name": "杉山保育所",
    "address": "〒310-0011 茨城県水戸市三の丸３丁目１２−５",
    "latitude": 36.3727163,
    "longitude": 140.4851336,
    "link": "https://www.google.com/maps/place/%E6%9D%89%E5%B1%B1%E4%BF%9D%E8%82%B2%E6%89%80/data=!4m7!3m6!1s0x60222508fd791d19:0x8d1d822522c93a9d!8m2!3d36.3727163!4d140.4851336!16s%2Fg%2F1tcz8f9f!19sChIJGR15_QglImARnTrJIiWCHY0?authuser=0&hl=ja&rclk=1",
    "category": "保育園"
  },
  {
    "name": "すずらん石川保育園",
    "address": "〒310-0905 茨城県水戸市石川１丁目３８５８−１",
    "latitude": 36.3950349,
    "longitude": 140.4284521,
    "link": "https://www.google.com/maps/place/%E3%81%99%E3%81%9A%E3%82%89%E3%82%93%E7%9F%B3%E5%B7%9D%E4%BF%9D%E8%82%B2%E5%9C%92/data=!4m7!3m6!1s0x6022215375d4a87f:0xdde707ecd2a04823!8m2!3d36.3950349!4d140.4284521!16s%2Fg%2F11h_rbqjwt!19sChIJf6jUdVMhImARI0ig0uwH590?authuser=0&hl=ja&rclk=1",
    "category": "保育園"
  },
  {
    "name": "泉町保育園",
    "address": "〒310-0026 茨城県水戸市泉町２丁目４−２８ オフィス水戸ビル",
    "latitude": 36.3802682,
    "longitude": 140.4634664,
    "link": "https://www.google.com/maps/place/%E6%B3%89%E7%94%BA%E4%BF%9D%E8%82%B2%E5%9C%92/data=!4m7!3m6!1s0x6022244f3132d10d:0x1775f6a221d9987!8m2!3d36.3802682!4d140.4634664!16s%2Fg%2F11c1wrkfjm!19sChIJDdEyMU8kImARh5kdImpfdwE?authuser=0&hl=ja&rclk=1",
    "category": "保育園"
  },
  {
    "name": "こばと東保育園分園",
    "address": "〒310-0813 茨城県水戸市浜田町５４−２ 社会福祉法人 こばと福祉会 こばと東保育園分園",
    "latitude": 36.361264,
    "longitude": 140.4941437,
    "link": "https://www.google.com/maps/place/%E3%81%93%E3%81%B0%E3%81%A8%E6%9D%B1%E4%BF%9D%E8%82%B2%E5%9C%92%E5%88%86%E5%9C%92/data=!4m7!3m6!1s0x6022256a9be4592d:0x55e6d83b10c5a3d!8m2!3d36.361264!4d140.4941437!16s%2Fg%2F1t_wpgc0!19sChIJLVnkm2olImARPVoMsYNtXgU?authuser=0&hl=ja&rclk=1",
    "category": "保育園"
  },
  {
    "name": "こばと保育園 本園",
    "address": "〒310-0851 茨城県水戸市千波町２６００−４",
    "latitude": 36.366935,
    "longitude": 140.4501265,
    "link": "https://www.google.com/maps/place/%E3%81%93%E3%81%B0%E3%81%A8%E4%BF%9D%E8%82%B2%E5%9C%92+%E6%9C%AC%E5%9C%92/data=!4m7!3m6!1s0x602225b8d489198d:0x5a26980d89f402c!8m2!3d36.366935!4d140.4501265!16s%2Fg%2F11g4crgf_n!19sChIJjRmJ1LglImARLECf2IBpogU?authuser=0&hl=ja&rclk=1",
    "category": "保育園"
  },
  {
    "name": "レイほいくえん",
    "address": "〒310-0852 茨城県水戸市笠原町１１３６−１",
    "latitude": 36.3494749,
    "longitude": 140.45079,
    "link": "https://www.google.com/maps/place/%E3%83%AC%E3%82%A4%E3%81%BB%E3%81%84%E3%81%8F%E3%81%88%E3%82%93/data=!4m7!3m6!1s0x60222511da2a2a5b:0xcfe56d4f5882b857!8m2!3d36.3494749!4d140.45079!16s%2Fg%2F11qs6g_6gj!19sChIJWyoq2hElImARV7iCWE9t5c8?authuser=0&hl=ja&rclk=1",
    "category": "保育園"
  },
  {
    "name": "水戸市立吉田小学校",
    "address": "〒310-0836 茨城県水戸市元吉田町１７５７−１",
    "latitude": 36.345308,
    "longitude": 140.475752,
    "link": "https://www.google.com/maps/place/%E6%B0%B4%E6%88%B8%E5%B8%82%E7%AB%8B%E5%90%89%E7%94%B0%E5%B0%8F%E5%AD%A6%E6%A0%A1/data=!4m7!3m6!1s0x602225263fa7b6cb:0xca339f677bee0fa!8m2!3d36.345308!4d140.475752!16s%2Fg%2F1tdx__jm!19sChIJy7anPyYlImAR-uC-d_Y5oww?authuser=0&hl=ja&rclk=1",
    "category": "小学校"
  },
  {
    "name": "水戸市立寿小学校",
    "address": "〒310-0853 茨城県水戸市平須町１８０９−１",
    "latitude": 36.3289077,
    "longitude": 140.4316638,
    "link": "https://www.google.com/maps/place/%E6%B0%B4%E6%88%B8%E5%B8%82%E7%AB%8B%E5%AF%BF%E5%B0%8F%E5%AD%A6%E6%A0%A1/data=!4m7!3m6!1s0x602224a799356455:0xbf48e45fea7a4e70!8m2!3d36.3289077!4d140.4316638!16s%2Fg%2F125n12lgh!19sChIJVWQ1mackImARcE566l_kSL8?authuser=0&hl=ja&rclk=1",
    "category": "小学校"
  },
  {
    "name": "水戸市立城東小学校",
    "address": "〒310-0012 茨城県水戸市城東２丁目７−６２",
    "latitude": 36.373208,
    "longitude": 140.493431,
    "link": "https://www.google.com/maps/place/%E6%B0%B4%E6%88%B8%E5%B8%82%E7%AB%8B%E5%9F%8E%E6%9D%B1%E5%B0%8F%E5%AD%A6%E6%A0%A1/data=!4m7!3m6!1s0x602225734929be53:0x343e1e1db20d3d96!8m2!3d36.373208!4d140.493431!16s%2Fg%2F1tdz01pt!19sChIJU74pSXMlImARlj0Nsh0ePjQ?authuser=0&hl=ja&rclk=1",
    "category": "小学校"
  },
  {
    "name": "水戸市立千波小学校",
    "address": "〒310-0851 茨城県水戸市千波町１５３８−１",
    "latitude": 36.355035,
    "longitude": 140.465464,
    "link": "https://www.google.com/maps/place/%E6%B0%B4%E6%88%B8%E5%B8%82%E7%AB%8B%E5%8D%83%E6%B3%A2%E5%B0%8F%E5%AD%A6%E6%A0%A1/data=!4m7!3m6!1s0x602224e44ef63c69:0x623a58b0414f46ae!8m2!3d36.355035!4d140.465464!16s%2Fg%2F1tt8cclj!19sChIJaTz2TuQkImARrkZPQbBYOmI?authuser=0&hl=ja&rclk=1",
    "category": "小学校"
  },
  {
    "name": "水戸市立 大場小学校",
    "address": "〒311-1125 茨城県水戸市大場町２４８９",
    "latitude": 36.3217658,
    "longitude": 140.521286,
    "link": "https://www.google.com/maps/place/%E6%B0%B4%E6%88%B8%E5%B8%82%E7%AB%8B+%E5%A4%A7%E5%A0%B4%E5%B0%8F%E5%AD%A6%E6%A0%A1/data=!4m7!3m6!1s0x6022307ba6c145f9:0xa76612cb084c36b9!8m2!3d36.3217658!4d140.521286!16s%2Fg%2F122z_rt5!19sChIJ-UXBpnswImARuTZMCMsSZqc?authuser=0&hl=ja&rclk=1",
    "category": "小学校"
  },
  {
    "name": "水戸市立三の丸小学校",
    "address": "〒310-0011 茨城県水戸市三の丸１丁目６−５１",
    "latitude": 36.3748784,
    "longitude": 140.4765294,
    "link": "https://www.google.com/maps/place/%E6%B0%B4%E6%88%B8%E5%B8%82%E7%AB%8B%E4%B8%89%E3%81%AE%E4%B8%B8%E5%B0%8F%E5%AD%A6%E6%A0%A1/data=!4m7!3m6!1s0x602225abcfd2713f:0xaf9e450ca1e0a06a!8m2!3d36.3748784!4d140.4765294!16s%2Fg%2F1td0n3wm!19sChIJP3HSz6slImARaqDgoQxFnq8?authuser=0&hl=ja&rclk=1",
    "category": "小学校"
  },
  {
    "name": "水戸市立笠原小学校",
    "address": "〒310-0852 茨城県水戸市笠原町３４７−１７",
    "latitude": 36.3440796,
    "longitude": 140.4545205,
    "link": "https://www.google.com/maps/place/%E6%B0%B4%E6%88%B8%E5%B8%82%E7%AB%8B%E7%AC%A0%E5%8E%9F%E5%B0%8F%E5%AD%A6%E6%A0%A1/data=!4m7!3m6!1s0x602224c1cc8bcef1:0xc53096095d8b5238!8m2!3d36.3440796!4d140.4545205!16s%2Fg%2F1tk1n2v6!19sChIJ8c6LzMEkImAROFKLXQmWMMU?authuser=0&hl=ja&rclk=1",
    "category": "小学校"
  },
  {
    "name": "水戸市立内原小学校",
    "address": "〒319-0315 茨城県水戸市内原町１４５１",
    "latitude": 36.3621697,
    "longitude": 140.358933,
    "link": "https://www.google.com/maps/place/%E6%B0%B4%E6%88%B8%E5%B8%82%E7%AB%8B%E5%86%85%E5%8E%9F%E5%B0%8F%E5%AD%A6%E6%A0%A1/data=!4m7!3m6!1s0x6022221d57a8e421:0xc801831ec39230db!8m2!3d36.3621697!4d140.358933!16s%2Fg%2F1tkp52f9!19sChIJIeSoVx0iImAR2zCSwx6DAcg?authuser=0&hl=ja&rclk=1",
    "category": "小学校"
  },
  {
    "name": "水戸市立稲荷第一小学校",
    "address": "〒311-1115 茨城県水戸市大串町１４２−１",
    "latitude": 36.337191,
    "longitude": 140.537424,
    "link": "https://www.google.com/maps/place/%E6%B0%B4%E6%88%B8%E5%B8%82%E7%AB%8B%E7%A8%B2%E8%8D%B7%E7%AC%AC%E4%B8%80%E5%B0%8F%E5%AD%A6%E6%A0%A1/data=!4m7!3m6!1s0x602230416f0cf8b5:0x660852c9e2b964b0!8m2!3d36.337191!4d140.537424!16s%2Fg%2F1tct8v4p!19sChIJtfgMb0EwImARsGS54slSCGY?authuser=0&hl=ja&rclk=1",
    "category": "小学校"
  },
  {
    "name": "水戸市立鯉淵小学校",
    "address": "〒319-0323 茨城県水戸市鯉淵町３０００",
    "latitude": 36.3444474,
    "longitude": 140.3708706,
    "link": "https://www.google.com/maps/place/%E6%B0%B4%E6%88%B8%E5%B8%82%E7%AB%8B%E9%AF%89%E6%B7%B5%E5%B0%8F%E5%AD%A6%E6%A0%A1/data=!4m7!3m6!1s0x602222419db111f7:0x7e6c49dd584207cb!8m2!3d36.3444474!4d140.3708706!16s%2Fg%2F1vqmjgtn!19sChIJ9xGxnUEiImARywdCWN1JbH4?authuser=0&hl=ja&rclk=1",
    "category": "小学校"
  },
  {
    "name": "水戸市立浜田小学校",
    "address": "〒310-0812 茨城県水戸市浜田１丁目１−１",
    "latitude": 36.363817,
    "longitude": 140.494867,
    "link": "https://www.google.com/maps/place/%E6%B0%B4%E6%88%B8%E5%B8%82%E7%AB%8B%E6%B5%9C%E7%94%B0%E5%B0%8F%E5%AD%A6%E6%A0%A1/data=!4m7!3m6!1s0x6022256b0f8de055:0x53ec2aa445fa52f3!8m2!3d36.363817!4d140.494867!16s%2Fg%2F1wfcp7pn!19sChIJVeCND2slImAR81L6RaQq7FM?authuser=0&hl=ja&rclk=1",
    "category": "小学校"
  },
  {
    "name": "水戸市立梅が丘小学校",
    "address": "〒311-4151 茨城県水戸市姫子１丁目８２７−２",
    "latitude": 36.3809,
    "longitude": 140.432638,
    "link": "https://www.google.com/maps/place/%E6%B0%B4%E6%88%B8%E5%B8%82%E7%AB%8B%E6%A2%85%E3%81%8C%E4%B8%98%E5%B0%8F%E5%AD%A6%E6%A0%A1/data=!4m7!3m6!1s0x6022240843158ef9:0x70bd260e89bf83b7!8m2!3d36.3809!4d140.432638!16s%2Fg%2F1tk_pcwb!19sChIJ-Y4VQwgkImARt4O_iQ4mvXA?authuser=0&hl=ja&rclk=1",
    "category": "小学校"
  },
  {
    "name": "水戸市立妻里小学校",
    "address": "〒319-0305 茨城県水戸市中原町６８２",
    "latitude": 36.381213,
    "longitude": 140.360513,
    "link": "https://www.google.com/maps/place/%E6%B0%B4%E6%88%B8%E5%B8%82%E7%AB%8B%E5%A6%BB%E9%87%8C%E5%B0%8F%E5%AD%A6%E6%A0%A1/data=!4m7!3m6!1s0x602221e828193809:0xad05906274e6527c!8m2!3d36.381213!4d140.360513!16s%2Fg%2F1tfxy412!19sChIJCTgZKOghImARfFLmdGKQBa0?authuser=0&hl=ja&rclk=1",
    "category": "小学校"
  },
  {
    "name": "水戸市立石川小学校",
    "address": "〒310-0905 茨城県水戸市石川４丁目４０３５",
    "latitude": 36.389347,
    "longitude": 140.4220275,
    "link": "https://www.google.com/maps/place/%E6%B0%B4%E6%88%B8%E5%B8%82%E7%AB%8B%E7%9F%B3%E5%B7%9D%E5%B0%8F%E5%AD%A6%E6%A0%A1/data=!4m7!3m6!1s0x60222157070ed063:0xa4943d2a3ea63181!8m2!3d36.389347!4d140.4220275!16s%2Fg%2F1tr9njfr!19sChIJY9AOB1chImARgTGmPio9lKQ?authuser=0&hl=ja&rclk=1",
    "category": "小学校"
  },
  {
    "name": "水戸市立河和田小学校",
    "address": "〒311-4153 茨城県水戸市河和田町１０１９",
    "latitude": 36.368515,
    "longitude": 140.413001,
    "link": "https://www.google.com/maps/place/%E6%B0%B4%E6%88%B8%E5%B8%82%E7%AB%8B%E6%B2%B3%E5%92%8C%E7%94%B0%E5%B0%8F%E5%AD%A6%E6%A0%A1/data=!4m7!3m6!1s0x602223ebb41cfe67:0x8e75f04285321b02!8m2!3d36.368515!4d140.413001!16s%2Fg%2F1tqg0fm3!19sChIJZ_4ctOsjImARAhsyhULwdY4?authuser=0&hl=ja&rclk=1",
    "category": "小学校"
  },
  {
    "name": "水戸市立緑岡小学校",
    "address": "〒310-0913 茨城県水戸市見川町２５６３",
    "latitude": 36.3560972,
    "longitude": 140.4439327,
    "link": "https://www.google.com/maps/place/%E6%B0%B4%E6%88%B8%E5%B8%82%E7%AB%8B%E7%B7%91%E5%B2%A1%E5%B0%8F%E5%AD%A6%E6%A0%A1/data=!4m7!3m6!1s0x602224891c297995:0x5f8d3f01030dc4c!8m2!3d36.3560972!4d140.4439327!16s%2Fg%2F1vxcwjks!19sChIJlXkpHIkkImARTNwwEPDT-AU?authuser=0&hl=ja&rclk=1",
    "category": "小学校"
  },
  {
    "name": "水戸市立新荘小学校",
    "address": "〒310-0036 茨城県水戸市新荘２丁目１１−１",
    "latitude": 36.3856373,
    "longitude": 140.4522655,
    "link": "https://www.google.com/maps/place/%E6%B0%B4%E6%88%B8%E5%B8%82%E7%AB%8B%E6%96%B0%E8%8D%98%E5%B0%8F%E5%AD%A6%E6%A0%A1/data=!4m7!3m6!1s0x6022243dfaab569b:0x3b6e38f19d8d1f6c!8m2!3d36.3856373!4d140.4522655!16s%2Fg%2F1v9lbwwk!19sChIJm1ar-j0kImARbB-NnfE4bjs?authuser=0&hl=ja&rclk=1",
    "category": "小学校"
  },
  {
    "name": "水戸市立渡里小学校",
    "address": "〒310-0903 茨城県水戸市堀町４６８−１",
    "latitude": 36.405997,
    "longitude": 140.427227,
    "link": "https://www.google.com/maps/place/%E6%B0%B4%E6%88%B8%E5%B8%82%E7%AB%8B%E6%B8%A1%E9%87%8C%E5%B0%8F%E5%AD%A6%E6%A0%A1/data=!4m7!3m6!1s0x6022214a417de50b:0xb1b052deb90cee64!8m2!3d36.405997!4d140.427227!16s%2Fg%2F1thgh44j!19sChIJC-V9QUohImARZO4Mud5SsLE?authuser=0&hl=ja&rclk=1",
    "category": "小学校"
  },
  {
    "name": "水戸市立上中妻小学校",
    "address": "〒311-4143 茨城県水戸市大塚町１０８６−２",
    "latitude": 36.38344,
    "longitude": 140.392064,
    "link": "https://www.google.com/maps/place/%E6%B0%B4%E6%88%B8%E5%B8%82%E7%AB%8B%E4%B8%8A%E4%B8%AD%E5%A6%BB%E5%B0%8F%E5%AD%A6%E6%A0%A1/data=!4m7!3m6!1s0x60222179cab1439b:0x7370934f3ce3657!8m2!3d36.38344!4d140.392064!16s%2Fg%2F1tgf39xp!19sChIJm0OxynkhImARVzbO8zQJNwc?authuser=0&hl=ja&rclk=1",
    "category": "小学校"
  },
  {
    "name": "水戸市立吉沢小学校",
    "address": "〒310-0845 茨城県水戸市吉沢町１６９−１",
    "latitude": 36.333704,
    "longitude": 140.461967,
    "link": "https://www.google.com/maps/place/%E6%B0%B4%E6%88%B8%E5%B8%82%E7%AB%8B%E5%90%89%E6%B2%A2%E5%B0%8F%E5%AD%A6%E6%A0%A1/data=!4m7!3m6!1s0x602224d207cee76d:0x858cd6247cadc8e3!8m2!3d36.333704!4d140.461967!16s%2Fg%2F1wg5y396!19sChIJbefOB9IkImAR48itfCTWjIU?authuser=0&hl=ja&rclk=1",
    "category": "小学校"
  },
  {
    "name": "日立市 おおくぼ保育園",
    "address": "〒316-0006 茨城県日立市末広町１丁目１−５",
    "latitude": 36.5573663,
    "longitude": 140.6248782,
    "link": "https://www.google.com/maps/place/%E6%97%A5%E7%AB%8B%E5%B8%82+%E3%81%8A%E3%81%8A%E3%81%8F%E3%81%BC%E4%BF%9D%E8%82%B2%E5%9C%92/data=!4m7!3m6!1s0x602180931fd8752d:0xd3207c289c36901!8m2!3d36.5573663!4d140.6248782!16s%2Fg%2F1tfv0n7l!19sChIJLXXYH5OAIWARAWnDicIHMg0?authuser=0&hl=ja&rclk=1",
    "category": "保育園"
  },
  {
    "name": "こどものいえ認定こども園",
    "address": "〒319-1414 茨城県日立市日高町１丁目１４−１１",
    "latitude": 36.634867,
    "longitude": 140.676157,
    "link": "https://www.google.com/maps/place/%E3%81%93%E3%81%A9%E3%82%82%E3%81%AE%E3%81%84%E3%81%88%E8%AA%8D%E5%AE%9A%E3%81%93%E3%81%A9%E3%82%82%E5%9C%92/data=!4m7!3m6!1s0x60218201c805f1ed:0x2d3a6fa6216ba4ce!8m2!3d36.634867!4d140.676157!16s%2Fg%2F11flt2yvmr!19sChIJ7fEFyAGCIWARzqRrIaZvOi0?authuser=0&hl=ja&rclk=1",
    "category": "こども園"
  },
  {
    "name": "認定こども園 せいじ園",
    "address": "〒317-0065 茨城県日立市助川町１丁目１６−１",
    "latitude": 36.595057,
    "longitude": 140.649148,
    "link": "https://www.google.com/maps/place/%E8%AA%8D%E5%AE%9A%E3%81%93%E3%81%A9%E3%82%82%E5%9C%92+%E3%81%9B%E3%81%84%E3%81%98%E5%9C%92/data=!4m7!3m6!1s0x602181b011fd05b3:0x63405c44c5085b12!8m2!3d36.595057!4d140.649148!16s%2Fg%2F1tfm1kmb!19sChIJswX9EbCBIWARElsIxURcQGM?authuser=0&hl=ja&rclk=1",
    "category": "こども園"
  },
  {
    "name": "いしまち認定こども園",
    "address": "〒319-1301 茨城県日立市十王町伊師３４４７−１",
    "latitude": 36.677801,
    "longitude": 140.69992,
    "link": "https://www.google.com/maps/place/%E3%81%84%E3%81%97%E3%81%BE%E3%81%A1%E8%AA%8D%E5%AE%9A%E3%81%93%E3%81%A9%E3%82%82%E5%9C%92/data=!4m7!3m6!1s0x6021788ad36eca03:0xd6e4cf9bf7de4d32!8m2!3d36.677801!4d140.69992!16s%2Fg%2F1t_hz2jn!19sChIJA8pu04p4IWARMk3e95vP5NY?authuser=0&hl=ja&rclk=1",
    "category": "こども園"
  },
  {
    "name": "みやた認定こども園",
    "address": "〒317-0054 茨城県日立市本宮町２丁目１０−２２",
    "latitude": 36.60472,
    "longitude": 140.661849,
    "link": "https://www.google.com/maps/place/%E3%81%BF%E3%82%84%E3%81%9F%E8%AA%8D%E5%AE%9A%E3%81%93%E3%81%A9%E3%82%82%E5%9C%92/data=!4m7!3m6!1s0x602181c6d01b7129:0x109693afb7166f92!8m2!3d36.60472!4d140.661849!16s%2Fg%2F1tfctb0p!19sChIJKXEb0MaBIWARkm8Wt6-TlhA?authuser=0&hl=ja&rclk=1",
    "category": "こども園"
  },
  {
    "name": "すずらん保育園",
    "address": "〒317-0052 茨城県日立市東滑川町１丁目３４−７",
    "latitude": 36.606125,
    "longitude": 140.672165,
    "link": "https://www.google.com/maps/place/%E3%81%99%E3%81%9A%E3%82%89%E3%82%93%E4%BF%9D%E8%82%B2%E5%9C%92/data=!4m7!3m6!1s0x602181da5ca4792f:0xbe0fa133693b3858!8m2!3d36.606125!4d140.672165!16s%2Fg%2F1td2t_rh!19sChIJL3mkXNqBIWARWDg7aTOhD74?authuser=0&hl=ja&rclk=1",
    "category": "保育園"
  },
  {
    "name": "多賀さくら認定こども園",
    "address": "〒316-0014 茨城県日立市東金沢町４丁目２−１",
    "latitude": 36.540852,
    "longitude": 140.629505,
    "link": "https://www.google.com/maps/place/%E5%A4%9A%E8%B3%80%E3%81%95%E3%81%8F%E3%82%89%E8%AA%8D%E5%AE%9A%E3%81%93%E3%81%A9%E3%82%82%E5%9C%92/data=!4m7!3m6!1s0x60222a785cc3a9cb:0x175cf13c45cc9690!8m2!3d36.540852!4d140.629505!16s%2Fg%2F1tgp0xtc!19sChIJy6nDXHgqImARkJbMRTzxXBc?authuser=0&hl=ja&rclk=1",
    "category": "こども園"
  },
  {
    "name": "日立市立かみちょう保育園",
    "address": "〒317-0071 茨城県日立市鹿島町２丁目７−９",
    "latitude": 36.593046,
    "longitude": 140.649892,
    "link": "https://www.google.com/maps/place/%E6%97%A5%E7%AB%8B%E5%B8%82%E7%AB%8B%E3%81%8B%E3%81%BF%E3%81%A1%E3%82%87%E3%81%86%E4%BF%9D%E8%82%B2%E5%9C%92/data=!4m7!3m6!1s0x602181b1b98a1d4b:0x21b9fa5528233c67!8m2!3d36.593046!4d140.649892!16s%2Fg%2F1tf02l4g!19sChIJSx2KubGBIWARZzwjKFX6uSE?authuser=0&hl=ja&rclk=1",
    "category": "保育園"
  },
  {
    "name": "日立市かみね保育園",
    "address": "〒317-0055 茨城県日立市宮田町３丁目６−１５",
    "latitude": 36.6057322,
    "longitude": 140.6554652,
    "link": "https://www.google.com/maps/place/%E6%97%A5%E7%AB%8B%E5%B8%82%E3%81%8B%E3%81%BF%E3%81%AD%E4%BF%9D%E8%82%B2%E5%9C%92/data=!4m7!3m6!1s0x602181be46d6de01:0x9fe37d3612f730db!8m2!3d36.6057322!4d140.6554652!16s%2Fg%2F1t_kgmy3!19sChIJAd7WRr6BIWAR2zD3EjZ9458?authuser=0&hl=ja&rclk=1",
    "category": "保育園"
  },
  {
    "name": "日立市ゆなご保育園",
    "address": "〒316-0036 茨城県日立市鮎川町６丁目１９−２８",
    "latitude": 36.568863,
    "longitude": 140.632892,
    "link": "https://www.google.com/maps/place/%E6%97%A5%E7%AB%8B%E5%B8%82%E3%82%86%E3%81%AA%E3%81%94%E4%BF%9D%E8%82%B2%E5%9C%92/data=!4m7!3m6!1s0x602180f72bae64bf:0x1cd90e6ead7b6717!8m2!3d36.568863!4d140.632892!16s%2Fg%2F1tj21nbg!19sChIJv2SuK_eAIWARF2d7rW4O2Rw?authuser=0&hl=ja&rclk=1",
    "category": "保育園"
  },
  {
    "name": "ワールドキッズ学園",
    "address": "〒317-0077 茨城県日立市城南町１丁目１０−３",
    "latitude": 36.5853873,
    "longitude": 140.6441855,
    "link": "https://www.google.com/maps/place/%E3%83%AF%E3%83%BC%E3%83%AB%E3%83%89%E3%82%AD%E3%83%83%E3%82%BA%E5%AD%A6%E5%9C%92/data=!4m7!3m6!1s0x602181acc9a7fa5d:0xcadaed63846a615c!8m2!3d36.5853873!4d140.6441855!16s%2Fg%2F11gbwwt76r!19sChIJXfqnyayBIWARXGFqhGPt2so?authuser=0&hl=ja&rclk=1",
    "category": ""
  },
  {
    "name": "森山聖徳保育園",
    "address": "〒316-0025 茨城県日立市森山町３丁目１７−１",
    "latitude": 36.5219051,
    "longitude": 140.6140644,
    "link": "https://www.google.com/maps/place/%E6%A3%AE%E5%B1%B1%E8%81%96%E5%BE%B3%E4%BF%9D%E8%82%B2%E5%9C%92/data=!4m7!3m6!1s0x60222a147ae47259:0xf7b53140f8e048e3!8m2!3d36.5219051!4d140.6140644!16s%2Fg%2F1tgfq6zr!19sChIJWXLkehQqImAR40jg-EAxtfc?authuser=0&hl=ja&rclk=1",
    "category": "保育園"
  },
  {
    "name": "認定こども園ほほえみ学びの森わかば園",
    "address": "〒316-0025 茨城県日立市森山町１０８５−１",
    "latitude": 36.5238302,
    "longitude": 140.6090491,
    "link": "https://www.google.com/maps/place/%E8%AA%8D%E5%AE%9A%E3%81%93%E3%81%A9%E3%82%82%E5%9C%92%E3%81%BB%E3%81%BB%E3%81%88%E3%81%BF%E5%AD%A6%E3%81%B3%E3%81%AE%E6%A3%AE%E3%82%8F%E3%81%8B%E3%81%B0%E5%9C%92/data=!4m7!3m6!1s0x60222bfa9c2aa383:0x9c4f24b6cf2a8b71!8m2!3d36.5238302!4d140.6090491!16s%2Fg%2F11gmhsx1ks!19sChIJg6MqnPorImARcYsqz7YkT5w?authuser=0&hl=ja&rclk=1",
    "category": "こども園"
  },
  {
    "name": "小木津聖徳保育園",
    "address": "〒319-1413 茨城県日立市小木津町２丁目２−１１",
    "latitude": 36.641955,
    "longitude": 140.67221,
    "link": "https://www.google.com/maps/place/%E5%B0%8F%E6%9C%A8%E6%B4%A5%E8%81%96%E5%BE%B3%E4%BF%9D%E8%82%B2%E5%9C%92/data=!4m7!3m6!1s0x6021820f6ff93949:0xacaff35897a23c1d!8m2!3d36.641955!4d140.67221!16s%2Fg%2F1hbpwrp_x!19sChIJSTn5bw-CIWARHTyil1jzr6w?authuser=0&hl=ja&rclk=1",
    "category": "保育園"
  },
  {
    "name": "日立市立はなやま認定こども園",
    "address": "〒316-0015 茨城県日立市金沢町２丁目１０−２３",
    "latitude": 36.546467,
    "longitude": 140.617397,
    "link": "https://www.google.com/maps/place/%E6%97%A5%E7%AB%8B%E5%B8%82%E7%AB%8B%E3%81%AF%E3%81%AA%E3%82%84%E3%81%BE%E8%AA%8D%E5%AE%9A%E3%81%93%E3%81%A9%E3%82%82%E5%9C%92/data=!4m7!3m6!1s0x60218098010a9f0f:0xe7633f56a9790184!8m2!3d36.546467!4d140.617397!16s%2Fg%2F1td2h015!19sChIJD58KAZiAIWARhAF5qVY_Y-c?authuser=0&hl=ja&rclk=1",
    "category": "こども園"
  },
  {
    "name": "日立市おおもり保育園",
    "address": "〒317-0061 茨城県日立市東町１丁目４−３",
    "latitude": 36.597554,
    "longitude": 140.660591,
    "link": "https://www.google.com/maps/place/%E6%97%A5%E7%AB%8B%E5%B8%82%E3%81%8A%E3%81%8A%E3%82%82%E3%82%8A%E4%BF%9D%E8%82%B2%E5%9C%92/data=!4m7!3m6!1s0x602181c9b1f09a8f:0x89a7662f81413941!8m2!3d36.597554!4d140.660591!16s%2Fg%2F1tdxqkqy!19sChIJj5rwscmBIWARQTlBgS9mp4k?authuser=0&hl=ja&rclk=1",
    "category": "保育園"
  },
  {
    "name": "れんげ保育園",
    "address": "〒316-0025 茨城県日立市森山町３丁目９−７",
    "latitude": 36.5234,
    "longitude": 140.615995,
    "link": "https://www.google.com/maps/place/%E3%82%8C%E3%82%93%E3%81%92%E4%BF%9D%E8%82%B2%E5%9C%92/data=!4m7!3m6!1s0x60222a135e762191:0xfdeb6a6c36b1c00e!8m2!3d36.5234!4d140.615995!16s%2Fg%2F1tftff4h!19sChIJkSF2XhMqImARDsCxNmxq6_0?authuser=0&hl=ja&rclk=1",
    "category": "保育園"
  },
  {
    "name": "家庭的保育園 ゆりかご保育室",
    "address": "〒319-1222 茨城県日立市久慈町６丁目３−８",
    "latitude": 36.5068777,
    "longitude": 140.6129112,
    "link": "https://www.google.com/maps/place/%E5%AE%B6%E5%BA%AD%E7%9A%84%E4%BF%9D%E8%82%B2%E5%9C%92+%E3%82%86%E3%82%8A%E3%81%8B%E3%81%94%E4%BF%9D%E8%82%B2%E5%AE%A4/data=!4m7!3m6!1s0x60222bd6d373325d:0x91890100e7e915ae!8m2!3d36.5068777!4d140.6129112!16s%2Fg%2F11pzy6zxpl!19sChIJXTJz09YrImARrhXp5wABiZE?authuser=0&hl=ja&rclk=1",
    "category": "保育園"
  },
  {
    "name": "日立市 くじ保育園",
    "address": "〒319-1222 茨城県日立市久慈町２丁目１０−５５",
    "latitude": 36.5026786,
    "longitude": 140.6151182,
    "link": "https://www.google.com/maps/place/%E6%97%A5%E7%AB%8B%E5%B8%82+%E3%81%8F%E3%81%98%E4%BF%9D%E8%82%B2%E5%9C%92/data=!4m7!3m6!1s0x60222a35b0213cdb:0xa655daec0e2336eb!8m2!3d36.5026786!4d140.6151182!16s%2Fg%2F1wcxd5zt!19sChIJ2zwhsDUqImAR6zYjDuzaVaY?authuser=0&hl=ja&rclk=1",
    "category": "保育園"
  },
  {
    "name": "茨城キリスト教大学附属 認定こども園みらい園",
    "address": "〒319-1221 茨城県日立市大みか町６丁目１１−１ 認定こども園 みらい園",
    "latitude": 36.5129604,
    "longitude": 140.6177527,
    "link": "https://www.google.com/maps/place/%E8%8C%A8%E5%9F%8E%E3%82%AD%E3%83%AA%E3%82%B9%E3%83%88%E6%95%99%E5%A4%A7%E5%AD%A6%E9%99%84%E5%B1%9E+%E8%AA%8D%E5%AE%9A%E3%81%93%E3%81%A9%E3%82%82%E5%9C%92%E3%81%BF%E3%82%89%E3%81%84%E5%9C%92/data=!4m7!3m6!1s0x60222a3f4dd9ff3f:0x9f2448dd0097897a!8m2!3d36.5129604!4d140.6177527!16s%2Fg%2F1jklcp0mp!19sChIJP__ZTT8qImAReomXAN1IJJ8?authuser=0&hl=ja&rclk=1",
    "category": "こども園"
  },
  {
    "name": "日立市おおせ保育園",
    "address": "〒317-0076 茨城県日立市会瀬町２丁目１８−１８",
    "latitude": 36.578717,
    "longitude": 140.652079,
    "link": "https://www.google.com/maps/place/%E6%97%A5%E7%AB%8B%E5%B8%82%E3%81%8A%E3%81%8A%E3%81%9B%E4%BF%9D%E8%82%B2%E5%9C%92/data=!4m7!3m6!1s0x6021804f60940d19:0x5fe6314759151f7e!8m2!3d36.578717!4d140.652079!16s%2Fg%2F1tff7qgy!19sChIJGQ2UYE-AIWARfh8VWUcx5l8?authuser=0&hl=ja&rclk=1",
    "category": "保育園"
  },
  {
    "name": "日立市じゅうおう保育園",
    "address": "〒319-1304 茨城県日立市十王町友部１５７６",
    "latitude": 36.6764941,
    "longitude": 140.681841,
    "link": "https://www.google.com/maps/place/%E6%97%A5%E7%AB%8B%E5%B8%82%E3%81%98%E3%82%85%E3%81%86%E3%81%8A%E3%81%86%E4%BF%9D%E8%82%B2%E5%9C%92/data=!4m7!3m6!1s0x6021787f27078f1b:0x4d8098fe0a6d9806!8m2!3d36.6764941!4d140.681841!16s%2Fg%2F1tfjl75b!19sChIJG48HJ394IWARBphtCv6YgE0?authuser=0&hl=ja&rclk=1",
    "category": "保育園"
  },
  {
    "name": "ひたち聖愛保育園",
    "address": "〒316-0012 茨城県日立市大久保町２２３９",
    "latitude": 36.5518951,
    "longitude": 140.6147885,
    "link": "https://www.google.com/maps/place/%E3%81%B2%E3%81%9F%E3%81%A1%E8%81%96%E6%84%9B%E4%BF%9D%E8%82%B2%E5%9C%92/data=!4m7!3m6!1s0x602180be73428ff7:0xe19effd5edb537f8!8m2!3d36.5518951!4d140.6147885!16s%2Fg%2F1tdwvt34!19sChIJ949Cc76AIWAR-De17dX_nuE?authuser=0&hl=ja&rclk=1",
    "category": "保育園"
  },
  {
    "name": "豊浦 さくら保育園",
    "address": "〒319-1411 茨城県日立市折笠町４４７−１",
    "latitude": 36.655179,
    "longitude": 140.693041,
    "link": "https://www.google.com/maps/place/%E8%B1%8A%E6%B5%A6+%E3%81%95%E3%81%8F%E3%82%89%E4%BF%9D%E8%82%B2%E5%9C%92/data=!4m7!3m6!1s0x602178bc687388ad:0x5cb3fbb5be59e952!8m2!3d36.655179!4d140.693041!16s%2Fg%2F11bwq66b0r!19sChIJrYhzaLx4IWARUulZvrX7s1w?authuser=0&hl=ja&rclk=1",
    "category": "保育園"
  },
  {
    "name": "認定こども園十王幼稚園・保育園",
    "address": "〒319-1304 茨城県日立市十王町友部５６６",
    "latitude": 36.672746,
    "longitude": 140.681417,
    "link": "https://www.google.com/maps/place/%E8%AA%8D%E5%AE%9A%E3%81%93%E3%81%A9%E3%82%82%E5%9C%92%E5%8D%81%E7%8E%8B%E5%B9%BC%E7%A8%9A%E5%9C%92%E3%83%BB%E4%BF%9D%E8%82%B2%E5%9C%92/data=!4m7!3m6!1s0x6021787fda3fda35:0x92e43b3e2d0ef2d1!8m2!3d36.672746!4d140.681417!16s%2Fg%2F1tfxgsz4!19sChIJNdo_2n94IWAR0fIOLT475JI?authuser=0&hl=ja&rclk=1",
    "category": "こども園"
  },
  {
    "name": "おおくぼ認定こども園 大久保幼稚園",
    "address": "〒316-0012 茨城県日立市大久保町４丁目１０−７",
    "latitude": 36.554419,
    "longitude": 140.618959,
    "link": "https://www.google.com/maps/place/%E3%81%8A%E3%81%8A%E3%81%8F%E3%81%BC%E8%AA%8D%E5%AE%9A%E3%81%93%E3%81%A9%E3%82%82%E5%9C%92+%E5%A4%A7%E4%B9%85%E4%BF%9D%E5%B9%BC%E7%A8%9A%E5%9C%92/data=!4m7!3m6!1s0x602180950f244e6f:0xa6b7f0456853a252!8m2!3d36.554419!4d140.618959!16s%2Fg%2F1tdvk8t9!19sChIJb04kD5WAIWARUqJTaEXwt6Y?authuser=0&hl=ja&rclk=1",
    "category": "こども園"
  },
  {
    "name": "滑川聖徳保育園",
    "address": "〒317-0051 茨城県日立市滑川本町１丁目１５−６",
    "latitude": 36.6154708,
    "longitude": 140.6670135,
    "link": "https://www.google.com/maps/place/%E6%BB%91%E5%B7%9D%E8%81%96%E5%BE%B3%E4%BF%9D%E8%82%B2%E5%9C%92/data=!4m7!3m6!1s0x602181e8dcc53c95:0x433d7b147e8a9653!8m2!3d36.6154708!4d140.6670135!16s%2Fg%2F1tdwvt3f!19sChIJlTzF3OiBIWARU5aKfhR7PUM?authuser=0&hl=ja&rclk=1",
    "category": "保育園"
  },
  {
    "name": "社会福祉法人夢の種 南高野保育園",
    "address": "〒319-1235 茨城県日立市茂宮町１３６０−１",
    "latitude": 36.5009698,
    "longitude": 140.591292,
    "link": "https://www.google.com/maps/place/%E7%A4%BE%E4%BC%9A%E7%A6%8F%E7%A5%89%E6%B3%95%E4%BA%BA%E5%A4%A2%E3%81%AE%E7%A8%AE+%E5%8D%97%E9%AB%98%E9%87%8E%E4%BF%9D%E8%82%B2%E5%9C%92/data=!4m7!3m6!1s0x602229f325527583:0x1714fdc906bcb0b6!8m2!3d36.5009698!4d140.591292!16s%2Fg%2F11g8np5tzl!19sChIJg3VSJfMpImARtrC8Bsn9FBc?authuser=0&hl=ja&rclk=1",
    "category": "保育園"
  },
  {
    "name": "日高幼稚園",
    "address": "〒319-1414 茨城県日立市日高町２丁目１０−１０",
    "latitude": 36.6392023,
    "longitude": 140.6808414,
    "link": "https://www.google.com/maps/place/%E6%97%A5%E9%AB%98%E5%B9%BC%E7%A8%9A%E5%9C%92/data=!4m7!3m6!1s0x602178aa3ef98c87:0x61d25a1b82bff541!8m2!3d36.6392023!4d140.6808414!16s%2Fg%2F1tc_8sc5!19sChIJh4z5Pqp4IWARQfW_ghta0mE?authuser=0&hl=ja&rclk=1",
    "category": "幼稚園"
  },
  {
    "name": "もみや幼稚園",
    "address": "〒319-1235 茨城県日立市茂宮町１８８",
    "latitude": 36.508477,
    "longitude": 140.589277,
    "link": "https://www.google.com/maps/place/%E3%82%82%E3%81%BF%E3%82%84%E5%B9%BC%E7%A8%9A%E5%9C%92/data=!4m7!3m6!1s0x602229f32e297965:0xc1064278fb3b1a7!8m2!3d36.508477!4d140.589277!16s%2Fg%2F1thd6ss8!19sChIJZXkpLvMpImARp7GzjydkEAw?authuser=0&hl=ja&rclk=1",
    "category": "幼稚園"
  },
  {
    "name": "池の川幼稚園",
    "address": "〒316-0033 茨城県日立市中成沢町２丁目８−２９",
    "latitude": 36.580386,
    "longitude": 140.640199,
    "link": "https://www.google.com/maps/place/%E6%B1%A0%E3%81%AE%E5%B7%9D%E5%B9%BC%E7%A8%9A%E5%9C%92/data=!4m7!3m6!1s0x602180544d45654f:0xacf0eb2068ab2657!8m2!3d36.580386!4d140.640199!16s%2Fg%2F1tdc0rff!19sChIJT2VFTVSAIWARVyaraCDr8Kw?authuser=0&hl=ja&rclk=1",
    "category": "幼稚園"
  },
  {
    "name": "認定こども園 おぎつ幼稚園",
    "address": "〒319-1418 茨城県日立市砂沢町３６４−９",
    "latitude": 36.6630453,
    "longitude": 140.6782234,
    "link": "https://www.google.com/maps/place/%E8%AA%8D%E5%AE%9A%E3%81%93%E3%81%A9%E3%82%82%E5%9C%92+%E3%81%8A%E3%81%8E%E3%81%A4%E5%B9%BC%E7%A8%9A%E5%9C%92/data=!4m7!3m6!1s0x6021827815ae00f5:0xa100b17b154bc3d4!8m2!3d36.6630453!4d140.6782234!16s%2Fg%2F1v5fr_zx!19sChIJ9QCuFXiCIWAR1MNLFXuxAKE?authuser=0&hl=ja&rclk=1",
    "category": "こども園"
  },
  {
    "name": "日立市立大沼幼稚園",
    "address": "〒316-0014 茨城県日立市東金沢町５丁目６−６",
    "latitude": 36.538133,
    "longitude": 140.624719,
    "link": "https://www.google.com/maps/place/%E6%97%A5%E7%AB%8B%E5%B8%82%E7%AB%8B%E5%A4%A7%E6%B2%BC%E5%B9%BC%E7%A8%9A%E5%9C%92/data=!4m7!3m6!1s0x60222a7655a93101:0x3144b96b6c35bbfb!8m2!3d36.538133!4d140.624719!16s%2Fg%2F1tcz_mxy!19sChIJATGpVXYqImAR-7s1bGu5RDE?authuser=0&hl=ja&rclk=1",
    "category": "幼稚園"
  },
  {
    "name": "ひがしなるさわ幼稚園",
    "address": "〒316-0034 茨城県日立市東成沢町３丁目１６−８",
    "latitude": 36.5720833,
    "longitude": 140.6451584,
    "link": "https://www.google.com/maps/place/%E3%81%B2%E3%81%8C%E3%81%97%E3%81%AA%E3%82%8B%E3%81%95%E3%82%8F%E5%B9%BC%E7%A8%9A%E5%9C%92/data=!4m7!3m6!1s0x6021805b98cbc13d:0x23713635493ad495!8m2!3d36.5720833!4d140.6451584!16s%2Fg%2F1tdbl2pv!19sChIJPcHLmFuAIWARldQ6STU2cSM?authuser=0&hl=ja&rclk=1",
    "category": "幼稚園"
  },
  {
    "name": "諏訪かおる幼稚園",
    "address": "〒316-0003 茨城県日立市多賀町５丁目８−４",
    "latitude": 36.561297,
    "longitude": 140.635312,
    "link": "https://www.google.com/maps/place/%E8%AB%8F%E8%A8%AA%E3%81%8B%E3%81%8A%E3%82%8B%E5%B9%BC%E7%A8%9A%E5%9C%92/data=!4m7!3m6!1s0x6021808ae20c809d:0xff1cc933593b393!8m2!3d36.561297!4d140.635312!16s%2Fg%2F1vnnjhnr!19sChIJnYAM4oqAIWARk7OTNZPM8Q8?authuser=0&hl=ja&rclk=1",
    "category": "幼稚園"
  },
  {
    "name": "認定こども園ほほえみ 水木わかば幼稚園",
    "address": "〒316-0024 茨城県日立市水木町１丁目２０−１２",
    "latitude": 36.5190424,
    "longitude": 140.6281007,
    "link": "https://www.google.com/maps/place/%E8%AA%8D%E5%AE%9A%E3%81%93%E3%81%A9%E3%82%82%E5%9C%92%E3%81%BB%E3%81%BB%E3%81%88%E3%81%BF+%E6%B0%B4%E6%9C%A8%E3%82%8F%E3%81%8B%E3%81%B0%E5%B9%BC%E7%A8%9A%E5%9C%92/data=!4m7!3m6!1s0x60222a5caf4d2209:0x8c029e00eba5297!8m2!3d36.5190424!4d140.6281007!16s%2Fg%2F1td6y6wn!19sChIJCSJNr1wqImARl1K6DuApwAg?authuser=0&hl=ja&rclk=1",
    "category": "こども園"
  },
  {
    "name": "すぎの子幼稚園",
    "address": "〒316-0023 茨城県日立市東大沼町２丁目１３−２２",
    "latitude": 36.5341981,
    "longitude": 140.6278136,
    "link": "https://www.google.com/maps/place/%E3%81%99%E3%81%8E%E3%81%AE%E5%AD%90%E5%B9%BC%E7%A8%9A%E5%9C%92/data=!4m7!3m6!1s0x60222a7a84baa23b:0x2f2d0f33a9644f70!8m2!3d36.5341981!4d140.6278136!16s%2Fg%2F1tdzwt_y!19sChIJO6K6hHoqImARcE9kqTMPLS8?authuser=0&hl=ja&rclk=1",
    "category": "幼稚園"
  },
  {
    "name": "すけ川幼稚園",
    "address": "〒316-0001 茨城県日立市諏訪町１丁目１４−６",
    "latitude": 36.5653444,
    "longitude": 140.6315838,
    "link": "https://www.google.com/maps/place/%E3%81%99%E3%81%91%E5%B7%9D%E5%B9%BC%E7%A8%9A%E5%9C%92/data=!4m7!3m6!1s0x602180f3e8997183:0xf308af14a7907437!8m2!3d36.5653444!4d140.6315838!16s%2Fg%2F1td_yq42!19sChIJg3GZ6POAIWARN3SQpxSvCPM?authuser=0&hl=ja&rclk=1",
    "category": "幼稚園"
  },
  {
    "name": "ひばり幼稚園",
    "address": "〒317-0077 茨城県日立市城南町２丁目７−２２",
    "latitude": 36.5878818,
    "longitude": 140.6420396,
    "link": "https://www.google.com/maps/place/%E3%81%B2%E3%81%B0%E3%82%8A%E5%B9%BC%E7%A8%9A%E5%9C%92/data=!4m7!3m6!1s0x602181abe6687577:0x7d7f8ed519746671!8m2!3d36.5878818!4d140.6420396!16s%2Fg%2F1tfqlh8t!19sChIJd3Vo5quBIWARcWZ0GdWOf30?authuser=0&hl=ja&rclk=1",
    "category": "幼稚園"
  },
  {
    "name": "茅根学園",
    "address": "〒319-1414 茨城県日立市日高町２丁目１０−１０",
    "latitude": 36.6392023,
    "longitude": 140.6808414,
    "link": "https://www.google.com/maps/place/%E8%8C%85%E6%A0%B9%E5%AD%A6%E5%9C%92/data=!4m7!3m6!1s0x602178aa3e561e51:0xbf20bb5e5e7fe975!8m2!3d36.6392023!4d140.6808414!16s%2Fg%2F1twyzncm!19sChIJUR5WPqp4IWARdel_Xl67IL8?authuser=0&hl=ja&rclk=1",
    "category": ""
  },
  {
    "name": "めぐみが丘幼稚園",
    "address": "〒316-0025 茨城県日立市森山町２丁目２０−９",
    "latitude": 36.523564,
    "longitude": 140.619562,
    "link": "https://www.google.com/maps/place/%E3%82%81%E3%81%90%E3%81%BF%E3%81%8C%E4%B8%98%E5%B9%BC%E7%A8%9A%E5%9C%92/data=!4m7!3m6!1s0x60222a6b7453b0c5:0x72ca1b9d8ea43c63!8m2!3d36.523564!4d140.619562!16s%2Fg%2F1tgd6n0d!19sChIJxbBTdGsqImARYzykjp0bynI?authuser=0&hl=ja&rclk=1",
    "category": "幼稚園"
  },
  {
    "name": "三つ葉幼稚園",
    "address": "〒319-1225 茨城県日立市石名坂町１丁目２３",
    "latitude": 36.5107419,
    "longitude": 140.6006025,
    "link": "https://www.google.com/maps/place/%E4%B8%89%E3%81%A4%E8%91%89%E5%B9%BC%E7%A8%9A%E5%9C%92/data=!4m7!3m6!1s0x60222a2199f5ac1d:0xbdb24cf268bac279!8m2!3d36.5107419!4d140.6006025!16s%2Fg%2F1pzsxsjfk!19sChIJHaz1mSEqImARecK6aPJMsr0?authuser=0&hl=ja&rclk=1",
    "category": "幼稚園"
  },
  {
    "name": "日立市立日高小学校",
    "address": "〒319-1414 茨城県日立市日高町２丁目１２−１",
    "latitude": 36.6391,
    "longitude": 140.682648,
    "link": "https://www.google.com/maps/place/%E6%97%A5%E7%AB%8B%E5%B8%82%E7%AB%8B%E6%97%A5%E9%AB%98%E5%B0%8F%E5%AD%A6%E6%A0%A1/data=!4m7!3m6!1s0x602178aba5f5838f:0xbd7872d9184217d0!8m2!3d36.6391!4d140.682648!16s%2Fg%2F1tf5qb87!19sChIJj4P1pat4IWAR0BdCGNlyeL0?authuser=0&hl=ja&rclk=1",
    "category": "小学校"
  },
  {
    "name": "日立市立大みか小学校",
    "address": "〒319-1221 茨城県日立市大みか町３丁目１９−１５",
    "latitude": 36.513377,
    "longitude": 140.628175,
    "link": "https://www.google.com/maps/place/%E6%97%A5%E7%AB%8B%E5%B8%82%E7%AB%8B%E5%A4%A7%E3%81%BF%E3%81%8B%E5%B0%8F%E5%AD%A6%E6%A0%A1/data=!4m7!3m6!1s0x60222a50052d88f1:0x3bfa099fd7d081ec!8m2!3d36.513377!4d140.628175!16s%2Fg%2F1xpwjx43!19sChIJ8YgtBVAqImAR7IHQ158J-js?authuser=0&hl=ja&rclk=1",
    "category": "小学校"
  },
  {
    "name": "日立市立水木小学校",
    "address": "〒316-0024 茨城県日立市水木町１丁目６−１",
    "latitude": 36.5216024,
    "longitude": 140.6308647,
    "link": "https://www.google.com/maps/place/%E6%97%A5%E7%AB%8B%E5%B8%82%E7%AB%8B%E6%B0%B4%E6%9C%A8%E5%B0%8F%E5%AD%A6%E6%A0%A1/data=!4m7!3m6!1s0x60222a5c51ace289:0x4c54f56ec34eb081!8m2!3d36.5216024!4d140.6308647!16s%2Fg%2F1td_bsvp!19sChIJieKsUVwqImARgbBOw271VEw?authuser=0&hl=ja&rclk=1",
    "category": "小学校"
  },
  {
    "name": "日立市立中小路小学校",
    "address": "〒317-0062 茨城県日立市平和町２丁目４−１",
    "latitude": 36.5964274,
    "longitude": 140.6590907,
    "link": "https://www.google.com/maps/place/%E6%97%A5%E7%AB%8B%E5%B8%82%E7%AB%8B%E4%B8%AD%E5%B0%8F%E8%B7%AF%E5%B0%8F%E5%AD%A6%E6%A0%A1/data=!4m7!3m6!1s0x602181c9dba60749:0xf0269e0ce1352950!8m2!3d36.5964274!4d140.6590907!16s%2Fg%2F1v46_g8y!19sChIJSQem28mBIWARUCk14QyeJvA?authuser=0&hl=ja&rclk=1",
    "category": "小学校"
  },
  {
    "name": "日立市立諏訪小学校",
    "address": "〒316-0001 茨城県日立市諏訪町３丁目１０−１",
    "latitude": 36.569939,
    "longitude": 140.6238575,
    "link": "https://www.google.com/maps/place/%E6%97%A5%E7%AB%8B%E5%B8%82%E7%AB%8B%E8%AB%8F%E8%A8%AA%E5%B0%8F%E5%AD%A6%E6%A0%A1/data=!4m7!3m6!1s0x602180e44fe47cf3:0xa14598da003d99f6!8m2!3d36.569939!4d140.6238575!16s%2Fg%2F1tdw84w7!19sChIJ83zkT-SAIWAR9pk9ANqYRaE?authuser=0&hl=ja&rclk=1",
    "category": "小学校"
  },
  {
    "name": "日立市立大久保小学校",
    "address": "〒316-0006 茨城県日立市末広町１丁目１−１",
    "latitude": 36.5580392,
    "longitude": 140.6260153,
    "link": "https://www.google.com/maps/place/%E6%97%A5%E7%AB%8B%E5%B8%82%E7%AB%8B%E5%A4%A7%E4%B9%85%E4%BF%9D%E5%B0%8F%E5%AD%A6%E6%A0%A1/data=!4m7!3m6!1s0x60218092c19210c7:0x85f5fa35d536224c!8m2!3d36.5580392!4d140.6260153!16s%2Fg%2F1wd3w4m7!19sChIJxxCSwZKAIWARTCI21TX69YU?authuser=0&hl=ja&rclk=1",
    "category": "小学校"
  },
  {
    "name": "日立市立櫛形小学校",
    "address": "〒319-1302 茨城県日立市十王町伊師本郷５０８",
    "latitude": 36.6774886,
    "longitude": 140.6884544,
    "link": "https://www.google.com/maps/place/%E6%97%A5%E7%AB%8B%E5%B8%82%E7%AB%8B%E6%AB%9B%E5%BD%A2%E5%B0%8F%E5%AD%A6%E6%A0%A1/data=!4m7!3m6!1s0x6021787d20677203:0xede5b9963d051268!8m2!3d36.6774886!4d140.6884544!16s%2Fg%2F1tdqhl1q!19sChIJA3JnIH14IWARaBIFPZa55e0?authuser=0&hl=ja&rclk=1",
    "category": "小学校"
  },
  {
    "name": "日立市立金沢小学校",
    "address": "〒316-0015 茨城県日立市金沢町５丁目２−１",
    "latitude": 36.5403268,
    "longitude": 140.6119192,
    "link": "https://www.google.com/maps/place/%E6%97%A5%E7%AB%8B%E5%B8%82%E7%AB%8B%E9%87%91%E6%B2%A2%E5%B0%8F%E5%AD%A6%E6%A0%A1/data=!4m7!3m6!1s0x602180a3f93c143d:0x8475ba719ca7237d!8m2!3d36.5403268!4d140.6119192!16s%2Fg%2F1w4vk0q_!19sChIJPRQ8-aOAIWARfSOnnHG6dYQ?authuser=0&hl=ja&rclk=1",
    "category": "小学校"
  },
  {
    "name": "日立市立田尻小学校",
    "address": "〒319-1416 茨城県日立市田尻町４丁目３９−１",
    "latitude": 36.624207,
    "longitude": 140.676186,
    "link": "https://www.google.com/maps/place/%E6%97%A5%E7%AB%8B%E5%B8%82%E7%AB%8B%E7%94%B0%E5%B0%BB%E5%B0%8F%E5%AD%A6%E6%A0%A1/data=!4m7!3m6!1s0x602181e325f1803f:0x3ca28c4e3d6c447c!8m2!3d36.624207!4d140.676186!16s%2Fg%2F1q6g3wpkk!19sChIJP4DxJeOBIWARfERsPU6Mojw?authuser=0&hl=ja&rclk=1",
    "category": "小学校"
  },
  {
    "name": "日立市立大沼小学校",
    "address": "〒316-0023 茨城県日立市東大沼町２丁目１−８",
    "latitude": 36.5345472,
    "longitude": 140.629599,
    "link": "https://www.google.com/maps/place/%E6%97%A5%E7%AB%8B%E5%B8%82%E7%AB%8B%E5%A4%A7%E6%B2%BC%E5%B0%8F%E5%AD%A6%E6%A0%A1/data=!4m7!3m6!1s0x60222a7ae5d1808d:0x635889b5c5e17dde!8m2!3d36.5345472!4d140.629599!16s%2Fg%2F125n1tjcx!19sChIJjYDR5XoqImAR3n3hxbWJWGM?authuser=0&hl=ja&rclk=1",
    "category": "小学校"
  },
  {
    "name": "日立市立久慈小学校",
    "address": "〒319-1222 茨城県日立市久慈町１丁目２３−１",
    "latitude": 36.497614,
    "longitude": 140.619144,
    "link": "https://www.google.com/maps/place/%E6%97%A5%E7%AB%8B%E5%B8%82%E7%AB%8B%E4%B9%85%E6%85%88%E5%B0%8F%E5%AD%A6%E6%A0%A1/data=!4m7!3m6!1s0x60222bb5cfa11647:0x645372c2f224a487!8m2!3d36.497614!4d140.619144!16s%2Fg%2F1221bnk4!19sChIJRxahz7UrImARh6Qk8sJyU2Q?authuser=0&hl=ja&rclk=1",
    "category": "小学校"
  },
  {
    "name": "日立市立成沢小学校",
    "address": "〒316-0033 茨城県日立市中成沢町３丁目１６−８",
    "latitude": 36.5737751,
    "longitude": 140.6364567,
    "link": "https://www.google.com/maps/place/%E6%97%A5%E7%AB%8B%E5%B8%82%E7%AB%8B%E6%88%90%E6%B2%A2%E5%B0%8F%E5%AD%A6%E6%A0%A1/data=!4m7!3m6!1s0x602180f844cec68d:0x132d814aeae19b23!8m2!3d36.5737751!4d140.6364567!16s%2Fg%2F1tfkfpq8!19sChIJjcbORPiAIWARI5vh6kqBLRM?authuser=0&hl=ja&rclk=1",
    "category": "小学校"
  },
  {
    "name": "日立市立坂本東小学校",
    "address": "〒319-1224 茨城県日立市南高野町３丁目２１−１",
    "latitude": 36.5063773,
    "longitude": 140.6000154,
    "link": "https://www.google.com/maps/place/%E6%97%A5%E7%AB%8B%E5%B8%82%E7%AB%8B%E5%9D%82%E6%9C%AC%E6%9D%B1%E5%B0%8F%E5%AD%A6%E6%A0%A1/data=!4m7!3m6!1s0x60222a26ebd32c37:0x572b5876b8f31d9!8m2!3d36.5063773!4d140.6000154!16s%2Fg%2F1tdm3vc0!19sChIJNyzT6yYqImAR2TGPa4e1cgU?authuser=0&hl=ja&rclk=1",
    "category": "小学校"
  },
  {
    "name": "日立市立仲町小学校",
    "address": "〒317-0055 茨城県日立市宮田町５丁目５−１",
    "latitude": 36.608092,
    "longitude": 140.653805,
    "link": "https://www.google.com/maps/place/%E6%97%A5%E7%AB%8B%E5%B8%82%E7%AB%8B%E4%BB%B2%E7%94%BA%E5%B0%8F%E5%AD%A6%E6%A0%A1/data=!4m7!3m6!1s0x60218195dd360067:0x9bd4fe4c13c6097!8m2!3d36.608092!4d140.653805!16s%2Fg%2F1tcvtz7r!19sChIJZwA23ZWBIWARl2A8weRPvQk?authuser=0&hl=ja&rclk=1",
    "category": "小学校"
  },
  {
    "name": "日立市立滑川小学校",
    "address": "〒317-0051 茨城県日立市滑川本町１丁目２０−７",
    "latitude": 36.6171957,
    "longitude": 140.6683105,
    "link": "https://www.google.com/maps/place/%E6%97%A5%E7%AB%8B%E5%B8%82%E7%AB%8B%E6%BB%91%E5%B7%9D%E5%B0%8F%E5%AD%A6%E6%A0%A1/data=!4m7!3m6!1s0x602181ef4c445cdb:0x211c2ed19c84d461!8m2!3d36.6171957!4d140.6683105!16s%2Fg%2F1tgb_wp4!19sChIJ21xETO-BIWARYdSEnNEuHCE?authuser=0&hl=ja&rclk=1",
    "category": "小学校"
  },
  {
    "name": "日立市立山部小学校",
    "address": "〒319-1307 茨城県日立市十王町山部８４１",
    "latitude": 36.692568,
    "longitude": 140.667328,
    "link": "https://www.google.com/maps/place/%E6%97%A5%E7%AB%8B%E5%B8%82%E7%AB%8B%E5%B1%B1%E9%83%A8%E5%B0%8F%E5%AD%A6%E6%A0%A1/data=!4m7!3m6!1s0x602182bae5eb76bb:0x7e7fde4f2c0988f2!8m2!3d36.692568!4d140.667328!16s%2Fg%2F1tjdg97v!19sChIJu3br5bqCIWAR8ogJLE_ef34?authuser=0&hl=ja&rclk=1",
    "category": "小学校"
  },
  {
    "name": "日立市立宮田小学校",
    "address": "〒317-0054 茨城県日立市本宮町２丁目９−１",
    "latitude": 36.6037784,
    "longitude": 140.6610967,
    "link": "https://www.google.com/maps/place/%E6%97%A5%E7%AB%8B%E5%B8%82%E7%AB%8B%E5%AE%AE%E7%94%B0%E5%B0%8F%E5%AD%A6%E6%A0%A1/data=!4m7!3m6!1s0x602181c718b4a6a1:0x89a526e2e5f1c5ea!8m2!3d36.6037784!4d140.6610967!16s%2Fg%2F1tf2xxjf!19sChIJoaa0GMeBIWAR6sXx5eImpYk?authuser=0&hl=ja&rclk=1",
    "category": "小学校"
  },
  {
    "name": "日立市立油繩子小学校",
    "address": "〒316-0036 茨城県日立市鮎川町３丁目１１−１",
    "latitude": 36.5654513,
    "longitude": 140.6398132,
    "link": "https://www.google.com/maps/place/%E6%97%A5%E7%AB%8B%E5%B8%82%E7%AB%8B%E6%B2%B9%E7%B9%A9%E5%AD%90%E5%B0%8F%E5%AD%A6%E6%A0%A1/data=!4m7!3m6!1s0x6021805fbc74d17b:0x29a3dbc8c7063f43!8m2!3d36.5654513!4d140.6398132!16s%2Fg%2F1tp8_47z!19sChIJe9F0vF-AIWARQz8Gx8jboyk?authuser=0&hl=ja&rclk=1",
    "category": "小学校"
  },
  {
    "name": "日立市立豊浦小学校",
    "address": "〒319-1412 茨城県日立市折笠町７４１",
    "latitude": 36.6556697,
    "longitude": 140.6911446,
    "link": "https://www.google.com/maps/place/%E6%97%A5%E7%AB%8B%E5%B8%82%E7%AB%8B%E8%B1%8A%E6%B5%A6%E5%B0%8F%E5%AD%A6%E6%A0%A1/data=!4m7!3m6!1s0x602178bd20227ea1:0x965ec19f423d93e3!8m2!3d36.6556697!4d140.6911446!16s%2Fg%2F1vgqd5tz!19sChIJoX4iIL14IWAR45M9Qp_BXpY?authuser=0&hl=ja&rclk=1",
    "category": "小学校"
  },
  {
    "name": "日立市立塙山小学校",
    "address": "〒316-0015 茨城県日立市金沢町２丁目１４−１",
    "latitude": 36.548462,
    "longitude": 140.616186,
    "link": "https://www.google.com/maps/place/%E6%97%A5%E7%AB%8B%E5%B8%82%E7%AB%8B%E5%A1%99%E5%B1%B1%E5%B0%8F%E5%AD%A6%E6%A0%A1/data=!4m7!3m6!1s0x602180bd761d220b:0x24918e7583b5981c!8m2!3d36.548462!4d140.616186!16s%2Fg%2F1tj3l5fw!19sChIJCyIddr2AIWARHJi1g3WOkSQ?authuser=0&hl=ja&rclk=1",
    "category": "小学校"
  },
  {
    "name": "日立市立助川小学校",
    "address": "〒317-0065 茨城県日立市助川町２丁目１５−１",
    "latitude": 36.59138,
    "longitude": 140.646345,
    "link": "https://www.google.com/maps/place/%E6%97%A5%E7%AB%8B%E5%B8%82%E7%AB%8B%E5%8A%A9%E5%B7%9D%E5%B0%8F%E5%AD%A6%E6%A0%A1/data=!4m7!3m6!1s0x602181ae42193f0b:0xe417c7b20c7ffa19!8m2!3d36.59138!4d140.646345!16s%2Fg%2F1tl4d3zr!19sChIJCz8ZQq6BIWARGfp_DLLHF-Q?authuser=0&hl=ja&rclk=1",
    "category": "小学校"
  },
  {
    "name": "日立市立 会瀬小学校",
    "address": "〒317-0076 茨城県日立市会瀬町２丁目１７−１０",
    "latitude": 36.577905,
    "longitude": 140.6533858,
    "link": "https://www.google.com/maps/place/%E6%97%A5%E7%AB%8B%E5%B8%82%E7%AB%8B+%E4%BC%9A%E7%80%AC%E5%B0%8F%E5%AD%A6%E6%A0%A1/data=!4m7!3m6!1s0x60218045e8910a97:0xa515e333bddf04cf!8m2!3d36.577905!4d140.6533858!16s%2Fg%2F1tqtx_50!19sChIJlwqR6EWAIWARzwTfvTPjFaU?authuser=0&hl=ja&rclk=1",
    "category": "小学校"
  },
  {
    "name": "日立市立河原子小学校",
    "address": "〒316-0005 茨城県日立市河原子町４丁目３−４",
    "latitude": 36.546463,
    "longitude": 140.639218,
    "link": "https://www.google.com/maps/place/%E6%97%A5%E7%AB%8B%E5%B8%82%E7%AB%8B%E6%B2%B3%E5%8E%9F%E5%AD%90%E5%B0%8F%E5%AD%A6%E6%A0%A1/data=!4m7!3m6!1s0x6021807f8d28c79b:0x844493480aa74f89!8m2!3d36.546463!4d140.639218!16s%2Fg%2F1v5k33g_!19sChIJm8cojX-AIWARiU-nCkiTRIQ?authuser=0&hl=ja&rclk=1",
    "category": "小学校"
  },
  {
    "name": "私立久慈川三育小学校",
    "address": "〒319-1231 茨城県日立市留町１０９７−２",
    "latitude": 36.4931675,
    "longitude": 140.5985341,
    "link": "https://www.google.com/maps/place/%E7%A7%81%E7%AB%8B%E4%B9%85%E6%85%88%E5%B7%9D%E4%B8%89%E8%82%B2%E5%B0%8F%E5%AD%A6%E6%A0%A1/data=!4m7!3m6!1s0x60222bd52c35e8e3:0xc7464384c6ad2e1f!8m2!3d36.4931675!4d140.5985341!16s%2Fg%2F1ydxpq0nc!19sChIJ4-g1LNUrImARHy6txoRDRsc?authuser=0&hl=ja&rclk=1",
    "category": "小学校"
  },
  {
    "name": "日立市立中里小中学校",
    "address": "〒311-0403 茨城県日立市東河内町１９５３−１",
    "latitude": 36.6325944,
    "longitude": 140.5469796,
    "link": "https://www.google.com/maps/place/%E6%97%A5%E7%AB%8B%E5%B8%82%E7%AB%8B%E4%B8%AD%E9%87%8C%E5%B0%8F%E4%B8%AD%E5%AD%A6%E6%A0%A1/data=!4m7!3m6!1s0x6021857dabccff0d:0x9d234237746c7553!8m2!3d36.6325944!4d140.5469796!16s%2Fg%2F11syt92bqv!19sChIJDf_Mq32FIWARU3VsdDdCI50?authuser=0&hl=ja&rclk=1",
    "category": ""
  },
  {
    "name": "日立市立大沼小学校 ことばの教室",
    "address": "〒316-0023 茨城県日立市東大沼町２丁目１−８",
    "latitude": 36.534536,
    "longitude": 140.629544,
    "link": "https://www.google.com/maps/place/%E6%97%A5%E7%AB%8B%E5%B8%82%E7%AB%8B%E5%A4%A7%E6%B2%BC%E5%B0%8F%E5%AD%A6%E6%A0%A1+%E3%81%93%E3%81%A8%E3%81%B0%E3%81%AE%E6%95%99%E5%AE%A4/data=!4m7!3m6!1s0x60222a7ae5cedb6f:0xb874a4d10c142531!8m2!3d36.534536!4d140.629544!16s%2Fg%2F1vnnjhtp!19sChIJb9vO5XoqImARMSUUDNGkdLg?authuser=0&hl=ja&rclk=1",
    "category": "小学校"
  },
  {
    "name": "日立市立助川小学校 ことばの教室",
    "address": "〒317-0065 茨城県日立市助川町２丁目１５−１",
    "latitude": 36.5913215,
    "longitude": 140.6466716,
    "link": "https://www.google.com/maps/place/%E6%97%A5%E7%AB%8B%E5%B8%82%E7%AB%8B%E5%8A%A9%E5%B7%9D%E5%B0%8F%E5%AD%A6%E6%A0%A1+%E3%81%93%E3%81%A8%E3%81%B0%E3%81%AE%E6%95%99%E5%AE%A4/data=!4m7!3m6!1s0x602181ae41e15c79:0xb06f4f72a4788e18!8m2!3d36.5913215!4d140.6466716!16s%2Fg%2F1tdqbpd0!19sChIJeVzhQa6BIWARGI54pHJPb7A?authuser=0&hl=ja&rclk=1",
    "category": "小学校"
  },
  {
    "name": "日立市立油繩子小学校 きこえとことばの教室",
    "address": "〒316-0036 茨城県日立市鮎川町３丁目１１−１",
    "latitude": 36.5658051,
    "longitude": 140.6397661,
    "link": "https://www.google.com/maps/place/%E6%97%A5%E7%AB%8B%E5%B8%82%E7%AB%8B%E6%B2%B9%E7%B9%A9%E5%AD%90%E5%B0%8F%E5%AD%A6%E6%A0%A1+%E3%81%8D%E3%81%93%E3%81%88%E3%81%A8%E3%81%93%E3%81%A8%E3%81%B0%E3%81%AE%E6%95%99%E5%AE%A4/data=!4m7!3m6!1s0x6021805fbc5e78c7:0xed84121e456980b4!8m2!3d36.5658051!4d140.6397661!16s%2Fg%2F1td7t8z4!19sChIJx3hevF-AIWARtIBpRR4ShO0?authuser=0&hl=ja&rclk=1",
    "category": "小学校"
  },
  {
    "name": "Ｈｉタッチらんど・ハレニコ！",
    "address": "〒317-0073 茨城県日立市幸町１丁目１６−１ ヒタチエ 4F",
    "latitude": 36.5917582,
    "longitude": 140.6590501,
    "link": "https://www.google.com/maps/place/%EF%BC%A8%EF%BD%89%E3%82%BF%E3%83%83%E3%83%81%E3%82%89%E3%82%93%E3%81%A9%E3%83%BB%E3%83%8F%E3%83%AC%E3%83%8B%E3%82%B3%EF%BC%81/data=!4m7!3m6!1s0x602181effc9a30a5:0x3f9bb71bad47c9bb!8m2!3d36.5917582!4d140.6590501!16s%2Fg%2F11h___t7mm!19sChIJpTCa_O-BIWARu8lHrRu3mz8?authuser=0&hl=ja&rclk=1",
    "category": ""
  },
  {
    "name": "日立市立多賀中学校",
    "address": "〒316-0036 茨城県日立市鮎川町３丁目１１−２",
    "latitude": 36.5667535,
    "longitude": 140.6388831,
    "link": "https://www.google.com/maps/place/%E6%97%A5%E7%AB%8B%E5%B8%82%E7%AB%8B%E5%A4%9A%E8%B3%80%E4%B8%AD%E5%AD%A6%E6%A0%A1/data=!4m7!3m6!1s0x6021805f72a9a751:0xfaa95807473a046e!8m2!3d36.5667535!4d140.6388831!16s%2Fg%2F1td8z6vn!19sChIJUaepcl-AIWARbgQ6RwdYqfo?authuser=0&hl=ja&rclk=1",
    "category": ""
  },
  {
    "name": "日立シビックセンター",
    "address": "〒317-0073 茨城県日立市幸町１丁目２１−１",
    "latitude": 36.5900419,
    "longitude": 140.6594354,
    "link": "https://www.google.com/maps/place/%E6%97%A5%E7%AB%8B%E3%82%B7%E3%83%93%E3%83%83%E3%82%AF%E3%82%BB%E3%83%B3%E3%82%BF%E3%83%BC/data=!4m7!3m6!1s0x602180354eb8d0f9:0xa0a16f94b686dba4!8m2!3d36.5900419!4d140.6594354!16s%2Fg%2F122q9r56!19sChIJ-dC4TjWAIWARpNuGtpRvoaA?authuser=0&hl=ja&rclk=1",
    "category": ""
  },
  {
    "name": "日立市立松風中学校",
    "address": "〒319-1222 茨城県日立市久慈町６丁目２０−２",
    "latitude": 36.5051641,
    "longitude": 140.6103952,
    "link": "https://www.google.com/maps/place/%E6%97%A5%E7%AB%8B%E5%B8%82%E7%AB%8B%E6%9D%BE%E9%A2%A8%E4%B8%AD%E5%AD%A6%E6%A0%A1/data=!4m7!3m6!1s0x60222a30ee392941:0x66554897d370808!8m2!3d36.5051641!4d140.6103952!16s%2Fg%2F121ngp2g!19sChIJQSk57jAqImARCAg3fYlUZQY?authuser=0&hl=ja&rclk=1",
    "category": ""
  },
  {
    "name": "日立市立日立特別支援学校",
    "address": "〒316-0036 茨城県日立市鮎川町３丁目１１−２",
    "latitude": 36.5679123,
    "longitude": 140.6390977,
    "link": "https://www.google.com/maps/place/%E6%97%A5%E7%AB%8B%E5%B8%82%E7%AB%8B%E6%97%A5%E7%AB%8B%E7%89%B9%E5%88%A5%E6%94%AF%E6%8F%B4%E5%AD%A6%E6%A0%A1/data=!4m7!3m6!1s0x6021805f43f7e933:0xa8ec8270f37a20d0!8m2!3d36.5679123!4d140.6390977!16s%2Fg%2F1hc0gg76k!19sChIJM-n3Q1-AIWAR0CB683CC7Kg?authuser=0&hl=ja&rclk=1",
    "category": ""
  },
  {
    "name": "日立市立成沢小学校 情緒障害学級成沢教室",
    "address": "〒316-0033 茨城県日立市中成沢町３丁目１６−８",
    "latitude": 36.573981,
    "longitude": 140.636286,
    "link": "https://www.google.com/maps/place/%E6%97%A5%E7%AB%8B%E5%B8%82%E7%AB%8B%E6%88%90%E6%B2%A2%E5%B0%8F%E5%AD%A6%E6%A0%A1+%E6%83%85%E7%B7%92%E9%9A%9C%E5%AE%B3%E5%AD%A6%E7%B4%9A%E6%88%90%E6%B2%A2%E6%95%99%E5%AE%A4/data=!4m7!3m6!1s0x602180f844bf055d:0x41db0f49c93cfacb!8m2!3d36.573981!4d140.636286!16s%2Fg%2F1ttywvp1!19sChIJXQW_RPiAIWARy_o8yUkP20E?authuser=0&hl=ja&rclk=1",
    "category": "小学校"
  },
  {
    "name": "あおぞら保育園",
    "address": "〒300-0811 茨城県土浦市上高津１８００−１",
    "latitude": 36.075715,
    "longitude": 140.167686,
    "link": "https://www.google.com/maps/place/%E3%81%82%E3%81%8A%E3%81%9E%E3%82%89%E4%BF%9D%E8%82%B2%E5%9C%92/data=!4m7!3m6!1s0x60220d46003d119b:0xa09a72c5347b5743!8m2!3d36.075715!4d140.167686!16s%2Fg%2F1tj57wyp!19sChIJmxE9AEYNImARQ1d7NMVymqA?authuser=0&hl=ja&rclk=1",
    "category": "保育園"
  },
  {
    "name": "白帆保育園",
    "address": "〒300-0821 茨城県土浦市蓮河原新町８−３０",
    "latitude": 36.0718092,
    "longitude": 140.2065964,
    "link": "https://www.google.com/maps/place/%E7%99%BD%E5%B8%86%E4%BF%9D%E8%82%B2%E5%9C%92/data=!4m7!3m6!1s0x60226d39cb9a7803:0x99dbb934b8437058!8m2!3d36.0718092!4d140.2065964!16s%2Fg%2F1v46_ghx!19sChIJA3iayzltImARWHBDuDS525k?authuser=0&hl=ja&rclk=1",
    "category": "保育園"
  },
  {
    "name": "童話館保育園",
    "address": "〒300-0052 茨城県土浦市東真鍋町９−２８",
    "latitude": 36.093108,
    "longitude": 140.2082885,
    "link": "https://www.google.com/maps/place/%E7%AB%A5%E8%A9%B1%E9%A4%A8%E4%BF%9D%E8%82%B2%E5%9C%92/data=!4m7!3m6!1s0x602212c66dcb90fd:0x2b3dbde44481d951!8m2!3d36.093108!4d140.2082885!16s%2Fg%2F1tgp0xrc!19sChIJ_ZDLbcYSImARUdmBROS9PSs?authuser=0&hl=ja&rclk=1",
    "category": "保育園"
  },
  {
    "name": "桜川保育園",
    "address": "〒300-0048 茨城県土浦市田中３丁目４−５",
    "latitude": 36.0823286,
    "longitude": 140.1859108,
    "link": "https://www.google.com/maps/place/%E6%A1%9C%E5%B7%9D%E4%BF%9D%E8%82%B2%E5%9C%92/data=!4m7!3m6!1s0x602212a887f5b4fd:0x6570962306b7cd8d!8m2!3d36.0823286!4d140.1859108!16s%2Fg%2F1tx1t97c!19sChIJ_bT1h6gSImARjc23BiOWcGU?authuser=0&hl=ja&rclk=1",
    "category": "保育園"
  },
  {
    "name": "めぐみ保育園",
    "address": "〒300-0836 茨城県土浦市烏山５丁目２２６３−８",
    "latitude": 36.0429841,
    "longitude": 140.1921796,
    "link": "https://www.google.com/maps/place/%E3%82%81%E3%81%90%E3%81%BF%E4%BF%9D%E8%82%B2%E5%9C%92/data=!4m7!3m6!1s0x60226d798f597931:0xe66368b588026ea5!8m2!3d36.0429841!4d140.1921796!16s%2Fg%2F1tmqlxbr!19sChIJMXlZj3ltImARpW4CiLVoY-Y?authuser=0&hl=ja&rclk=1",
    "category": "保育園"
  },
  {
    "name": "荒川沖保育所",
    "address": "〒300-0874 茨城県土浦市荒川沖西２丁目１０−１１ 土浦市立荒川沖保育所",
    "latitude": 36.0308236,
    "longitude": 140.1620011,
    "link": "https://www.google.com/maps/place/%E8%8D%92%E5%B7%9D%E6%B2%96%E4%BF%9D%E8%82%B2%E6%89%80/data=!4m7!3m6!1s0x602272f4c62b0bd9:0xbf5126471abd2f06!8m2!3d36.0308236!4d140.1620011!16s%2Fg%2F1tfkfpyy!19sChIJ2QsrxvRyImARBi-9GkcmUb8?authuser=0&hl=ja&rclk=1",
    "category": "保育園"
  },
  {
    "name": "土浦市認定園 一般社団法人キッズルーム やまもと",
    "address": "〒300-0842 茨城県土浦市西根南２丁目１−２９",
    "latitude": 36.0478289,
    "longitude": 140.1637079,
    "link": "https://www.google.com/maps/place/%E5%9C%9F%E6%B5%A6%E5%B8%82%E8%AA%8D%E5%AE%9A%E5%9C%92+%E4%B8%80%E8%88%AC%E7%A4%BE%E5%9B%A3%E6%B3%95%E4%BA%BA%E3%82%AD%E3%83%83%E3%82%BA%E3%83%AB%E3%83%BC%E3%83%A0+%E3%82%84%E3%81%BE%E3%82%82%E3%81%A8/data=!4m7!3m6!1s0x602272bf948978f3:0x526335ad1d7035fd!8m2!3d36.0478289!4d140.1637079!16s%2Fg%2F1vm7bktn!19sChIJ83iJlL9yImAR_TVwHa01Y1I?authuser=0&hl=ja&rclk=1",
    "category": ""
  },
  {
    "name": "土浦愛隣会保育所",
    "address": "〒300-0837 茨城県土浦市右籾１６８１",
    "latitude": 36.0463912,
    "longitude": 140.1797797,
    "link": "https://www.google.com/maps/place/%E5%9C%9F%E6%B5%A6%E6%84%9B%E9%9A%A3%E4%BC%9A%E4%BF%9D%E8%82%B2%E6%89%80/data=!4m7!3m6!1s0x6022729c5bf6ea37:0x79330fc2d814147b!8m2!3d36.0463912!4d140.1797797!16s%2Fg%2F1tgx6qn9!19sChIJN-r2W5xyImARexQU2MIPM3k?authuser=0&hl=ja&rclk=1",
    "category": "保育園"
  },
  {
    "name": "キッズランドなないろ",
    "address": "〒300-0038 茨城県土浦市大町１１−４１",
    "latitude": 36.0815619,
    "longitude": 140.194167,
    "link": "https://www.google.com/maps/place/%E3%82%AD%E3%83%83%E3%82%BA%E3%83%A9%E3%83%B3%E3%83%89%E3%81%AA%E3%81%AA%E3%81%84%E3%82%8D/data=!4m7!3m6!1s0x602212b202af4671:0xe335ed30fe736098!8m2!3d36.0815619!4d140.194167!16s%2Fg%2F11fcr0r33_!19sChIJcUavArISImARmGBz_jDtNeM?authuser=0&hl=ja&rclk=1",
    "category": ""
  },
  {
    "name": "学校法人川島学園 都和保育園",
    "address": "〒300-0061 茨城県土浦市並木２丁目８−４",
    "latitude": 36.1099624,
    "longitude": 140.1924667,
    "link": "https://www.google.com/maps/place/%E5%AD%A6%E6%A0%A1%E6%B3%95%E4%BA%BA%E5%B7%9D%E5%B3%B6%E5%AD%A6%E5%9C%92+%E9%83%BD%E5%92%8C%E4%BF%9D%E8%82%B2%E5%9C%92/data=!4m7!3m6!1s0x602212863919b4b9:0xf4109695b448d324!8m2!3d36.1099624!4d140.1924667!16s%2Fg%2F1tcw88rd!19sChIJubQZOYYSImARJNNItJWWEPQ?authuser=0&hl=ja&rclk=1",
    "category": "保育園"
  },
  {
    "name": "エンゼル・ゆめ保育園",
    "address": "〒300-0051 茨城県土浦市真鍋２丁目１０−２３",
    "latitude": 36.092639,
    "longitude": 140.1936,
    "link": "https://www.google.com/maps/place/%E3%82%A8%E3%83%B3%E3%82%BC%E3%83%AB%E3%83%BB%E3%82%86%E3%82%81%E4%BF%9D%E8%82%B2%E5%9C%92/data=!4m7!3m6!1s0x602212bcd4cd5bdf:0xe4e77a80a982ef2!8m2!3d36.092639!4d140.1936!16s%2Fg%2F1vxf_8cz!19sChIJ31vN1LwSImAR8i6YCqh3Tg4?authuser=0&hl=ja&rclk=1",
    "category": "保育園"
  },
  {
    "name": "新生めぐみ保育園",
    "address": "〒300-0843 茨城県土浦市中村南１丁目２４−１",
    "latitude": 36.0423547,
    "longitude": 140.1685084,
    "link": "https://www.google.com/maps/place/%E6%96%B0%E7%94%9F%E3%82%81%E3%81%90%E3%81%BF%E4%BF%9D%E8%82%B2%E5%9C%92/data=!4m7!3m6!1s0x602272916f700343:0x275aa90a7c0d8821!8m2!3d36.0423547!4d140.1685084!16s%2Fg%2F1tf7xv35!19sChIJQwNwb5FyImARIYgNfAqpWic?authuser=0&hl=ja&rclk=1",
    "category": "保育園"
  },
  {
    "name": "MilkyWay International Nursery Center 土浦校",
    "address": "〒300-0007 茨城県土浦市板谷６丁目６４８−２４",
    "latitude": 36.1139324,
    "longitude": 140.2082317,
    "link": "https://www.google.com/maps/place/MilkyWay+International+Nursery+Center+%E5%9C%9F%E6%B5%A6%E6%A0%A1/data=!4m7!3m6!1s0x6022135fbbfc0775:0xac0f876271ff4196!8m2!3d36.1139324!4d140.2082317!16s%2Fg%2F11h7stt342!19sChIJdQf8u18TImARlkH_cWKHD6w?authuser=0&hl=ja&rclk=1",
    "category": ""
  },
  {
    "name": "ともっこ保育園",
    "address": "〒300-0051 茨城県土浦市真鍋３丁目７−１８",
    "latitude": 36.0935302,
    "longitude": 140.2034102,
    "link": "https://www.google.com/maps/place/%E3%81%A8%E3%82%82%E3%81%A3%E3%81%93%E4%BF%9D%E8%82%B2%E5%9C%92/data=!4m7!3m6!1s0x602212b8a6867043:0xc86a3b8a21c898f2!8m2!3d36.0935302!4d140.2034102!16s%2Fg%2F11f2_thx0y!19sChIJQ3CGprgSImAR8pjIIYo7asg?authuser=0&hl=ja&rclk=1",
    "category": "保育園"
  },
  {
    "name": "はっぴー保育園",
    "address": "〒300-0045 茨城県土浦市文京町４−８",
    "latitude": 36.0830795,
    "longitude": 140.1939277,
    "link": "https://www.google.com/maps/place/%E3%81%AF%E3%81%A3%E3%81%B4%E3%83%BC%E4%BF%9D%E8%82%B2%E5%9C%92/data=!4m7!3m6!1s0x602212b1da351e7d:0xa2e266238b00b433!8m2!3d36.0830795!4d140.1939277!16s%2Fg%2F11hdlv2yd_!19sChIJfR412rESImARM7QAiyNm4qI?authuser=0&hl=ja&rclk=1",
    "category": "保育園"
  },
  {
    "name": "つくば国際保育園",
    "address": "〒300-0053 茨城県土浦市真鍋新町８−１６",
    "latitude": 36.0885684,
    "longitude": 140.2101032,
    "link": "https://www.google.com/maps/place/%E3%81%A4%E3%81%8F%E3%81%B0%E5%9B%BD%E9%9A%9B%E4%BF%9D%E8%82%B2%E5%9C%92/data=!4m7!3m6!1s0x602212cbb7e135f1:0x496b913dba0f4517!8m2!3d36.0885684!4d140.2101032!16s%2Fg%2F1td1k2yk!19sChIJ8TXht8sSImARF0UPuj2Ra0k?authuser=0&hl=ja&rclk=1",
    "category": "保育園"
  },
  {
    "name": "キッズハウスほしの森",
    "address": "〒300-0836 茨城県土浦市烏山４丁目１９４１−３４",
    "latitude": 36.0420585,
    "longitude": 140.2004162,
    "link": "https://www.google.com/maps/place/%E3%82%AD%E3%83%83%E3%82%BA%E3%83%8F%E3%82%A6%E3%82%B9%E3%81%BB%E3%81%97%E3%81%AE%E6%A3%AE/data=!4m7!3m6!1s0x60226d00170e7ac9:0x8a614034c48f678d!8m2!3d36.0420585!4d140.2004162!16s%2Fg%2F11lcyxvqtc!19sChIJyXoOFwBtImARjWePxDRAYYo?authuser=0&hl=ja&rclk=1",
    "category": ""
  },
  {
    "name": "どんぐり保育園",
    "address": "〒300-0011 茨城県土浦市神立中央５丁目１１−５０",
    "latitude": 36.1211616,
    "longitude": 140.2294846,
    "link": "https://www.google.com/maps/place/%E3%81%A9%E3%82%93%E3%81%90%E3%82%8A%E4%BF%9D%E8%82%B2%E5%9C%92/data=!4m7!3m6!1s0x60221303873bc4f1:0x88f1e72d0d4127a3!8m2!3d36.1211616!4d140.2294846!16s%2Fg%2F12m98s2dp!19sChIJ8cQ7hwMTImARoydBDS3n8Yg?authuser=0&hl=ja&rclk=1",
    "category": "保育園"
  },
  {
    "name": "ニチイキッズ土浦さくら保育園",
    "address": "〒300-0037 茨城県土浦市桜町３丁目１４−１８ さくらメディカルビル 2階",
    "latitude": 36.079222,
    "longitude": 140.1989833,
    "link": "https://www.google.com/maps/place/%E3%83%8B%E3%83%81%E3%82%A4%E3%82%AD%E3%83%83%E3%82%BA%E5%9C%9F%E6%B5%A6%E3%81%95%E3%81%8F%E3%82%89%E4%BF%9D%E8%82%B2%E5%9C%92/data=!4m7!3m6!1s0x602212b4a978a00b:0xbd8829324ab017aa!8m2!3d36.079222!4d140.1989833!16s%2Fg%2F11f2_ts8g2!19sChIJC6B4qbQSImARqhewSjIpiL0?authuser=0&hl=ja&rclk=1",
    "category": "保育園"
  },
  {
    "name": "中央保育園",
    "address": "〒300-0011 茨城県土浦市神立中央１丁目１０−２１",
    "latitude": 36.1198323,
    "longitude": 140.2455192,
    "link": "https://www.google.com/maps/place/%E4%B8%AD%E5%A4%AE%E4%BF%9D%E8%82%B2%E5%9C%92/data=!4m7!3m6!1s0x6022136b51abfe45:0x9b790f9bc615f129!8m2!3d36.1198323!4d140.2455192!16s%2Fg%2F1thx44mw!19sChIJRf6rUWsTImARKfEVxpsPeZs?authuser=0&hl=ja&rclk=1",
    "category": "保育園"
  },
  {
    "name": "ひたち学院幼稚園",
    "address": "〒300-0844 茨城県土浦市乙戸１０２９−１",
    "latitude": 36.0364361,
    "longitude": 140.1548487,
    "link": "https://www.google.com/maps/place/%E3%81%B2%E3%81%9F%E3%81%A1%E5%AD%A6%E9%99%A2%E5%B9%BC%E7%A8%9A%E5%9C%92/data=!4m7!3m6!1s0x602272ef018e7d53:0xd60b32a9b5d35d9d!8m2!3d36.0364361!4d140.1548487!16s%2Fg%2F1tdq17hz!19sChIJU32OAe9yImARnV3TtakyC9Y?authuser=0&hl=ja&rclk=1",
    "category": "幼稚園"
  },
  {
    "name": "中村白百合幼稚園",
    "address": "〒300-0843 茨城県土浦市中村南５丁目３１−１",
    "latitude": 36.0418554,
    "longitude": 140.157716,
    "link": "https://www.google.com/maps/place/%E4%B8%AD%E6%9D%91%E7%99%BD%E7%99%BE%E5%90%88%E5%B9%BC%E7%A8%9A%E5%9C%92/data=!4m7!3m6!1s0x602272e98005f013:0x79377a3549d19d28!8m2!3d36.0418554!4d140.157716!16s%2Fg%2F1vzv3sb2!19sChIJE_AFgOlyImARKJ3RSTV6N3k?authuser=0&hl=ja&rclk=1",
    "category": "幼稚園"
  },
  {
    "name": "土浦日本大学高等学校附属幼稚園",
    "address": "〒300-0832 茨城県土浦市桜ケ丘町１７−４５",
    "latitude": 36.0615384,
    "longitude": 140.1950413,
    "link": "https://www.google.com/maps/place/%E5%9C%9F%E6%B5%A6%E6%97%A5%E6%9C%AC%E5%A4%A7%E5%AD%A6%E9%AB%98%E7%AD%89%E5%AD%A6%E6%A0%A1%E9%99%84%E5%B1%9E%E5%B9%BC%E7%A8%9A%E5%9C%92/data=!4m7!3m6!1s0x60226d431edaa5a9:0xe306485154abf8ec!8m2!3d36.0615384!4d140.1950413!16s%2Fg%2F120s70vb!19sChIJqaXaHkNtImAR7PirVFFIBuM?authuser=0&hl=ja&rclk=1",
    "category": "幼稚園"
  },
  {
    "name": "土浦聖母幼稚園",
    "address": "〒300-0038 茨城県土浦市大町９−６",
    "latitude": 36.0797735,
    "longitude": 140.1931623,
    "link": "https://www.google.com/maps/place/%E5%9C%9F%E6%B5%A6%E8%81%96%E6%AF%8D%E5%B9%BC%E7%A8%9A%E5%9C%92/data=!4m7!3m6!1s0x602212ad8da847fd:0x826ac3662c544ea5!8m2!3d36.0797735!4d140.1931623!16s%2Fg%2F1v29c3ln!19sChIJ_Ueoja0SImARpU5ULGbDaoI?authuser=0&hl=ja&rclk=1",
    "category": "幼稚園"
  },
  {
    "name": "あおば台幼稚園",
    "address": "〒300-0837 茨城県土浦市右籾２７５５",
    "latitude": 36.0446205,
    "longitude": 140.1867795,
    "link": "https://www.google.com/maps/place/%E3%81%82%E3%81%8A%E3%81%B0%E5%8F%B0%E5%B9%BC%E7%A8%9A%E5%9C%92/data=!4m7!3m6!1s0x60226d7cf17a674f:0x52802314fcb1f477!8m2!3d36.0446205!4d140.1867795!16s%2Fg%2F1tfj38c0!19sChIJT2d68XxtImARd_Sx_BQjgFI?authuser=0&hl=ja&rclk=1",
    "category": "幼稚園"
  },
  {
    "name": "土浦市立土浦幼稚園",
    "address": "〒300-0045 茨城県土浦市文京町９−６",
    "latitude": 36.084568,
    "longitude": 140.1931975,
    "link": "https://www.google.com/maps/place/%E5%9C%9F%E6%B5%A6%E5%B8%82%E7%AB%8B%E5%9C%9F%E6%B5%A6%E5%B9%BC%E7%A8%9A%E5%9C%92/data=!4m7!3m6!1s0x602212b3e259d63b:0x767e43edb07cb970!8m2!3d36.084568!4d140.1931975!16s%2Fg%2F112yfqtmy!19sChIJO9ZZ4rMSImARcLl8sO1DfnY?authuser=0&hl=ja&rclk=1",
    "category": "幼稚園"
  },
  {
    "name": "新学幼稚園",
    "address": "〒300-0025 茨城県土浦市手野町４５２４",
    "latitude": 36.100228,
    "longitude": 140.237262,
    "link": "https://www.google.com/maps/place/%E6%96%B0%E5%AD%A6%E5%B9%BC%E7%A8%9A%E5%9C%92/data=!4m7!3m6!1s0x60221331a6d6e78d:0xf1dc8302fafb7bd1!8m2!3d36.100228!4d140.237262!16s%2Fg%2F1tdzlp0f!19sChIJjefWpjETImAR0Xv7-gKD3PE?authuser=0&hl=ja&rclk=1",
    "category": "幼稚園"
  },
  {
    "name": "中央幼稚園",
    "address": "〒300-0011 茨城県土浦市神立中央２丁目１−１８",
    "latitude": 36.121385,
    "longitude": 140.2447949,
    "link": "https://www.google.com/maps/place/%E4%B8%AD%E5%A4%AE%E5%B9%BC%E7%A8%9A%E5%9C%92/data=!4m7!3m6!1s0x6022131334147b3d:0x945dd01081bc19c5!8m2!3d36.121385!4d140.2447949!16s%2Fg%2F1tg_x633!19sChIJPXsUNBMTImARxRm8gRDQXZQ?authuser=0&hl=ja&rclk=1",
    "category": "幼稚園"
  },
  {
    "name": "【移転しました】もみじ幼稚園",
    "address": "〒300-0812 茨城県土浦市下高津２丁目１０−２１",
    "latitude": 36.0746876,
    "longitude": 140.1884392,
    "link": "https://www.google.com/maps/place/%E3%80%90%E7%A7%BB%E8%BB%A2%E3%81%97%E3%81%BE%E3%81%97%E3%81%9F%E3%80%91%E3%82%82%E3%81%BF%E3%81%98%E5%B9%BC%E7%A8%9A%E5%9C%92/data=!4m7!3m6!1s0x60226d535550cf31:0x5dc5bdc245038128!8m2!3d36.0746876!4d140.1884392!16s%2Fg%2F1td_hc2r!19sChIJMc9QVVNtImARKIEDRcK9xV0?authuser=0&hl=ja&rclk=1",
    "category": "幼稚園"
  },
  {
    "name": "天川幼稚園",
    "address": "〒300-0818 茨城県土浦市天川１丁目４−１９",
    "latitude": 36.0663171,
    "longitude": 140.176391,
    "link": "https://www.google.com/maps/place/%E5%A4%A9%E5%B7%9D%E5%B9%BC%E7%A8%9A%E5%9C%92/data=!4m7!3m6!1s0x602272ac39ff86b3:0x5b4e7254a2231b76!8m2!3d36.0663171!4d140.176391!16s%2Fg%2F1tvylwqv!19sChIJs4b_OaxyImARdhsjolRyTls?authuser=0&hl=ja&rclk=1",
    "category": "幼稚園"
  },
  {
    "name": "土浦みどり幼稚園",
    "address": "〒300-0061 茨城県土浦市並木４丁目１−３６",
    "latitude": 36.1136389,
    "longitude": 140.1901049,
    "link": "https://www.google.com/maps/place/%E5%9C%9F%E6%B5%A6%E3%81%BF%E3%81%A9%E3%82%8A%E5%B9%BC%E7%A8%9A%E5%9C%92/data=!4m7!3m6!1s0x6022127dbbb9bf39:0xa98bd18fdd138ea6!8m2!3d36.1136389!4d140.1901049!16s%2Fg%2F1tp0dslf!19sChIJOb-5u30SImARpo4T3Y_Ri6k?authuser=0&hl=ja&rclk=1",
    "category": "幼稚園"
  },