[
  {
    "name": "朝陽学園 保育園",
    "address": "\n〒381-0016 長野県長野市南堀１２５−１ 認定こども園朝陽学園",
    "latitude": 36.6631067,
    "longitude": 138.2436282,
    "link": "https://www.google.com/maps/place/%E6%9C%9D%E9%99%BD%E5%AD%A6%E5%9C%92+%E4%BF%9D%E8%82%B2%E5%9C%92/data=!4m7!3m6!1s0x601d88a6bef525c3:0xd3149b8c457c891e!8m2!3d36.6631067!4d138.2436282!16s%2Fg%2F1w0p5q66!19sChIJwyX1vqaIHWARHol8RYybFNM?authuser=0&hl=ja&rclk=1",
    "category": "保育園"
  },
  {
    "name": "ひよし保育園",
    "address": "\n〒388-8005 長野県長野市篠ノ井横田８０５−４",
    "latitude": 36.5630701,
    "longitude": 138.1415867,
    "link": "https://www.google.com/maps/place/%E3%81%B2%E3%82%88%E3%81%97%E4%BF%9D%E8%82%B2%E5%9C%92/data=!4m7!3m6!1s0x601d837290fb1009:0x872540e86a41797b!8m2!3d36.5630701!4d138.1415867!16s%2Fg%2F1v9tz_2f!19sChIJCRD7kHKDHWARe3lBauhAJYc?authuser=0&hl=ja&rclk=1",
    "category": "保育園"
  },
  {
    "name": "善光寺保育園",
    "address": "\n〒380-0801 長野県長野市箱清水２丁目１２−１７",
    "latitude": 36.6639262,
    "longitude": 138.1881912,
    "link": "https://www.google.com/maps/place/%E5%96%84%E5%85%89%E5%AF%BA%E4%BF%9D%E8%82%B2%E5%9C%92/data=!4m7!3m6!1s0x601d871d6b2e5b29:0x975f79aab7cbe803!8m2!3d36.6639262!4d138.1881912!16s%2Fg%2F1tmqlw7b!19sChIJKVsuax2HHWARA-jLt6p5X5c?authuser=0&hl=ja&rclk=1",
    "category": "保育園"
  },
  {
    "name": "松ケ丘保育園",
    "address": "\n〒380-0961 長野県長野市安茂里小市１丁目３９−１６",
    "latitude": 36.6269152,
    "longitude": 138.1510308,
    "link": "https://www.google.com/maps/place/%E6%9D%BE%E3%82%B1%E4%B8%98%E4%BF%9D%E8%82%B2%E5%9C%92/data=!4m7!3m6!1s0x601d814866b7ce69:0xcc232d4daaa6e3ba!8m2!3d36.6269152!4d138.1510308!16s%2Fg%2F1tfmc9k6!19sChIJac63ZkiBHWARuuOmqk0tI8w?authuser=0&hl=ja&rclk=1",
    "category": "保育園"
  },
  {
    "name": "なかじょう保育園",
    "address": "\n〒381-3203 長野県長野市中条２７７０",
    "latitude": 36.609494,
    "longitude": 138.031413,
    "link": "https://www.google.com/maps/place/%E3%81%AA%E3%81%8B%E3%81%98%E3%82%87%E3%81%86%E4%BF%9D%E8%82%B2%E5%9C%92/data=!4m7!3m6!1s0x601d7e48b382988f:0x1ce403026025cb67!8m2!3d36.609494!4d138.031413!16s%2Fg%2F1tm68_xr!19sChIJj5iCs0h-HWARZ8slYAID5Bw?authuser=0&hl=ja&rclk=1",
    "category": "保育園"
  },
  {
    "name": "中御所保育園",
    "address": "\n〒380-0935 長野県長野市中御所２丁目２９−７ 中御所保育園",
    "latitude": 36.6369569,
    "longitude": 138.1850712,
    "link": "https://www.google.com/maps/place/%E4%B8%AD%E5%BE%A1%E6%89%80%E4%BF%9D%E8%82%B2%E5%9C%92/data=!4m7!3m6!1s0x601d869129bc8b31:0xe3ecf40c4d211e7d!8m2!3d36.6369569!4d138.1850712!16s%2Fg%2F1tjv3lj_!19sChIJMYu8KZGGHWARfR4hTQz07OM?authuser=0&hl=ja&rclk=1",
    "category": "保育園"
  },
  {
    "name": "小市こども園",
    "address": "\n〒380-0961 長野県長野市安茂里小市３丁目８−１９",
    "latitude": 36.624076,
    "longitude": 138.14144,
    "link": "https://www.google.com/maps/place/%E5%B0%8F%E5%B8%82%E3%81%93%E3%81%A9%E3%82%82%E5%9C%92/data=!4m7!3m6!1s0x601d81406bfc4b6f:0xd2f82c9764614af1!8m2!3d36.624076!4d138.14144!16s%2Fg%2F1tcvj51b!19sChIJb0v8a0CBHWAR8UphZJcs-NI?authuser=0&hl=ja&rclk=1",
    "category": "保育園"
  },
  {
    "name": "長野市立東条保育園",
    "address": "\n〒380-0961 長野県長野市安茂里小市３丁目８−１９",
    "latitude": 36.5630477,
    "longitude": 138.2112962,
    "link": "https://www.google.com/maps/place/%E9%95%B7%E9%87%8E%E5%B8%82%E7%AB%8B%E6%9D%B1%E6%9D%A1%E4%BF%9D%E8%82%B2%E5%9C%92/data=!4m7!3m6!1s0x601d9acd0b9f60f7:0x5c762ebd860ed6d4!8m2!3d36.5630477!4d138.2112962!16s%2Fg%2F1tsljt53!19sChIJ92CfC82aHWAR1NYOhr0udlw?authuser=0&hl=ja&rclk=1",
    "category": "保育園"
  },
  {
    "name": "安茂里保育園",
    "address": "\n〒380-0952 長野県長野市宮沖３０９６−３ あもりほいくえん",
    "latitude": 36.6301084,
    "longitude": 138.1652182,
    "link": "https://www.google.com/maps/place/%E5%AE%89%E8%8C%82%E9%87%8C%E4%BF%9D%E8%82%B2%E5%9C%92/data=!4m7!3m6!1s0x601d86b15a946fa1:0x6704f2b985aabcba!8m2!3d36.6301084!4d138.1652182!16s%2Fg%2F1xtf1n74!19sChIJoW-UWrGGHWARuryqhbnyBGc?authuser=0&hl=ja&rclk=1",
    "category": "保育園"
  },
  {
    "name": "御厨保育園",
    "address": "\n〒381-2221 長野県長野市川中島町御厨８４３−１ 社会福祉法人・川中島青葉会 御厨保育園",
    "latitude": 36.600282,
    "longitude": 138.160142,
    "link": "https://www.google.com/maps/place/%E5%BE%A1%E5%8E%A8%E4%BF%9D%E8%82%B2%E5%9C%92/data=!4m7!3m6!1s0x601d840a744471ed:0x849bc4d698bfd0da!8m2!3d36.600282!4d138.160142!16s%2Fg%2F1tfcc7sr!19sChIJ7XFEdAqEHWAR2tC_mNbEm4Q?authuser=0&hl=ja&rclk=1",
    "category": "保育園"
  },
  {
    "name": "浅川中央保育園",
    "address": "\n〒381-0064 長野県長野市浅川東条１７７−３",
    "latitude": 36.6834102,
    "longitude": 138.2017026,
    "link": "https://www.google.com/maps/place/%E6%B5%85%E5%B7%9D%E4%B8%AD%E5%A4%AE%E4%BF%9D%E8%82%B2%E5%9C%92/data=!4m7!3m6!1s0x601d87a0e450e939:0x6e7c90fa188619a7!8m2!3d36.6834102!4d138.2017026!16s%2Fg%2F1tj_59x6!19sChIJOelQ5KCHHWARpxmGGPqQfG4?authuser=0&hl=ja&rclk=1",
    "category": "保育園"
  },
  {
    "name": "よこうち認定こども園",
    "address": "\n〒391-0001 長野県茅野市ちの２５７６−１",
    "latitude": 35.9973758,
    "longitude": 138.1457859,
    "link": "https://www.google.com/maps/place/%E3%82%88%E3%81%93%E3%81%86%E3%81%A1%E8%AA%8D%E5%AE%9A%E3%81%93%E3%81%A9%E3%82%82%E5%9C%92/data=!4m7!3m6!1s0x601c57273c1056cb:0x9bb7c477844219e6!8m2!3d35.9973758!4d138.1457859!16s%2Fg%2F11btwtgcgb!19sChIJy1YQPCdXHGAR5hlChHfEt5s?authuser=0&hl=ja&rclk=1",
    "category": "保育園"
  },
  {
    "name": "大豆島保育園",
    "address": "\n〒391-0001 長野県茅野市ちの２５７６−１",
    "latitude": 36.6259211,
    "longitude": 138.2289566,
    "link": "https://www.google.com/maps/place/%E5%A4%A7%E8%B1%86%E5%B3%B6%E4%BF%9D%E8%82%B2%E5%9C%92/data=!4m7!3m6!1s0x601d8592a50b7ce9:0x4760185e69cc7097!8m2!3d36.6259211!4d138.2289566!16s%2Fg%2F1tg_9kv5!19sChIJ6XwLpZKFHWARl3DMaV4YYEc?authuser=0&hl=ja&rclk=1",
    "category": "保育園"
  },
  {
    "name": "すずらん保育園",
    "address": "\n〒381-0057 長野県長野市浅川８７１",
    "latitude": 36.686261,
    "longitude": 138.2138928,
    "link": "https://www.google.com/maps/place/%E3%81%99%E3%81%9A%E3%82%89%E3%82%93%E4%BF%9D%E8%82%B2%E5%9C%92/data=!4m7!3m6!1s0x601d87bbe7d47cc7:0xa9f94c179fbcf9cc!8m2!3d36.686261!4d138.2138928!16s%2Fg%2F1tgpy8dp!19sChIJx3zU57uHHWARzPm8nxdM-ak?authuser=0&hl=ja&rclk=1",
    "category": "保育園"
  },
  {
    "name": "保科保育園",
    "address": "\n〒381-0057 長野県長野市浅川８７１",
    "latitude": 36.588302,
    "longitude": 138.259321,
    "link": "https://www.google.com/maps/place/%E4%BF%9D%E7%A7%91%E4%BF%9D%E8%82%B2%E5%9C%92/data=!4m7!3m6!1s0x601d8fde2a6dbfd3:0x7cfe9e6ee9dca49c!8m2!3d36.588302!4d138.259321!16s%2Fg%2F1tf5q9fv!19sChIJ079tKt6PHWARnKTc6W6e_nw?authuser=0&hl=ja&rclk=1",
    "category": "保育園"
  },
  {
    "name": "朝日村立 あさひ保育園",
    "address": "\n〒381-0057 長野県長野市浅川８７１",
    "latitude": 36.1259307,
    "longitude": 137.8623504,
    "link": "https://www.google.com/maps/place/%E6%9C%9D%E6%97%A5%E6%9D%91%E7%AB%8B+%E3%81%82%E3%81%95%E3%81%B2%E4%BF%9D%E8%82%B2%E5%9C%92/data=!4m7!3m6!1s0x601d108fe5d112cd:0xc9e906cec217e68d!8m2!3d36.1259307!4d137.8623504!16s%2Fg%2F11btwv2ydc!19sChIJzRLR5Y8QHWARjeYXws4G6ck?authuser=0&hl=ja&rclk=1",
    "category": "保育園"
  },
  {
    "name": "有明の森認定こども園",
    "address": "\n〒390-1104 長野県東筑摩郡朝日村古見１２７４−１",
    "latitude": 36.3693353,
    "longitude": 137.8480741,
    "link": "https://www.google.com/maps/place/%E6%9C%89%E6%98%8E%E3%81%AE%E6%A3%AE%E8%AA%8D%E5%AE%9A%E3%81%93%E3%81%A9%E3%82%82%E5%9C%92/data=!4m7!3m6!1s0x601d6ed6af236531:0x322dad28bf3a1ef4!8m2!3d36.3693353!4d137.8480741!16s%2Fg%2F1tfpvbfv!19sChIJMWUjr9ZuHWAR9B46vyitLTI?authuser=0&hl=ja&rclk=1",
    "category": "保育園"
  },
  {
    "name": "穂高認定こども園",
    "address": "\n〒399-8303 長野県安曇野市穂高９１７５",
    "latitude": 36.3392925,
    "longitude": 137.8727729,
    "link": "https://www.google.com/maps/place/%E7%A9%82%E9%AB%98%E8%AA%8D%E5%AE%9A%E3%81%93%E3%81%A9%E3%82%82%E5%9C%92/data=!4m7!3m6!1s0x601d6c300212c551:0x7aaf8c490dcba8c6!8m2!3d36.3392925!4d137.8727729!16s%2Fg%2F1td9w5w9!19sChIJUcUSAjBsHWARxqjLDUmMr3o?authuser=0&hl=ja&rclk=1",
    "category": "保育園"
  },
  {
    "name": "丹波島保育園",
    "address": "\n〒381-2247 長野県長野市青木島３丁目１０−３ パティオたんばじま",
    "latitude": 36.616414,
    "longitude": 138.177715,
    "link": "https://www.google.com/maps/place/%E4%B8%B9%E6%B3%A2%E5%B3%B6%E4%BF%9D%E8%82%B2%E5%9C%92/data=!4m7!3m6!1s0x601d8418e54678a1:0x180067adcbb9c216!8m2!3d36.616414!4d138.177715!16s%2Fg%2F1tjjpfv4!19sChIJoXhG5RiEHWARFsK5y61nABg?authuser=0&hl=ja&rclk=1",
    "category": "保育園"
  },
  {
    "name": "上高田保育園",
    "address": "\n〒381-0034 長野県長野市高田上高田１４４６−１",
    "latitude": 36.6435533,
    "longitude": 138.2142736,
    "link": "https://www.google.com/maps/place/%E4%B8%8A%E9%AB%98%E7%94%B0%E4%BF%9D%E8%82%B2%E5%9C%92/data=!4m7!3m6!1s0x601d867159381941:0x42b285f55b8d23a1!8m2!3d36.6435533!4d138.2142736!16s%2Fg%2F1vg4jwl8!19sChIJQRk4WXGGHWARoSONW_WFskI?authuser=0&hl=ja&rclk=1",
    "category": "保育園"
  },
  {
    "name": "フレンドこども園",
    "address": "\n〒381-2226 長野県長野市川中島町今井１３４４−４",
    "latitude": 36.6019855,
    "longitude": 138.1517052,
    "link": "https://www.google.com/maps/place/%E3%83%95%E3%83%AC%E3%83%B3%E3%83%89%E3%81%93%E3%81%A9%E3%82%82%E5%9C%92/data=!4m7!3m6!1s0x601d83f0703bd24d:0xeacc5c4d6ea9b341!8m2!3d36.6019855!4d138.1517052!16s%2Fg%2F1tf7xt0r!19sChIJTdI7cPCDHWARQbOpbk1czOo?authuser=0&hl=ja&rclk=1",
    "category": "保育園"
  },
  {
    "name": "若葉保育園",
    "address": "\n〒380-0813 長野県長野市鶴賀１５９４",
    "latitude": 36.6505927,
    "longitude": 138.1936314,
    "link": "https://www.google.com/maps/place/%E8%8B%A5%E8%91%89%E4%BF%9D%E8%82%B2%E5%9C%92/data=!4m7!3m6!1s0x601d86f39484cb93:0x692bb4fac78d97d!8m2!3d36.6505927!4d138.1936314!16s%2Fg%2F1tfrmdvp!19sChIJk8uElPOGHWARfdl4rE-7kgY?authuser=0&hl=ja&rclk=1",
    "category": "保育園"
  },
  {
    "name": "聖徳保育園",
    "address": "\n〒381-0081 長野県長野市三才２１１４",
    "latitude": 36.687549,
    "longitude": 138.245187,
    "link": "https://www.google.com/maps/place/%E8%81%96%E5%BE%B3%E4%BF%9D%E8%82%B2%E5%9C%92/data=!4m7!3m6!1s0x601d887df137690f:0x223b1060a04ada3b!8m2!3d36.687549!4d138.245187!16s%2Fg%2F1vkxmbgk!19sChIJD2k38X2IHWARO9pKoGAQOyI?authuser=0&hl=ja&rclk=1",
    "category": "保育園"
  },
  {
    "name": "象山保育園",
    "address": "\n〒381-1231 長野県長野市松代町松代１４２１−３",
    "latitude": 36.5588478,
    "longitude": 138.1995104,
    "link": "https://www.google.com/maps/place/%E8%B1%A1%E5%B1%B1%E4%BF%9D%E8%82%B2%E5%9C%92/data=!4m7!3m6!1s0x601d9b2a9e39a4bf:0x804f5d833ecf124e!8m2!3d36.5588478!4d138.1995104!16s%2Fg%2F1w665h21!19sChIJv6Q5niqbHWARThLPPoNdT4A?authuser=0&hl=ja&rclk=1",
    "category": "保育園"
  },
  {
    "name": "川上保育園",
    "address": "\n〒380-0802 長野県長野市上松４丁目６−２６",
    "latitude": 36.6712113,
    "longitude": 138.200706,
    "link": "https://www.google.com/maps/place/%E5%B7%9D%E4%B8%8A%E4%BF%9D%E8%82%B2%E5%9C%92/data=!4m7!3m6!1s0x601d87aa6996f06d:0x7f82faaab234b9be!8m2!3d36.6712113!4d138.200706!16s%2Fg%2F1v29c2q9!19sChIJbfCWaaqHHWARvrk0sqr6gn8?authuser=0&hl=ja&rclk=1",
    "category": "保育園"
  },
  {
    "name": "長野大橋保育園",
    "address": "\n〒381-2205 長野県長野市青木島町大塚４６３−４",
    "latitude": 36.6077183,
    "longitude": 138.1920928,
    "link": "https://www.google.com/maps/place/%E9%95%B7%E9%87%8E%E5%A4%A7%E6%A9%8B%E4%BF%9D%E8%82%B2%E5%9C%92/data=!4m7!3m6!1s0x601d84491e21491b:0xc1a7b67c664df3b9!8m2!3d36.6077183!4d138.1920928!16s%2Fg%2F1tjl5_57!19sChIJG0khHkmEHWARufNNZny2p8E?authuser=0&hl=ja&rclk=1",
    "category": "保育園"
  },
  {
    "name": "長野市立 後町保育園",
    "address": "\n〒380-0845 長野県長野市南長野６１４−６",
    "latitude": 36.6519072,
    "longitude": 138.1861692,
    "link": "https://www.google.com/maps/place/%E9%95%B7%E9%87%8E%E5%B8%82%E7%AB%8B+%E5%BE%8C%E7%94%BA%E4%BF%9D%E8%82%B2%E5%9C%92/data=!4m7!3m6!1s0x601d86ef6b531f6d:0x49a7215bc517da0b!8m2!3d36.6519072!4d138.1861692!16s%2Fg%2F1tn05wnb!19sChIJbR9Ta--GHWARC9oXxVshp0k?authuser=0&hl=ja&rclk=1",
    "category": "保育園"
  },
  {
    "name": "認定こども園にしおか",
    "address": "\n〒386-0151 長野県上田市芳田１４１１−１",
    "latitude": 36.3883791,
    "longitude": 138.2969752,
    "link": "https://www.google.com/maps/place/%E8%AA%8D%E5%AE%9A%E3%81%93%E3%81%A9%E3%82%82%E5%9C%92%E3%81%AB%E3%81%97%E3%81%8A%E3%81%8B/data=!4m7!3m6!1s0x601dbc7508d3b45b:0xd3d15f4887d46334!8m2!3d36.3883791!4d138.2969752!16s%2Fg%2F1tf5q9gh!19sChIJW7TTCHW8HWARNGPUh0hf0dM?authuser=0&hl=ja&rclk=1",
    "category": "保育園"
  },
  {
    "name": "社福)北条こども園",
    "address": "\n〒381-0034 長野県長野市高田北条９４−５",
    "latitude": 36.6520512,
    "longitude": 138.2071207,
    "link": "https://www.google.com/maps/place/%E7%A4%BE%E7%A6%8F%29%E5%8C%97%E6%9D%A1%E3%81%93%E3%81%A9%E3%82%82%E5%9C%92/data=!4m7!3m6!1s0x601d86679f981929:0x4eb3a50019866d91!8m2!3d36.6520512!4d138.2071207!16s%2Fg%2F1tf874v4!19sChIJKRmYn2eGHWARkW2GGQCls04?authuser=0&hl=ja&rclk=1",
    "category": "保育園"
  },
  {
    "name": "済生会長野保育園",
    "address": "\n〒380-0803 長野県長野市三輪８丁目４３−８",
    "latitude": 36.6643248,
    "longitude": 138.1965785,
    "link": "https://www.google.com/maps/place/%E6%B8%88%E7%94%9F%E4%BC%9A%E9%95%B7%E9%87%8E%E4%BF%9D%E8%82%B2%E5%9C%92/data=!4m7!3m6!1s0x601d86fe57803e79:0x4ccd1ee732184fa8!8m2!3d36.6643248!4d138.1965785!16s%2Fg%2F1tdh8jfn!19sChIJeT6AV_6GHWARqE8YMucezUw?authuser=0&hl=ja&rclk=1",
    "category": "保育園"
  },
  {
    "name": "豊野ひがし保育園",
    "address": "\n〒389-1102 長野県長野市豊野町大倉２１９６ 市立豊野ひがし保育園",
    "latitude": 36.729776,
    "longitude": 138.292767,
    "link": "https://www.google.com/maps/place/%E8%B1%8A%E9%87%8E%E3%81%B2%E3%81%8C%E3%81%97%E4%BF%9D%E8%82%B2%E5%9C%92/data=!4m7!3m6!1s0x601d89c69dc8df33:0x19a42952625fa04!8m2!3d36.729776!4d138.292767!16s%2Fg%2F1tfqlgfg!19sChIJM9_IncaJHWARBPolJpVCmgE?authuser=0&hl=ja&rclk=1",
    "category": "保育園"
  },
  {
    "name": "小柴見保育園",
    "address": "\n〒380-0942 長野県長野市小柴見２２８",
    "latitude": 36.641866,
    "longitude": 138.176128,
    "link": "https://www.google.com/maps/place/%E5%B0%8F%E6%9F%B4%E8%A6%8B%E4%BF%9D%E8%82%B2%E5%9C%92/data=!4m7!3m6!1s0x601d86c0e1050b8f:0x632196dd31c3826c!8m2!3d36.641866!4d138.176128!16s%2Fg%2F1tk_jsx0!19sChIJjwsF4cCGHWARbILDMd2WIWM?authuser=0&hl=ja&rclk=1",
    "category": "保育園"
  },
  {
    "name": "加茂保育園",
    "address": "\n〒380-0873 長野県長野市新諏訪１丁目１１−３１ 市立加茂保育園",
    "latitude": 36.6573442,
    "longitude": 138.1726993,
    "link": "https://www.google.com/maps/place/%E5%8A%A0%E8%8C%82%E4%BF%9D%E8%82%B2%E5%9C%92/data=!4m7!3m6!1s0x601d87270c630b67:0xe02383bf6a627dc0!8m2!3d36.6573442!4d138.1726993!16s%2Fg%2F1tr8lnhz!19sChIJZwtjDCeHHWARwH1iar-DI-A?authuser=0&hl=ja&rclk=1",
    "category": "保育園"
  },
  {
    "name": "長野市立 豊栄保育園",
    "address": "\n〒381-1222 長野県長野市松代町豊栄２７９８−１",
    "latitude": 36.5437477,
    "longitude": 138.2289089,
    "link": "https://www.google.com/maps/place/%E9%95%B7%E9%87%8E%E5%B8%82%E7%AB%8B+%E8%B1%8A%E6%A0%84%E4%BF%9D%E8%82%B2%E5%9C%92/data=!4m7!3m6!1s0x601d9a8f78fe42e7:0x4f285b3a519bb579!8m2!3d36.5437477!4d138.2289089!16s%2Fg%2F1thbwrfd!19sChIJ50L-eI-aHWARebWbUTpbKE8?authuser=0&hl=ja&rclk=1",
    "category": "保育園"
  },
  {
    "name": "杉の子第2保育園",
    "address": "\n〒381-0012 長野県長野市柳原７０６ 杉の子第２保育園",
    "latitude": 36.6520058,
    "longitude": 138.2530254,
    "link": "https://www.google.com/maps/place/%E6%9D%89%E3%81%AE%E5%AD%90%E7%AC%AC2%E4%BF%9D%E8%82%B2%E5%9C%92/data=!4m7!3m6!1s0x601d8f4c42a65edf:0x73fdee1e8a91a6e9!8m2!3d36.6520058!4d138.2530254!16s%2Fg%2F1wf38ppx!19sChIJ316mQkyPHWAR6aaRih7u_XM?authuser=0&hl=ja&rclk=1",
    "category": "保育園"
  },
  {
    "name": "社福)新志福祉会 杉の子あぴっく保育園",
    "address": "\n〒381-0021 長野県長野市大字, 屋島２３３６−３４０",
    "latitude": 36.6396196,
    "longitude": 138.2458053,
    "link": "https://www.google.com/maps/place/%E7%A4%BE%E7%A6%8F%29%E6%96%B0%E5%BF%97%E7%A6%8F%E7%A5%89%E4%BC%9A+%E6%9D%89%E3%81%AE%E5%AD%90%E3%81%82%E3%81%B4%E3%81%A3%E3%81%8F%E4%BF%9D%E8%82%B2%E5%9C%92/data=!4m7!3m6!1s0x601d8f5bbe62a6c3:0x59643104e3e20139!8m2!3d36.6396196!4d138.2458053!16s%2Fg%2F1tgwmscx!19sChIJw6ZivluPHWAROQHi4wQxZFk?authuser=0&hl=ja&rclk=1",
    "category": "保育園"
  },
  {
    "name": "松本市立 和田保育園",
    "address": "\n〒381-0021 長野県長野市大字, 屋島２３３６−３４０",
    "latitude": 36.203388,
    "longitude": 137.915165,
    "link": "https://www.google.com/maps/place/%E6%9D%BE%E6%9C%AC%E5%B8%82%E7%AB%8B+%E5%92%8C%E7%94%B0%E4%BF%9D%E8%82%B2%E5%9C%92/data=!4m7!3m6!1s0x601d11ddb22b9a2b:0x72dea976360f267e!8m2!3d36.203388!4d137.915165!16s%2Fg%2F1td6mr4h!19sChIJK5orst0RHWARfiYPNnap3nI?authuser=0&hl=ja&rclk=1",
    "category": "保育園"
  },
  {
    "name": "松本みらい保育園 むらいキッズ",
    "address": "\n〒399-0036 長野県松本市村井町南２丁目６−９",
    "latitude": 36.1792151,
    "longitude": 137.9646393,
    "link": "https://www.google.com/maps/place/%E6%9D%BE%E6%9C%AC%E3%81%BF%E3%82%89%E3%81%84%E4%BF%9D%E8%82%B2%E5%9C%92+%E3%82%80%E3%82%89%E3%81%84%E3%82%AD%E3%83%83%E3%82%BA/data=!4m7!3m6!1s0x601d0f7f1cbd21ef:0x7ffb1a4e3e6296ce!8m2!3d36.1792151!4d137.9646393!16s%2Fg%2F11jmw8wcns!19sChIJ7yG9HH8PHWARzpZiPk4a-38?authuser=0&hl=ja&rclk=1",
    "category": "保育園"
  },
  {
    "name": "認定こども園豊野みなみ",
    "address": "\n〒389-1105 長野県長野市豊野町豊野４３０−６",
    "latitude": 36.708914,
    "longitude": 138.275636,
    "link": "https://www.google.com/maps/place/%E8%AA%8D%E5%AE%9A%E3%81%93%E3%81%A9%E3%82%82%E5%9C%92%E8%B1%8A%E9%87%8E%E3%81%BF%E3%81%AA%E3%81%BF/data=!4m7!3m6!1s0x601d885273fd2d21:0x82bc42fa499734d5!8m2!3d36.708914!4d138.275636!16s%2Fg%2F1tgpspwg!19sChIJIS39c1KIHWAR1TSXSfpCvII?authuser=0&hl=ja&rclk=1",
    "category": "保育園"
  },
  {
    "name": "認定こども園ふたご",
    "address": "\n〒399-0033 長野県松本市笹賀４９９２−１",
    "latitude": 36.1933628,
    "longitude": 137.9395105,
    "link": "https://www.google.com/maps/place/%E8%AA%8D%E5%AE%9A%E3%81%93%E3%81%A9%E3%82%82%E5%9C%92%E3%81%B5%E3%81%9F%E3%81%94/data=!4m7!3m6!1s0x601d0fca2a6fbdd7:0x6d5d97f624efd0c8!8m2!3d36.1933628!4d137.9395105!16s%2Fg%2F1tcwln4v!19sChIJ171vKsoPHWARyNDvJPaXXW0?authuser=0&hl=ja&rclk=1",
    "category": "保育園"
  },
  {
    "name": "安曇野市立たつみ認定こども園",
    "address": "\n〒399-8204 長野県安曇野市豊科高家１５１−１",
    "latitude": 36.258159,
    "longitude": 137.921268,
    "link": "https://www.google.com/maps/place/%E5%AE%89%E6%9B%87%E9%87%8E%E5%B8%82%E7%AB%8B%E3%81%9F%E3%81%A4%E3%81%BF%E8%AA%8D%E5%AE%9A%E3%81%93%E3%81%A9%E3%82%82%E5%9C%92/data=!4m7!3m6!1s0x601d127f5cb9b5c7:0x9eec25d9203cc800!8m2!3d36.258159!4d137.921268!16s%2Fg%2F1v7pykdk!19sChIJx7W5XH8SHWARAMg8INkl7J4?authuser=0&hl=ja&rclk=1",
    "category": "保育園"
  },
  {
    "name": "柳町保育園",
    "address": "\n〒380-0803 長野県長野市三輪１丁目２−８ 柳町子育支援センター",
    "latitude": 36.654707,
    "longitude": 138.2037,
    "link": "https://www.google.com/maps/place/%E6%9F%B3%E7%94%BA%E4%BF%9D%E8%82%B2%E5%9C%92/data=!4m7!3m6!1s0x601d865e96fc6915:0xc38b34078d779712!8m2!3d36.654707!4d138.2037!16s%2Fg%2F1tffd8dh!19sChIJFWn8ll6GHWAREpd3jQc0i8M?authuser=0&hl=ja&rclk=1",
    "category": "保育園"
  },
  {
    "name": "西条保育園",
    "address": "\n〒381-1232 長野県長野市松代町西条３６２３−１",
    "latitude": 36.5483111,
    "longitude": 138.2034279,
    "link": "https://www.google.com/maps/place/%E8%A5%BF%E6%9D%A1%E4%BF%9D%E8%82%B2%E5%9C%92/data=!4m7!3m6!1s0x601d9adeb584102b:0xa7c422253cabe46f!8m2!3d36.5483111!4d138.2034279!16s%2Fg%2F1tg9n6k9!19sChIJKxCEtd6aHWARb-SrPCUixKc?authuser=0&hl=ja&rclk=1",
    "category": "保育園"
  },
  {
    "name": "信学会栗田こども園",
    "address": "\n〒380-0922 長野県長野市七瀬３番地６",
    "latitude": 36.6430038,
    "longitude": 138.1917701,
    "link": "https://www.google.com/maps/place/%E4%BF%A1%E5%AD%A6%E4%BC%9A%E6%A0%97%E7%94%B0%E3%81%93%E3%81%A9%E3%82%82%E5%9C%92/data=!4m7!3m6!1s0x601d868dc98df793:0x3cf0ba958418c507!8m2!3d36.6430038!4d138.1917701!16s%2Fg%2F1vg_cyqf!19sChIJk_eNyY2GHWARB8UYhJW68Dw?authuser=0&hl=ja&rclk=1",
    "category": "保育園"
  },
  {
    "name": "飯綱町さみずっ子保育園",
    "address": "\n〒389-1206 長野県上水内郡飯綱町普光寺１７０−４",
    "latitude": 36.7605772,
    "longitude": 138.2500906,
    "link": "https://www.google.com/maps/place/%E9%A3%AF%E7%B6%B1%E7%94%BA%E3%81%95%E3%81%BF%E3%81%9A%E3%81%A3%E5%AD%90%E4%BF%9D%E8%82%B2%E5%9C%92/data=!4m7!3m6!1s0x5ff6270286b5d941:0xd1ae2f1528f299b3!8m2!3d36.7605772!4d138.2500906!16s%2Fg%2F1tg9hdcn!19sChIJQdm1hgIn9l8Rs5nyKBUvrtE?authuser=0&hl=ja&rclk=1",
    "category": "保育園"
  },
  {
    "name": "つましな保育園",
    "address": "\n〒380-0872 長野県長野市南長野妻科２９４−４",
    "latitude": 36.654431,
    "longitude": 138.179186,
    "link": "https://www.google.com/maps/place/%E3%81%A4%E3%81%BE%E3%81%97%E3%81%AA%E4%BF%9D%E8%82%B2%E5%9C%92/data=!4m7!3m6!1s0x601d86ddfd0c70d9:0xc2dc5637e10b462a!8m2!3d36.654431!4d138.179186!16s%2Fg%2F1thl0ydv!19sChIJ2XAM_d2GHWARKkYL4TdW3MI?authuser=0&hl=ja&rclk=1",
    "category": "保育園"
  },
  {
    "name": "長沼保育園",
    "address": "\n〒381-0002 長野県長野市津野２０３−１",
    "latitude": 36.6898381,
    "longitude": 138.2660257,
    "link": "https://www.google.com/maps/place/%E9%95%B7%E6%B2%BC%E4%BF%9D%E8%82%B2%E5%9C%92/data=!4m7!3m6!1s0x601d88fab153a8d9:0xd40abc39c5269d99!8m2!3d36.6898381!4d138.2660257!16s%2Fg%2F1vxw8bj0!19sChIJ2ahTsfqIHWARmZ0mxTm8CtQ?authuser=0&hl=ja&rclk=1",
    "category": "保育園"
  },
  {
    "name": "豊科認定こども園",
    "address": "\n〒399-8205 長野県安曇野市豊科４５５３−１５",
    "latitude": 36.2955179,
    "longitude": 137.9039546,
    "link": "https://www.google.com/maps/place/%E8%B1%8A%E7%A7%91%E8%AA%8D%E5%AE%9A%E3%81%93%E3%81%A9%E3%82%82%E5%9C%92/data=!4m7!3m6!1s0x601d6d4999cc82f1:0x203f5fb87b902994!8m2!3d36.2955179!4d137.9039546!16s%2Fg%2F1tmxwnzh!19sChIJ8YLMmUltHWARlCmQe7hfPyA?authuser=0&hl=ja&rclk=1",
    "category": "保育園"
  },
  {
    "name": "芹田東部こども園",
    "address": "\n〒380-0916 長野県長野市稲葉 中千田2166番池2",
    "latitude": 36.6330903,
    "longitude": 138.2032499,
    "link": "https://www.google.com/maps/place/%E8%8A%B9%E7%94%B0%E6%9D%B1%E9%83%A8%E3%81%93%E3%81%A9%E3%82%82%E5%9C%92/data=!4m7!3m6!1s0x601d85d58cc1482f:0x32ebf1e79468b21e!8m2!3d36.6330903!4d138.2032499!16s%2Fg%2F1tpps0x2!19sChIJL0jBjNWFHWARHrJolOfx6zI?authuser=0&hl=ja&rclk=1",
    "category": "保育園"
  },
  {
    "name": "（令和8年度認定こども園移行予定） まきば保育園",
    "address": "\n〒380-0916 長野県長野市稲葉 中千田2166番池2",
    "latitude": 36.5743935,
    "longitude": 138.2117348,
    "link": "https://www.google.com/maps/place/%EF%BC%88%E4%BB%A4%E5%92%8C8%E5%B9%B4%E5%BA%A6%E8%AA%8D%E5%AE%9A%E3%81%93%E3%81%A9%E3%82%82%E5%9C%92%E7%A7%BB%E8%A1%8C%E4%BA%88%E5%AE%9A%EF%BC%89+%E3%81%BE%E3%81%8D%E3%81%B0%E4%BF%9D%E8%82%B2%E5%9C%92/data=!4m7!3m6!1s0x601d853078eb0c05:0x438ea971c303937b!8m2!3d36.5743935!4d138.2117348!16s%2Fg%2F1tk635yc!19sChIJBQzreDCFHWARe5MDw3GpjkM?authuser=0&hl=ja&rclk=1",
    "category": "保育園"
  },
  {
    "name": "杉の子第3保育園",
    "address": "\n〒388-8011 長野県長野市篠ノ井布施五明五明４９６−６ 杉の子第三保育園",
    "latitude": 36.581216,
    "longitude": 138.13103,
    "link": "https://www.google.com/maps/place/%E6%9D%89%E3%81%AE%E5%AD%90%E7%AC%AC3%E4%BF%9D%E8%82%B2%E5%9C%92/data=!4m7!3m6!1s0x601d83b9ebaeb7fb:0x57930e817793c773!8m2!3d36.581216!4d138.13103!16s%2Fg%2F1w0q__3k!19sChIJ-7eu67mDHWARc8eTd4EOk1c?authuser=0&hl=ja&rclk=1",
    "category": "保育園"
  },
  {
    "name": "きみいち保育園",
    "address": "\n〒392-0015 長野県諏訪市中洲下金子４０６７−２",
    "latitude": 36.011242,
    "longitude": 138.115782,
    "link": "https://www.google.com/maps/place/%E3%81%8D%E3%81%BF%E3%81%84%E3%81%A1%E4%BF%9D%E8%82%B2%E5%9C%92/data=!4m7!3m6!1s0x601c56636f0c90ff:0xa6c980cbaf9a77b4!8m2!3d36.011242!4d138.115782!16s%2Fg%2F1td053ms!19sChIJ_5AMb2NWHGARtHear8uAyaY?authuser=0&hl=ja&rclk=1",
    "category": "保育園"
  },
  {
    "name": "信州新町保育園",
    "address": "\n〒381-2406 長野県長野市信州新町里穂刈４２３−１",
    "latitude": 36.568135,
    "longitude": 138.001839,
    "link": "https://www.google.com/maps/place/%E4%BF%A1%E5%B7%9E%E6%96%B0%E7%94%BA%E4%BF%9D%E8%82%B2%E5%9C%92/data=!4m7!3m6!1s0x601d7e9e3db0b1a7:0x43d217397905d37c!8m2!3d36.568135!4d138.001839!16s%2Fg%2F1tdvk7yr!19sChIJp7GwPZ5-HWARfNMFeTkX0kM?authuser=0&hl=ja&rclk=1",
    "category": "保育園"
  },
  {
    "name": "下氷鉋保育園",
    "address": "\n〒381-2211 長野県長野市稲里町下氷鉋６８−１",
    "latitude": 36.6005539,
    "longitude": 138.1778408,
    "link": "https://www.google.com/maps/place/%E4%B8%8B%E6%B0%B7%E9%89%8B%E4%BF%9D%E8%82%B2%E5%9C%92/data=!4m7!3m6!1s0x601d846a25fd162b:0xac816254e2d46e3d!8m2!3d36.6005539!4d138.1778408!16s%2Fg%2F1vf9cfrl!19sChIJKxb9JWqEHWARPW7U4lRigaw?authuser=0&hl=ja&rclk=1",
    "category": "保育園"
  },
  {
    "name": "長和町 ながと保育園",
    "address": "\n〒386-0602 長野県小県郡長和町長久保５０７−１",
    "latitude": 36.2565818,
    "longitude": 138.2679854,
    "link": "https://www.google.com/maps/place/%E9%95%B7%E5%92%8C%E7%94%BA+%E3%81%AA%E3%81%8C%E3%81%A8%E4%BF%9D%E8%82%B2%E5%9C%92/data=!4m7!3m6!1s0x601db1babe2bc4d1:0x37d8e5b78664a60b!8m2!3d36.2565818!4d138.2679854!16s%2Fg%2F11btrqzrk2!19sChIJ0cQrvrqxHWARC6Zkhrfl2Dc?authuser=0&hl=ja&rclk=1",
    "category": "保育園"
  },
  {
    "name": "松本市立 双葉保育園",
    "address": "\n〒386-0602 長野県小県郡長和町長久保５０７−１",
    "latitude": 36.3507536,
    "longitude": 137.9973527,
    "link": "https://www.google.com/maps/place/%E6%9D%BE%E6%9C%AC%E5%B8%82%E7%AB%8B+%E5%8F%8C%E8%91%89%E4%BF%9D%E8%82%B2%E5%9C%92/data=!4m7!3m6!1s0x601d73611f4d85fb:0xfea562786c9ab342!8m2!3d36.3507536!4d137.9973527!16s%2Fg%2F1tmpd_w9!19sChIJ-4VNH2FzHWARQrOabHhipf4?authuser=0&hl=ja&rclk=1",
    "category": "保育園"
  },
  {
    "name": "よしだ保育園",
    "address": "\n〒399-0701 長野県塩尻市広丘吉田４９８−２",
    "latitude": 36.1604854,
    "longitude": 137.9465694,
    "link": "https://www.google.com/maps/place/%E3%82%88%E3%81%97%E3%81%A0%E4%BF%9D%E8%82%B2%E5%9C%92/data=!4m7!3m6!1s0x601d05e03b974309:0x83fa818e104d98e3!8m2!3d36.1604854!4d137.9465694!16s%2Fg%2F11p5n41mgd!19sChIJCUOXO-AFHWAR45hNEI6B-oM?authuser=0&hl=ja&rclk=1",
    "category": "保育園"
  },
  {
    "name": "生坂保育園",
    "address": "\n〒399-0701 長野県塩尻市広丘吉田４９８−２",
    "latitude": 36.4233562,
    "longitude": 137.930024,
    "link": "https://www.google.com/maps/place/%E7%94%9F%E5%9D%82%E4%BF%9D%E8%82%B2%E5%9C%92/data=!4m7!3m6!1s0x601d702313264aef:0xe6ffed2d59563ad1!8m2!3d36.4233562!4d137.930024!16s%2Fg%2F1tdkgqv4!19sChIJ70omEyNwHWAR0TpWWS3t_-Y?authuser=0&hl=ja&rclk=1",
    "category": "保育園"
  },
  {
    "name": "三輪保育園",
    "address": "\n〒380-0803 長野県長野市三輪８丁目６−３１",
    "latitude": 36.66232,
    "longitude": 138.200048,
    "link": "https://www.google.com/maps/place/%E4%B8%89%E8%BC%AA%E4%BF%9D%E8%82%B2%E5%9C%92/data=!4m7!3m6!1s0x601d865622a69bdb:0xec264410f76a8a81!8m2!3d36.66232!4d138.200048!16s%2Fg%2F1tf_syyf!19sChIJ25umIlaGHWARgYpq9xBEJuw?authuser=0&hl=ja&rclk=1",
    "category": "保育園"
  },
  {
    "name": "松本市立野溝保育園",
    "address": "\n〒399-0034 長野県松本市野溝東２丁目１−２７",
    "latitude": 36.1973492,
    "longitude": 137.956451,
    "link": "https://www.google.com/maps/place/%E6%9D%BE%E6%9C%AC%E5%B8%82%E7%AB%8B%E9%87%8E%E6%BA%9D%E4%BF%9D%E8%82%B2%E5%9C%92/data=!4m7!3m6!1s0x601d0fa8caab714b:0x95bfefef46cdfc5f!8m2!3d36.1973492!4d137.956451!16s%2Fg%2F1vhq3sl9!19sChIJS3GryqgPHWARX_zNRu_vv5U?authuser=0&hl=ja&rclk=1",
    "category": "保育園"
  },
  {
    "name": "南郷保育園",
    "address": "\n〒390-0804 長野県松本市横田３丁目２３−１ 松本市南郷こどもプラザ",
    "latitude": 36.245496,
    "longitude": 137.988265,
    "link": "https://www.google.com/maps/place/%E5%8D%97%E9%83%B7%E4%BF%9D%E8%82%B2%E5%9C%92/data=!4m7!3m6!1s0x601d0ebb2d4a80d1:0x4bbacfb995cde030!8m2!3d36.245496!4d137.988265!16s%2Fg%2F1wz52szf!19sChIJ0YBKLbsOHWARMODNlbnPuks?authuser=0&hl=ja&rclk=1",
    "category": "保育園"
  },
  {
    "name": "松本市立 渕東保育園",
    "address": "\n〒390-1401 長野県松本市波田４１７９",
    "latitude": 36.195931,
    "longitude": 137.839716,
    "link": "https://www.google.com/maps/place/%E6%9D%BE%E6%9C%AC%E5%B8%82%E7%AB%8B+%E6%B8%95%E6%9D%B1%E4%BF%9D%E8%82%B2%E5%9C%92/data=!4m7!3m6!1s0x601d1406c5348fdb:0xcfb9941531bdbd55!8m2!3d36.195931!4d137.839716!16s%2Fg%2F1vh_8g8m!19sChIJ2480xQYUHWARVb29MRWUuc8?authuser=0&hl=ja&rclk=1",
    "category": "保育園"
  },
  {
    "name": "松本市立堀米保育園",
    "address": "\n〒390-0852 長野県松本市島立１０１１ 市立堀米保育園",
    "latitude": 36.2342325,
    "longitude": 137.9425865,
    "link": "https://www.google.com/maps/place/%E6%9D%BE%E6%9C%AC%E5%B8%82%E7%AB%8B%E5%A0%80%E7%B1%B3%E4%BF%9D%E8%82%B2%E5%9C%92/data=!4m7!3m6!1s0x601d0e7546a001e7:0xf1d1434611bc5be6!8m2!3d36.2342325!4d137.9425865!16s%2Fg%2F1tld07lm!19sChIJ5wGgRnUOHWAR5lu8EUZD0fE?authuser=0&hl=ja&rclk=1",
    "category": "保育園"
  },
  {
    "name": "（令和８年度認定こども園移行予定）社会福祉法人 和良会 子供の園保育園",
    "address": "\n〒388-8007 長野県長野市篠ノ井布施高田６８９−３",
    "latitude": 36.579514,
    "longitude": 138.142884,
    "link": "https://www.google.com/maps/place/%EF%BC%88%E4%BB%A4%E5%92%8C%EF%BC%98%E5%B9%B4%E5%BA%A6%E8%AA%8D%E5%AE%9A%E3%81%93%E3%81%A9%E3%82%82%E5%9C%92%E7%A7%BB%E8%A1%8C%E4%BA%88%E5%AE%9A%EF%BC%89%E7%A4%BE%E4%BC%9A%E7%A6%8F%E7%A5%89%E6%B3%95%E4%BA%BA+%E5%92%8C%E8%89%AF%E4%BC%9A+%E5%AD%90%E4%BE%9B%E3%81%AE%E5%9C%92%E4%BF%9D%E8%82%B2%E5%9C%92/data=!4m7!3m6!1s0x601d8399b703c8ef:0xfb244ea266725496!8m2!3d36.579514!4d138.142884!16s%2Fg%2F1tczw04l!19sChIJ78gDt5mDHWARllRyZqJOJPs?authuser=0&hl=ja&rclk=1",
    "category": "保育園"
  },
  {
    "name": "豊野さつき保育園",
    "address": "\n〒389-1106 長野県長野市豊野町石２２３５−１ 市立豊野さつき保育園",
    "latitude": 36.70607,
    "longitude": 138.259174,
    "link": "https://www.google.com/maps/place/%E8%B1%8A%E9%87%8E%E3%81%95%E3%81%A4%E3%81%8D%E4%BF%9D%E8%82%B2%E5%9C%92/data=!4m7!3m6!1s0x601d8869fd3242e9:0x4226db86bb358f4e!8m2!3d36.70607!4d138.259174!16s%2Fg%2F1v3ds66h!19sChIJ6UIy_WmIHWARTo81u4bbJkI?authuser=0&hl=ja&rclk=1",
    "category": "保育園"
  },
  {
    "name": "松本市立村井保育園",
    "address": "\n〒399-0036 長野県松本市村井町南１丁目３４−４",
    "latitude": 36.1752827,
    "longitude": 137.95852,
    "link": "https://www.google.com/maps/place/%E6%9D%BE%E6%9C%AC%E5%B8%82%E7%AB%8B%E6%9D%91%E4%BA%95%E4%BF%9D%E8%82%B2%E5%9C%92/data=!4m7!3m6!1s0x601d0f83ce1364ab:0xb5dc584fae1ad5f6!8m2!3d36.1752827!4d137.95852!16s%2Fg%2F1thvybwv!19sChIJq2QTzoMPHWAR9tUark9Y3LU?authuser=0&hl=ja&rclk=1",
    "category": "保育園"
  },
  {
    "name": "安曇野市立堀金認定こども園",
    "address": "\n〒399-8211 長野県安曇野市堀金烏川２２８０",
    "latitude": 36.2977,
    "longitude": 137.867826,
    "link": "https://www.google.com/maps/place/%E5%AE%89%E6%9B%87%E9%87%8E%E5%B8%82%E7%AB%8B%E5%A0%80%E9%87%91%E8%AA%8D%E5%AE%9A%E3%81%93%E3%81%A9%E3%82%82%E5%9C%92/data=!4m7!3m6!1s0x601d6ceea4142bff:0x60d3c385a030be8a!8m2!3d36.2977!4d137.867826!16s%2Fg%2F1tf6xfck!19sChIJ_ysUpO5sHWARir4woIXD02A?authuser=0&hl=ja&rclk=1",
    "category": "保育園"
  },
  {
    "name": "ニチイキッズ松本村井保育園",
    "address": "\n〒399-0037 長野県松本市村井町西１丁目7番51号",
    "latitude": 36.1735523,
    "longitude": 137.9517985,
    "link": "https://www.google.com/maps/place/%E3%83%8B%E3%83%81%E3%82%A4%E3%82%AD%E3%83%83%E3%82%BA%E6%9D%BE%E6%9C%AC%E6%9D%91%E4%BA%95%E4%BF%9D%E8%82%B2%E5%9C%92/data=!4m7!3m6!1s0x601d0f34094579a3:0x44341f2493e285d6!8m2!3d36.1735523!4d137.9517985!16s%2Fg%2F11jg5t2h16!19sChIJo3lFCTQPHWAR1oXikyQfNEQ?authuser=0&hl=ja&rclk=1",
    "category": "保育園"
  },
  {
    "name": "たてしな保育園",
    "address": "\n〒384-2305 長野県北佐久郡立科町芦田２９９１−６",
    "latitude": 36.2816826,
    "longitude": 138.3170549,
    "link": "https://www.google.com/maps/place/%E3%81%9F%E3%81%A6%E3%81%97%E3%81%AA%E4%BF%9D%E8%82%B2%E5%9C%92/data=!4m7!3m6!1s0x601db12cc10db1ab:0xaf3f8191312520fd!8m2!3d36.2816826!4d138.3170549!16s%2Fg%2F12hkl21_6!19sChIJq7ENwSyxHWAR_SAlMZGBP68?authuser=0&hl=ja&rclk=1",
    "category": "保育園"
  },
  {
    "name": "やよい認定こども園",
    "address": "\n〒390-0846 長野県松本市南原２丁目１１−５",
    "latitude": 36.2077366,
    "longitude": 137.9448611,
    "link": "https://www.google.com/maps/place/%E3%82%84%E3%82%88%E3%81%84%E8%AA%8D%E5%AE%9A%E3%81%93%E3%81%A9%E3%82%82%E5%9C%92/data=!4m7!3m6!1s0x601d0e48ee7c5b6b:0x20b9718ae1cb4567!8m2!3d36.2077366!4d137.9448611!16s%2Fg%2F1tdbqysx!19sChIJa1t87kgOHWARZ0XL4YpxuSA?authuser=0&hl=ja&rclk=1",
    "category": "保育園"
  },
  {
    "name": "松本市立 神林保育園",
    "address": "\n〒390-1243 長野県松本市大字神林１４９８ 市立神林保育園",
    "latitude": 36.19364,
    "longitude": 137.922028,
    "link": "https://www.google.com/maps/place/%E6%9D%BE%E6%9C%AC%E5%B8%82%E7%AB%8B+%E7%A5%9E%E6%9E%97%E4%BF%9D%E8%82%B2%E5%9C%92/data=!4m7!3m6!1s0x601d0e2a7488459f:0x1dcf36b5c00dcdbd!8m2!3d36.19364!4d137.922028!16s%2Fg%2F1tdc598m!19sChIJn0WIdCoOHWARvc0NwLU2zx0?authuser=0&hl=ja&rclk=1",
    "category": "保育園"
  },
  {
    "name": "北穂高認定こども園",
    "address": "\n〒399-8302 長野県安曇野市穂高北穂高４９４−１",
    "latitude": 36.358482,
    "longitude": 137.8857748,
    "link": "https://www.google.com/maps/place/%E5%8C%97%E7%A9%82%E9%AB%98%E8%AA%8D%E5%AE%9A%E3%81%93%E3%81%A9%E3%82%82%E5%9C%92/data=!4m7!3m6!1s0x601d6e7c20bf8839:0xdea9879c813eef32!8m2!3d36.358482!4d137.8857748!16s%2Fg%2F1tcyfk1x!19sChIJOYi_IHxuHWARMu8-gZyHqd4?authuser=0&hl=ja&rclk=1",
    "category": "保育園"
  },
  {
    "name": "とがくし保育園",
    "address": "\n〒399-8302 長野県安曇野市穂高北穂高４９４−１",
    "latitude": 36.7033346,
    "longitude": 138.0894843,
    "link": "https://www.google.com/maps/place/%E3%81%A8%E3%81%8C%E3%81%8F%E3%81%97%E4%BF%9D%E8%82%B2%E5%9C%92/data=!4m7!3m6!1s0x5ff62bb8739cf8c5:0xa33a4f7ecb31b268!8m2!3d36.7033346!4d138.0894843!16s%2Fg%2F1v4psvmg!19sChIJxficc7gr9l8RaLIxy35POqM?authuser=0&hl=ja&rclk=1",
    "category": "保育園"
  },
  {
    "name": "松本市立井川城保育園",
    "address": "\n〒390-0831 長野県松本市井川城１丁目６",
    "latitude": 36.2239552,
    "longitude": 137.9644485,
    "link": "https://www.google.com/maps/place/%E6%9D%BE%E6%9C%AC%E5%B8%82%E7%AB%8B%E4%BA%95%E5%B7%9D%E5%9F%8E%E4%BF%9D%E8%82%B2%E5%9C%92/data=!4m7!3m6!1s0x601d0ef450b912bf:0x46b25e5ef62c5cef!8m2!3d36.2239552!4d137.9644485!16s%2Fg%2F11ggvvr666!19sChIJvxK5UPQOHWAR71ws9l5eskY?authuser=0&hl=ja&rclk=1",
    "category": "保育園"
  },
  {
    "name": "相之島保育園",
    "address": "\n〒382-0065 長野県須坂市相之島３９１−１",
    "latitude": 36.6762072,
    "longitude": 138.2865805,
    "link": "https://www.google.com/maps/place/%E7%9B%B8%E4%B9%8B%E5%B3%B6%E4%BF%9D%E8%82%B2%E5%9C%92/data=!4m7!3m6!1s0x601d8925d1185701:0x84b7dbf0745b5d28!8m2!3d36.6762072!4d138.2865805!16s%2Fg%2F1thbwrdw!19sChIJAVcY0SWJHWARKF1bdPDbt4Q?authuser=0&hl=ja&rclk=1",
    "category": "保育園"
  },
  {
    "name": "古間保育園",
    "address": "\n〒389-1312 長野県上水内郡信濃町富濃２０５８",
    "latitude": 36.801121,
    "longitude": 138.227059,
    "link": "https://www.google.com/maps/place/%E5%8F%A4%E9%96%93%E4%BF%9D%E8%82%B2%E5%9C%92/data=!4m7!3m6!1s0x5ff6240bcf32811b:0x11f4f4faaf6872ed!8m2!3d36.801121!4d138.227059!16s%2Fg%2F1tdqzkm1!19sChIJG4Eyzwsk9l8R7XJor_r09BE?authuser=0&hl=ja&rclk=1",
    "category": "保育園"
  },
  {
    "name": "杉の子保育園",
    "address": "\n〒388-8018 長野県長野市篠ノ井西寺尾２７９８",
    "latitude": 36.585915,
    "longitude": 138.186529,
    "link": "https://www.google.com/maps/place/%E6%9D%89%E3%81%AE%E5%AD%90%E4%BF%9D%E8%82%B2%E5%9C%92/data=!4m7!3m6!1s0x601d84f12c2b653b:0x4abc95b11788dc3c!8m2!3d36.585915!4d138.186529!16s%2Fg%2F1tpps0wz!19sChIJO2UrLPGEHWARPNyIF7GVvEo?authuser=0&hl=ja&rclk=1",
    "category": "保育園"
  },
  {
    "name": "たかやしろ保育園",
    "address": "\n〒383-0004 長野県中野市赤岩１５２５−２",
    "latitude": 36.7883618,
    "longitude": 138.361613,
    "link": "https://www.google.com/maps/place/%E3%81%9F%E3%81%8B%E3%82%84%E3%81%97%E3%82%8D%E4%BF%9D%E8%82%B2%E5%9C%92/data=!4m7!3m6!1s0x5ff6206b20467bd9:0x2bb7a24ed2fa34b9!8m2!3d36.7883618!4d138.361613!16s%2Fg%2F1tcwq_1t!19sChIJ2XtGIGsg9l8RuTT60k6itys?authuser=0&hl=ja&rclk=1",
    "category": "保育園"
  },
  {
    "name": "飯島町立 東部保育園",
    "address": "\n〒399-3702 長野県上伊那郡飯島町飯島鳥居原５８７",
    "latitude": 35.6747765,
    "longitude": 137.936346,
    "link": "https://www.google.com/maps/place/%E9%A3%AF%E5%B3%B6%E7%94%BA%E7%AB%8B+%E6%9D%B1%E9%83%A8%E4%BF%9D%E8%82%B2%E5%9C%92/data=!4m7!3m6!1s0x601c8d935349b847:0xe8160f8f74c44786!8m2!3d35.6747765!4d137.936346!16s%2Fg%2F1thq9yc4!19sChIJR7hJU5ONHGARhkfEdI8PFug?authuser=0&hl=ja&rclk=1",
    "category": "保育園"
  },
  {
    "name": "あがた保育園",
    "address": "\n〒390-0812 長野県松本市県１丁目９−３",
    "latitude": 36.2344562,
    "longitude": 137.982376,
    "link": "https://www.google.com/maps/place/%E3%81%82%E3%81%8C%E3%81%9F%E4%BF%9D%E8%82%B2%E5%9C%92/data=!4m7!3m6!1s0x601d0ebf8b022791:0xc0005a347ebf4c0f!8m2!3d36.2344562!4d137.982376!16s%2Fg%2F12xqxj8sr!19sChIJkScCi78OHWARD0y_fjRaAMA?authuser=0&hl=ja&rclk=1",
    "category": "保育園"
  },
  {
    "name": "飯田市立 三穂保育園",
    "address": "\n〒399-2434 長野県飯田市伊豆木５４５１−１４",
    "latitude": 35.437905,
    "longitude": 137.792626,
    "link": "https://www.google.com/maps/place/%E9%A3%AF%E7%94%B0%E5%B8%82%E7%AB%8B+%E4%B8%89%E7%A9%82%E4%BF%9D%E8%82%B2%E5%9C%92/data=!4m7!3m6!1s0x601c9f3b45a15275:0x9a352bb9434723b5!8m2!3d35.437905!4d137.792626!16s%2Fg%2F1tr9nhdq!19sChIJdVKhRTufHGARtSNHQ7krNZo?authuser=0&hl=ja&rclk=1",
    "category": "保育園"
  },
  {
    "name": "西穂高認定こども園",
    "address": "\n〒399-8304 長野県安曇野市穂高柏原５２１７",
    "latitude": 36.323373,
    "longitude": 137.872403,
    "link": "https://www.google.com/maps/place/%E8%A5%BF%E7%A9%82%E9%AB%98%E8%AA%8D%E5%AE%9A%E3%81%93%E3%81%A9%E3%82%82%E5%9C%92/data=!4m7!3m6!1s0x601d6c457fd6ab3b:0x7750645f99541415!8m2!3d36.323373!4d137.872403!16s%2Fg%2F1tl_lt0x!19sChIJO6vWf0VsHWARFRRUmV9kUHc?authuser=0&hl=ja&rclk=1",
    "category": "保育園"
  },
  {
    "name": "ほなみ保育園",
    "address": "\n〒381-0402 長野県下高井郡山ノ内町佐野１０５８",
    "latitude": 36.732321,
    "longitude": 138.410525,
    "link": "https://www.google.com/maps/place/%E3%81%BB%E3%81%AA%E3%81%BF%E4%BF%9D%E8%82%B2%E5%9C%92/data=!4m7!3m6!1s0x601df4baef24fe6d:0xa8319d7d64592ae8!8m2!3d36.732321!4d138.410525!16s%2Fg%2F1th5zwv_!19sChIJbf4k77r0HWAR6CpZZH2dMag?authuser=0&hl=ja&rclk=1",
    "category": "保育園"
  },
  {
    "name": "神田保育園",
    "address": "\n〒390-0822 長野県松本市神田１丁目３−１",
    "latitude": 36.2208038,
    "longitude": 137.9871748,
    "link": "https://www.google.com/maps/place/%E7%A5%9E%E7%94%B0%E4%BF%9D%E8%82%B2%E5%9C%92/data=!4m7!3m6!1s0x601d0ed926ac7c4d:0x12964c0c2b2b6930!8m2!3d36.2208038!4d137.9871748!16s%2Fg%2F1tnjjndb!19sChIJTXysJtkOHWARMGkrKwxMlhI?authuser=0&hl=ja&rclk=1",
    "category": "保育園"
  },
  {
    "name": "鬼無里保育園",
    "address": "\n〒381-4301 長野県長野市鬼無里１６０−４",
    "latitude": 36.6804291,
    "longitude": 138.0031094,
    "link": "https://www.google.com/maps/place/%E9%AC%BC%E7%84%A1%E9%87%8C%E4%BF%9D%E8%82%B2%E5%9C%92/data=!4m7!3m6!1s0x5ff7d4bb3fc19c1f:0x384b8a3a53a7708a!8m2!3d36.6804291!4d138.0031094!16s%2Fg%2F1ttdmvlv!19sChIJH5zBP7vU918RinCnUzqKSzg?authuser=0&hl=ja&rclk=1",
    "category": "保育園"
  },
  {
    "name": "町立木曽こども園",
    "address": "\n〒381-4301 長野県長野市鬼無里１６０−４",
    "latitude": 35.8586245,
    "longitude": 137.7031782,
    "link": "https://www.google.com/maps/place/%E7%94%BA%E7%AB%8B%E6%9C%A8%E6%9B%BD%E3%81%93%E3%81%A9%E3%82%82%E5%9C%92/data=!4m7!3m6!1s0x601cdebe0b503879:0x2f453c3df1f2dd76!8m2!3d35.8586245!4d137.7031782!16s%2Fg%2F1tf7s69_!19sChIJeThQC77eHGARdt3y8T08RS8?authuser=0&hl=ja&rclk=1",
    "category": "保育園"
  },
  {
    "name": "保育所キッズワールド",
    "address": "\n〒381-4301 長野県長野市鬼無里１６０−４",
    "latitude": 36.2121036,
    "longitude": 137.9726945,
    "link": "https://www.google.com/maps/place/%E4%BF%9D%E8%82%B2%E6%89%80%E3%82%AD%E3%83%83%E3%82%BA%E3%83%AF%E3%83%BC%E3%83%AB%E3%83%89/data=!4m7!3m6!1s0x601d0f1d5ffc4b17:0xc1c9dd92c945f0c4!8m2!3d36.2121036!4d137.9726945!16s%2Fg%2F1tfydnby!19sChIJF0v8Xx0PHWARxPBFyZLdycE?authuser=0&hl=ja&rclk=1",
    "category": "保育園"
  },
  {
    "name": "島立中央保育園",
    "address": "\n〒390-0826 長野県松本市出川町５−３",
    "latitude": 36.2204678,
    "longitude": 137.9425779,
    "link": "https://www.google.com/maps/place/%E5%B3%B6%E7%AB%8B%E4%B8%AD%E5%A4%AE%E4%BF%9D%E8%82%B2%E5%9C%92/data=!4m7!3m6!1s0x601d0e6b38ac8d7b:0x9b3e1f807f448694!8m2!3d36.2204678!4d137.9425779!16s%2Fg%2F1vyswm2d!19sChIJe42sOGsOHWARlIZEf4AfPps?authuser=0&hl=ja&rclk=1",
    "category": "保育園"
  },
  {
    "name": "渋崎保育園",
    "address": "\n〒390-0826 長野県松本市出川町５−３",
    "latitude": 36.036344,
    "longitude": 138.097647,
    "link": "https://www.google.com/maps/place/%E6%B8%8B%E5%B4%8E%E4%BF%9D%E8%82%B2%E5%9C%92/data=!4m7!3m6!1s0x601c55942baab80f:0x909f068b5828794b!8m2!3d36.036344!4d138.097647!16s%2Fg%2F1tdqhk10!19sChIJD7iqK5RVHGARS3koWIsGn5A?authuser=0&hl=ja&rclk=1",
    "category": "保育園"
  },
  {
    "name": "聖ヨゼフ保育園諏訪",
    "address": "\n〒390-0826 長野県松本市出川町５−３",
    "latitude": 36.0112198,
    "longitude": 138.1308832,
    "link": "https://www.google.com/maps/place/%E8%81%96%E3%83%A8%E3%82%BC%E3%83%95%E4%BF%9D%E8%82%B2%E5%9C%92%E8%AB%8F%E8%A8%AA/data=!4m7!3m6!1s0x601c5692be7ffe7f:0x71586ab0aa9e6bcd!8m2!3d36.0112198!4d138.1308832!16s%2Fg%2F1td7nd1d!19sChIJf_5_vpJWHGARzWueqrBqWHE?authuser=0&hl=ja&rclk=1",
    "category": "保育園"
  },
  {
    "name": "イキイキほいくえん",
    "address": "\n〒390-0826 長野県松本市出川町５−３",
    "latitude": 36.644714,
    "longitude": 138.189899,
    "link": "https://www.google.com/maps/place/%E3%82%A4%E3%82%AD%E3%82%A4%E3%82%AD%E3%81%BB%E3%81%84%E3%81%8F%E3%81%88%E3%82%93/data=!4m7!3m6!1s0x601d868d5e868d73:0x20eb4d1a55985a0f!8m2!3d36.644714!4d138.189899!16s%2Fg%2F11fb17srb0!19sChIJc42GXo2GHWARD1qYVRpN6yA?authuser=0&hl=ja&rclk=1",
    "category": "保育園"
  },
  {
    "name": "山形保育園",
    "address": "\n〒380-0823 長野県長野市南千歳１丁目１６−２",
    "latitude": 36.1694154,
    "longitude": 137.8741951,
    "link": "https://www.google.com/maps/place/%E5%B1%B1%E5%BD%A2%E4%BF%9D%E8%82%B2%E5%9C%92/data=!4m7!3m6!1s0x601d11aead771509:0x9d214ffd477f08d!8m2!3d36.1694154!4d137.8741951!16s%2Fg%2F11kjp1f0jv!19sChIJCRV3ra4RHWARjfB31P8U0gk?authuser=0&hl=ja&rclk=1",
    "category": "保育園"
  },
  {
    "name": "南穂高認定こども園",
    "address": "\n〒399-8201 長野県安曇野市豊科南穂高２８５６",
    "latitude": 36.3089467,
    "longitude": 137.9087923,
    "link": "https://www.google.com/maps/place/%E5%8D%97%E7%A9%82%E9%AB%98%E8%AA%8D%E5%AE%9A%E3%81%93%E3%81%A9%E3%82%82%E5%9C%92/data=!4m7!3m6!1s0x601d6d4242c09917:0xfd4f72ba58f91cea!8m2!3d36.3089467!4d137.9087923!16s%2Fg%2F1tgf38yz!19sChIJF5nAQkJtHWAR6hz5WLpyT_0?authuser=0&hl=ja&rclk=1",
    "category": "保育園"
  },
  {
    "name": "松本市立 波田中央保育園",
    "address": "\n〒390-1401 長野県松本市波田１００９８−１",
    "latitude": 36.204049,
    "longitude": 137.857023,
    "link": "https://www.google.com/maps/place/%E6%9D%BE%E6%9C%AC%E5%B8%82%E7%AB%8B+%E6%B3%A2%E7%94%B0%E4%B8%AD%E5%A4%AE%E4%BF%9D%E8%82%B2%E5%9C%92/data=!4m7!3m6!1s0x601d13e423681979:0x1adf5458ad704ccd!8m2!3d36.204049!4d137.857023!16s%2Fg%2F1tf07rbb!19sChIJeRloI-QTHWARzUxwrVhU3xo?authuser=0&hl=ja&rclk=1",
    "category": "保育園"
  },
  {
    "name": "めぐみ保育園",
    "address": "\n〒389-2254 長野県飯山市南町２６−１７",
    "latitude": 36.8503783,
    "longitude": 138.3614314,
    "link": "https://www.google.com/maps/place/%E3%82%81%E3%81%90%E3%81%BF%E4%BF%9D%E8%82%B2%E5%9C%92/data=!4m7!3m6!1s0x5ff619290fdd8367:0x1ed498098f6ff494!8m2!3d36.8503783!4d138.3614314!16s%2Fg%2F1tfs0xwv!19sChIJZ4PdDykZ9l8RlPRvjwmY1B4?authuser=0&hl=ja&rclk=1",
    "category": "保育園"
  },
  {
    "name": "寺尾保育園",
    "address": "\n〒381-1213 長野県長野市松代町小島田３５７１",
    "latitude": 36.5919234,
    "longitude": 138.2082515,
    "link": "https://www.google.com/maps/place/%E5%AF%BA%E5%B0%BE%E4%BF%9D%E8%82%B2%E5%9C%92/data=!4m7!3m6!1s0x601d85046b1d47f1:0x40b8658588aad667!8m2!3d36.5919234!4d138.2082515!16s%2Fg%2F1tcvbzm5!19sChIJ8UcdawSFHWARZ9aqiIVluEA?authuser=0&hl=ja&rclk=1",
    "category": "保育園"
  },
  {
    "name": "下諏訪町 とがわ保育園",
    "address": "\n〒393-0093 長野県諏訪郡下諏訪町社６７２５−２",
    "latitude": 36.0813298,
    "longitude": 138.0785807,
    "link": "https://www.google.com/maps/place/%E4%B8%8B%E8%AB%8F%E8%A8%AA%E7%94%BA+%E3%81%A8%E3%81%8C%E3%82%8F%E4%BF%9D%E8%82%B2%E5%9C%92/data=!4m7!3m6!1s0x601d0000c2ebd3ef:0x6204b2883551294a!8m2!3d36.0813298!4d138.0785807!16s%2Fg%2F1hc37ty67!19sChIJ79PrwgAAHWARSilRNYiyBGI?authuser=0&hl=ja&rclk=1",
    "category": "保育園"
  },
  {
    "name": "高山村立 たかやま保育園",
    "address": "\n〒382-0837 長野県上高井郡高山村 大字高井堀之内468",
    "latitude": 36.6699352,
    "longitude": 138.3481182,
    "link": "https://www.google.com/maps/place/%E9%AB%98%E5%B1%B1%E6%9D%91%E7%AB%8B+%E3%81%9F%E3%81%8B%E3%82%84%E3%81%BE%E4%BF%9D%E8%82%B2%E5%9C%92/data=!4m7!3m6!1s0x601d8c453bd77fa9:0x2b476ea61ca2e471!8m2!3d36.6699352!4d138.3481182!16s%2Fg%2F1tdjr6k4!19sChIJqX_XO0WMHWARceSiHKZuRys?authuser=0&hl=ja&rclk=1",
    "category": "保育園"
  },
  {
    "name": "下條保育所",
    "address": "\n〒399-2102 長野県下伊那郡下條村陽皐８６５",
    "latitude": 35.391062,
    "longitude": 137.795403,
    "link": "https://www.google.com/maps/place/%E4%B8%8B%E6%A2%9D%E4%BF%9D%E8%82%B2%E6%89%80/data=!4m7!3m6!1s0x601c9fcf06e7bb83:0x862a174507cc105d!8m2!3d35.391062!4d137.795403!16s%2Fg%2F1v2yyymw!19sChIJg7vnBs-fHGARXRDMB0UXKoY?authuser=0&hl=ja&rclk=1",
    "category": "保育園"
  },
  {
    "name": "須坂東部保育園",
    "address": "\n〒382-0902 長野県須坂市大字日滝高橋町１１８５−１",
    "latitude": 36.6598137,
    "longitude": 138.3213201,
    "link": "https://www.google.com/maps/place/%E9%A0%88%E5%9D%82%E6%9D%B1%E9%83%A8%E4%BF%9D%E8%82%B2%E5%9C%92/data=!4m7!3m6!1s0x601d8c2703132ef1:0xbaad469943b33d22!8m2!3d36.6598137!4d138.3213201!16s%2Fg%2F1tm12pbw!19sChIJ8S4TAyeMHWARIj2zQ5lGrbo?authuser=0&hl=ja&rclk=1",
    "category": "保育園"
  },
  {
    "name": "認定こども園 りんどう幼稚園",
    "address": "\n〒398-0001 長野県大町市平借馬５４２４−１",
    "latitude": 36.524284,
    "longitude": 137.847053,
    "link": "https://www.google.com/maps/place/%E8%AA%8D%E5%AE%9A%E3%81%93%E3%81%A9%E3%82%82%E5%9C%92+%E3%82%8A%E3%82%93%E3%81%A9%E3%81%86%E5%B9%BC%E7%A8%9A%E5%9C%92/data=!4m7!3m6!1s0x601d6228a5428eff:0x8e249e5905f452fe!8m2!3d36.524284!4d137.847053!16s%2Fg%2F1wf21ylk!19sChIJ_45CpShiHWAR_lL0BVmeJI4?authuser=0&hl=ja&rclk=1",
    "category": "幼稚園"
  },
  {
    "name": "こどもの森幼稚園",
    "address": "\n〒380-0888 長野県長野市上ケ屋２４７１−２５５４",
    "latitude": 36.710041,
    "longitude": 138.143784,
    "link": "https://www.google.com/maps/place/%E3%81%93%E3%81%A9%E3%82%82%E3%81%AE%E6%A3%AE%E5%B9%BC%E7%A8%9A%E5%9C%92/data=!4m7!3m6!1s0x5ff629994496abbd:0x4edffb7f3788d41!8m2!3d36.710041!4d138.143784!16s%2Fg%2F1tggtcls!19sChIJvauWRJkp9l8RQY1487f_7QQ?authuser=0&hl=ja&rclk=1",
    "category": "幼稚園"
  },
  {
    "name": "篠ノ井学園 篠ノ井幼稚園",
    "address": "\n〒388-8007 長野県長野市篠ノ井布施高田３５１",
    "latitude": 36.580714,
    "longitude": 138.147139,
    "link": "https://www.google.com/maps/place/%E7%AF%A0%E3%83%8E%E4%BA%95%E5%AD%A6%E5%9C%92+%E7%AF%A0%E3%83%8E%E4%BA%95%E5%B9%BC%E7%A8%9A%E5%9C%92/data=!4m7!3m6!1s0x601d839a56b993fd:0x31805604304167b!8m2!3d36.580714!4d138.147139!16s%2Fg%2F1tgdch3n!19sChIJ_ZO5VpqDHWARexYEQ2AFGAM?authuser=0&hl=ja&rclk=1",
    "category": "幼稚園"
  },
  {
    "name": "篠ノ井学園 南長野幼稚園",
    "address": "\n〒381-2243 長野県長野市稲里１丁目１５−１２",
    "latitude": 36.6143069,
    "longitude": 138.1712905,
    "link": "https://www.google.com/maps/place/%E7%AF%A0%E3%83%8E%E4%BA%95%E5%AD%A6%E5%9C%92+%E5%8D%97%E9%95%B7%E9%87%8E%E5%B9%BC%E7%A8%9A%E5%9C%92/data=!4m7!3m6!1s0x601d841b6cbb4eff:0x7c41d0a8137dbbe1!8m2!3d36.6143069!4d138.1712905!16s%2Fg%2F1tcyrxn0!19sChIJ_067bBuEHWAR4bt9E6jQQXw?authuser=0&hl=ja&rclk=1",
    "category": "幼稚園"
  },
  {
    "name": "長野ひまわり幼稚園",
    "address": "\n〒380-0928 長野県長野市若里１丁目２２−１６",
    "latitude": 36.6323016,
    "longitude": 138.1888092,
    "link": "https://www.google.com/maps/place/%E9%95%B7%E9%87%8E%E3%81%B2%E3%81%BE%E3%82%8F%E3%82%8A%E5%B9%BC%E7%A8%9A%E5%9C%92/data=!4m7!3m6!1s0x601d869b5b4945ef:0x5850300cba326c1d!8m2!3d36.6323016!4d138.1888092!16s%2Fg%2F1trvlh_c!19sChIJ70VJW5uGHWARHWwyugwwUFg?authuser=0&hl=ja&rclk=1",
    "category": "幼稚園"
  },
  {
    "name": "円福幼稚園",
    "address": "\n772, 篠ノ井横田 長野市 長野県 388-8005",
    "latitude": 36.5620701,
    "longitude": 138.1431366,
    "link": "https://www.google.com/maps/place/%E5%86%86%E7%A6%8F%E5%B9%BC%E7%A8%9A%E5%9C%92/data=!4m7!3m6!1s0x601d836d95941ff3:0x123f7b6a2b1e0faf!8m2!3d36.5620701!4d138.1431366!16s%2Fg%2F1vppsltw!19sChIJ8x-UlW2DHWARrw8eK2p7PxI?authuser=0&hl=ja&rclk=1",
    "category": "幼稚園"
  },
  {
    "name": "ルンビニ幼稚園",
    "address": "\n〒380-0921 長野県長野市栗田４６５",
    "latitude": 36.637354,
    "longitude": 138.196809,
    "link": "https://www.google.com/maps/place/%E3%83%AB%E3%83%B3%E3%83%93%E3%83%8B%E5%B9%BC%E7%A8%9A%E5%9C%92/data=!4m7!3m6!1s0x601d8686ff20cb59:0x648ee38a417c84f5!8m2!3d36.637354!4d138.196809!16s%2Fg%2F1v46_ff4!19sChIJWcsg_4aGHWAR9YR8QYrjjmQ?authuser=0&hl=ja&rclk=1",
    "category": "幼稚園"
  },
  {
    "name": "旭幼稚園",
    "address": "\n〒380-0803 長野県長野市三輪４丁目１−３２",
    "latitude": 36.6597449,
    "longitude": 138.2027362,
    "link": "https://www.google.com/maps/place/%E6%97%AD%E5%B9%BC%E7%A8%9A%E5%9C%92/data=!4m7!3m6!1s0x601d8659da68c453:0x52bb866091b9bd8!8m2!3d36.6597449!4d138.2027362!16s%2Fg%2F1vfn6qyt!19sChIJU8Ro2lmGHWAR2JsbCWa4KwU?authuser=0&hl=ja&rclk=1",
    "category": "幼稚園"
  },
  {
    "name": "パドマ幼稚園",
    "address": "\n〒380-0847 長野県長野市大字長野若松町１０２８",
    "latitude": 36.656534,
    "longitude": 138.1843843,
    "link": "https://www.google.com/maps/place/%E3%83%91%E3%83%89%E3%83%9E%E5%B9%BC%E7%A8%9A%E5%9C%92/data=!4m7!3m6!1s0x601d86e6abbe5a0b:0x2c599ba8fa752caa!8m2!3d36.656534!4d138.1843843!16s%2Fg%2F1vxcwhl5!19sChIJC1q-q-aGHWARqix1-qibWSw?authuser=0&hl=ja&rclk=1",
    "category": "幼稚園"
  },
  {
    "name": "松代幼稚園",
    "address": "\n〒381-1231 長野県長野市松代町殿町１６７",
    "latitude": 36.5632876,
    "longitude": 138.2012623,
    "link": "https://www.google.com/maps/place/%E6%9D%BE%E4%BB%A3%E5%B9%BC%E7%A8%9A%E5%9C%92/data=!4m7!3m6!1s0x601d852af7d8d7a5:0x213b33a8de2cf34b!8m2!3d36.5632876!4d138.2012623!16s%2Fg%2F1td65d4m!19sChIJpdfY9yqFHWARS_Ms3qgzOyE?authuser=0&hl=ja&rclk=1",
    "category": "幼稚園"
  },
  {
    "name": "みかさ幼稚園",
    "address": "\n〒381-0015 長野県長野市石渡２５４",
    "latitude": 36.662067,
    "longitude": 138.236079,
    "link": "https://www.google.com/maps/place/%E3%81%BF%E3%81%8B%E3%81%95%E5%B9%BC%E7%A8%9A%E5%9C%92/data=!4m7!3m6!1s0x601d861e933a5859:0x47fd700a6e3bf361!8m2!3d36.662067!4d138.236079!16s%2Fg%2F1tfmhx71!19sChIJWVg6kx6GHWARYfM7bgpw_Uc?authuser=0&hl=ja&rclk=1",
    "category": "幼稚園"
  },
  {
    "name": "和光幼稚園",
    "address": "\n〒381-0037 長野県長野市西和田２丁目２０−２２",
    "latitude": 36.6566027,
    "longitude": 138.218012,
    "link": "https://www.google.com/maps/place/%E5%92%8C%E5%85%89%E5%B9%BC%E7%A8%9A%E5%9C%92/data=!4m7!3m6!1s0x601d866a92e0cc59:0x7818009368eb64a7!8m2!3d36.6566027!4d138.218012!16s%2Fg%2F1tgnx904!19sChIJWczgkmqGHWARp2TraJMAGHg?authuser=0&hl=ja&rclk=1",
    "category": "幼稚園"
  },
  {
    "name": "長野あけぼの幼稚園",
    "address": "\n〒380-0904 長野県長野市鶴賀七瀬中町１７３",
    "latitude": 36.6465091,
    "longitude": 138.1981666,
    "link": "https://www.google.com/maps/place/%E9%95%B7%E9%87%8E%E3%81%82%E3%81%91%E3%81%BC%E3%81%AE%E5%B9%BC%E7%A8%9A%E5%9C%92/data=!4m7!3m6!1s0x601d868a5d1fddbf:0x512da7e646c35505!8m2!3d36.6465091!4d138.1981666!16s%2Fg%2F1hbpwrp34!19sChIJv90fXYqGHWARBVXDRuanLVE?authuser=0&hl=ja&rclk=1",
    "category": "幼稚園"
  },
  {
    "name": "信学会裾花幼稚園",
    "address": "\n〒380-0958 長野県長野市伊勢宮２丁目７−１",
    "latitude": 36.6309998,
    "longitude": 138.1688054,
    "link": "https://www.google.com/maps/place/%E4%BF%A1%E5%AD%A6%E4%BC%9A%E8%A3%BE%E8%8A%B1%E5%B9%BC%E7%A8%9A%E5%9C%92/data=!4m7!3m6!1s0x601d86b0bef081fd:0x302cf0efbf78722!8m2!3d36.6309998!4d138.1688054!16s%2Fg%2F1wd3w3qw!19sChIJ_YHwvrCGHWARIof3-w7PAgM?authuser=0&hl=ja&rclk=1",
    "category": "幼稚園"
  },
  {
    "name": "聖十字幼稚園",
    "address": "\n〒390-0876 長野県松本市開智１丁目６−２５",
    "latitude": 36.2403573,
    "longitude": 137.9657683,
    "link": "https://www.google.com/maps/place/%E8%81%96%E5%8D%81%E5%AD%97%E5%B9%BC%E7%A8%9A%E5%9C%92/data=!4m7!3m6!1s0x601d0e86adef3ca3:0x3ab997acde9a8fab!8m2!3d36.2403573!4d137.9657683!16s%2Fg%2F1tf15z4w!19sChIJozzvrYYOHWARq4-a3qyXuTo?authuser=0&hl=ja&rclk=1",
    "category": "幼稚園"
  },
  {
    "name": "梅花幼稚園",
    "address": "\n〒386-0024 長野県上田市大手２丁目２−８",
    "latitude": 36.402823,
    "longitude": 138.25113,
    "link": "https://www.google.com/maps/place/%E6%A2%85%E8%8A%B1%E5%B9%BC%E7%A8%9A%E5%9C%92/data=!4m7!3m6!1s0x601dbcd8774dd5e7:0x92352f037c854f4b!8m2!3d36.402823!4d138.25113!16s%2Fg%2F1v9gk22d!19sChIJ59VNd9i8HWARS0-FfAMvNZI?authuser=0&hl=ja&rclk=1",
    "category": "幼稚園"
  },
  {
    "name": "若草幼稚園",
    "address": "\n〒381-0043 長野県長野市吉田３丁目１５−４",
    "latitude": 36.6694841,
    "longitude": 138.2198102,
    "link": "https://www.google.com/maps/place/%E8%8B%A5%E8%8D%89%E5%B9%BC%E7%A8%9A%E5%9C%92/data=!4m7!3m6!1s0x601d86362c8e9181:0xdd0c34b74bdefbb1!8m2!3d36.6694841!4d138.2198102!16s%2Fg%2F1tfsn1sr!19sChIJgZGOLDaGHWARsfveS7c0DN0?authuser=0&hl=ja&rclk=1",
    "category": "幼稚園"
  },
  {
    "name": "篠ノ井学園 東長野幼稚園",
    "address": "\n〒381-2212 長野県長野市小島田町１３３",
    "latitude": 36.6036932,
    "longitude": 138.1832826,
    "link": "https://www.google.com/maps/place/%E7%AF%A0%E3%83%8E%E4%BA%95%E5%AD%A6%E5%9C%92+%E6%9D%B1%E9%95%B7%E9%87%8E%E5%B9%BC%E7%A8%9A%E5%9C%92/data=!4m7!3m6!1s0x601d84416adae8ad:0xf363f67cdac243cc!8m2!3d36.6036932!4d138.1832826!16s%2Fg%2F1tgfdfvq!19sChIJrejaakGEHWARzEPC2nz2Y_M?authuser=0&hl=ja&rclk=1",
    "category": "幼稚園"
  },
  {
    "name": "軽井沢幼稚園",
    "address": "\n〒389-0102 長野県北佐久郡軽井沢町軽井沢旧軽井沢７８６",
    "latitude": 36.357854,
    "longitude": 138.6352225,
    "link": "https://www.google.com/maps/place/%E8%BB%BD%E4%BA%95%E6%B2%A2%E5%B9%BC%E7%A8%9A%E5%9C%92/data=!4m7!3m6!1s0x601dd3863e35dadf:0x6be51e8f8cc8bcd7!8m2!3d36.357854!4d138.6352225!16s%2Fg%2F1tmqrftg!19sChIJ39o1PobTHWAR17zIjI8e5Ws?authuser=0&hl=ja&rclk=1",
    "category": "幼稚園"
  },
  {
    "name": "こひつじ幼稚園",
    "address": "\n〒391-0104 長野県諏訪郡原村払沢３９１８−１",
    "latitude": 35.9703048,
    "longitude": 138.2243825,
    "link": "https://www.google.com/maps/place/%E3%81%93%E3%81%B2%E3%81%A4%E3%81%98%E5%B9%BC%E7%A8%9A%E5%9C%92/data=!4m7!3m6!1s0x601c5ac49ee4527d:0xe63d09615b9a077!8m2!3d35.9703048!4d138.2243825!16s%2Fg%2F1thx8pr5!19sChIJfVLknsRaHGARd6C5FZbQYw4?authuser=0&hl=ja&rclk=1",
    "category": "幼稚園"
  },
  {
    "name": "あかしや幼稚園",
    "address": "\n〒381-0038 長野県長野市東和田５７７",
    "latitude": 36.6576102,
    "longitude": 138.2289751,
    "link": "https://www.google.com/maps/place/%E3%81%82%E3%81%8B%E3%81%97%E3%82%84%E5%B9%BC%E7%A8%9A%E5%9C%92/data=!4m7!3m6!1s0x601d8610a91657c7:0xad037ec7dfdd1df8!8m2!3d36.6576102!4d138.2289751!16s%2Fg%2F1tsljt3k!19sChIJx1cWqRCGHWAR-B3d38d-A60?authuser=0&hl=ja&rclk=1",
    "category": "幼稚園"
  },
  {
    "name": "聖テレジア幼稚園",
    "address": "\n〒390-0873 長野県松本市丸の内９−３２",
    "latitude": 36.2400449,
    "longitude": 137.9719927,
    "link": "https://www.google.com/maps/place/%E8%81%96%E3%83%86%E3%83%AC%E3%82%B8%E3%82%A2%E5%B9%BC%E7%A8%9A%E5%9C%92/data=!4m7!3m6!1s0x601d0e9ac63a9325:0x4799dea598d80e92!8m2!3d36.2400449!4d137.9719927!16s%2Fg%2F1tfrxkml!19sChIJJZM6xpoOHWARkg7YmKXemUc?authuser=0&hl=ja&rclk=1",
    "category": "幼稚園"
  },
  {
    "name": "泉園幼稚園",
    "address": "\n〒382-0911 長野県須坂市須坂常盤町８３５",
    "latitude": 36.6548669,
    "longitude": 138.3169678,
    "link": "https://www.google.com/maps/place/%E6%B3%89%E5%9C%92%E5%B9%BC%E7%A8%9A%E5%9C%92/data=!4m7!3m6!1s0x601d8e82d066b681:0xbb62b1099ce0d9a5!8m2!3d36.6548669!4d138.3169678!16s%2Fg%2F1tdwvs9c!19sChIJgbZm0IKOHWARpdngnAmxYrs?authuser=0&hl=ja&rclk=1",
    "category": "幼稚園"
  },
  {
    "name": "認定こども園 信濃ひまわり幼稚園",
    "address": "\n〒381-0022 長野県長野市大豆島２８６９",
    "latitude": 36.6334872,
    "longitude": 138.2389559,
    "link": "https://www.google.com/maps/place/%E8%AA%8D%E5%AE%9A%E3%81%93%E3%81%A9%E3%82%82%E5%9C%92+%E4%BF%A1%E6%BF%83%E3%81%B2%E3%81%BE%E3%82%8F%E3%82%8A%E5%B9%BC%E7%A8%9A%E5%9C%92/data=!4m7!3m6!1s0x601d85f584f071af:0x3b554eae2c5a6821!8m2!3d36.6334872!4d138.2389559!16s%2Fg%2F1tjv3ljn!19sChIJr3HwhPWFHWARIWhaLK5OVTs?authuser=0&hl=ja&rclk=1",
    "category": "幼稚園"
  },
  {
    "name": "飯山中央幼稚園",
    "address": "\n〒389-2254 長野県飯山市南町２２−１７",
    "latitude": 36.8488914,
    "longitude": 138.3620583,
    "link": "https://www.google.com/maps/place/%E9%A3%AF%E5%B1%B1%E4%B8%AD%E5%A4%AE%E5%B9%BC%E7%A8%9A%E5%9C%92/data=!4m7!3m6!1s0x5ff6192a283df6d5:0x9dddef295f3cce4b!8m2!3d36.8488914!4d138.3620583!16s%2Fg%2F1w6657k0!19sChIJ1fY9KCoZ9l8RS848Xynv3Z0?authuser=0&hl=ja&rclk=1",
    "category": "幼稚園"
  },
  {
    "name": "くるみ学園 くるみ幼稚園",
    "address": "\n〒389-0517 長野県東御市県３７２−３",
    "latitude": 36.361292,
    "longitude": 138.330504,
    "link": "https://www.google.com/maps/place/%E3%81%8F%E3%82%8B%E3%81%BF%E5%AD%A6%E5%9C%92+%E3%81%8F%E3%82%8B%E3%81%BF%E5%B9%BC%E7%A8%9A%E5%9C%92/data=!4m7!3m6!1s0x601db99c8fd2c675:0x23f0935036c72105!8m2!3d36.361292!4d138.330504!16s%2Fg%2F1v4pt1_y!19sChIJdcbSj5y5HWARBSHHNlCT8CM?authuser=0&hl=ja&rclk=1",
    "category": "幼稚園"
  },
  {
    "name": "認定こども園 ちのせいぼ幼稚園",
    "address": "\n〒391-0005 長野県茅野市仲町１４−７",
    "latitude": 35.992785,
    "longitude": 138.156527,
    "link": "https://www.google.com/maps/place/%E8%AA%8D%E5%AE%9A%E3%81%93%E3%81%A9%E3%82%82%E5%9C%92+%E3%81%A1%E3%81%AE%E3%81%9B%E3%81%84%E3%81%BC%E5%B9%BC%E7%A8%9A%E5%9C%92/data=!4m7!3m6!1s0x601c573243a70f5f:0xe05901e5220c982!8m2!3d35.992785!4d138.156527!16s%2Fg%2F1xn_ng31!19sChIJXw-nQzJXHGARgskgUh6QBQ4?authuser=0&hl=ja&rclk=1",
    "category": "幼稚園"
  },
  {
    "name": "大町幼稚園",
    "address": "\n〒398-0002 長野県大町市大町２６６３−１",
    "latitude": 36.5051982,
    "longitude": 137.8632353,
    "link": "https://www.google.com/maps/place/%E5%A4%A7%E7%94%BA%E5%B9%BC%E7%A8%9A%E5%9C%92/data=!4m7!3m6!1s0x601d63bff11efe8b:0xfbbbd735724aaba4!8m2!3d36.5051982!4d137.8632353!16s%2Fg%2F1tj4ysrz!19sChIJi_4e8b9jHWARpKtKcjXXu_s?authuser=0&hl=ja&rclk=1",
    "category": "幼稚園"
  },
  {
    "name": "小諸幼稚園",
    "address": "\n〒384-0017 長野県小諸市三和１丁目５−１６",
    "latitude": 36.3300886,
    "longitude": 138.4295309,
    "link": "https://www.google.com/maps/place/%E5%B0%8F%E8%AB%B8%E5%B9%BC%E7%A8%9A%E5%9C%92/data=!4m7!3m6!1s0x601dc9ae0f0003f7:0x632b783e291b87fa!8m2!3d36.3300886!4d138.4295309!16s%2Fg%2F1tfnyp0z!19sChIJ9wMAD67JHWAR-ocbKT54K2M?authuser=0&hl=ja&rclk=1",
    "category": "幼稚園"
  },
  {
    "name": "学法) 天使幼稚園",
    "address": "\n〒396-0022 長野県伊那市御園８７７−１",
    "latitude": 35.858138,
    "longitude": 137.964739,
    "link": "https://www.google.com/maps/place/%E5%AD%A6%E6%B3%95%29+%E5%A4%A9%E4%BD%BF%E5%B9%BC%E7%A8%9A%E5%9C%92/data=!4m7!3m6!1s0x601cf0f9d8bd0301:0xe08889a384552479!8m2!3d35.858138!4d137.964739!16s%2Fg%2F1tjdg87z!19sChIJAQO92PnwHGAReSRVhKOJiOA?authuser=0&hl=ja&rclk=1",
    "category": "幼稚園"
  },
  {
    "name": "古牧あけぼの幼稚園",
    "address": "\n〒381-0034 長野県長野市高田五分一町６８５",
    "latitude": 36.6457113,
    "longitude": 138.2160833,
    "link": "https://www.google.com/maps/place/%E5%8F%A4%E7%89%A7%E3%81%82%E3%81%91%E3%81%BC%E3%81%AE%E5%B9%BC%E7%A8%9A%E5%9C%92/data=!4m7!3m6!1s0x601d8673b34c4379:0xfb05711e5185ca23!8m2!3d36.6457113!4d138.2160833!16s%2Fg%2F1tt1h8z1!19sChIJeUNMs3OGHWARI8qFUR5xBfs?authuser=0&hl=ja&rclk=1",
    "category": "幼稚園"
  },
  {
    "name": "認定こども園若穂幼稚園",
    "address": "\n〒381-0101 長野県長野市若穂綿内８６０２−１",
    "latitude": 36.6239714,
    "longitude": 138.2587307,
    "link": "https://www.google.com/maps/place/%E8%AA%8D%E5%AE%9A%E3%81%93%E3%81%A9%E3%82%82%E5%9C%92%E8%8B%A5%E7%A9%82%E5%B9%BC%E7%A8%9A%E5%9C%92/data=!4m7!3m6!1s0x601d8f74c485c6eb:0x105f0dc361e603d8!8m2!3d36.6239714!4d138.2587307!16s%2Fg%2F1tgfdfxs!19sChIJ68aFxHSPHWAR2APmYcMNXxA?authuser=0&hl=ja&rclk=1",
    "category": "幼稚園"
  },
  {
    "name": "白百合幼稚園",
    "address": "\n〒399-0036 長野県松本市村井町南４丁目６−４",
    "latitude": 36.1713915,
    "longitude": 137.9659193,
    "link": "https://www.google.com/maps/place/%E7%99%BD%E7%99%BE%E5%90%88%E5%B9%BC%E7%A8%9A%E5%9C%92/data=!4m7!3m6!1s0x601d0580d6d70ba9:0x4a21f7a10bc7e415!8m2!3d36.1713915!4d137.9659193!16s%2Fg%2F1vwlp663!19sChIJqQvX1oAFHWARFeTHC6H3IUo?authuser=0&hl=ja&rclk=1",
    "category": "幼稚園"
  },
  {
    "name": "吉田マリア幼稚園",
    "address": "\n〒381-0043 長野県長野市吉田１丁目１６−２４",
    "latitude": 36.669446,
    "longitude": 138.2127057,
    "link": "https://www.google.com/maps/place/%E5%90%89%E7%94%B0%E3%83%9E%E3%83%AA%E3%82%A2%E5%B9%BC%E7%A8%9A%E5%9C%92/data=!4m7!3m6!1s0x601d864c24168f17:0x36f01a2b7df92fdb!8m2!3d36.669446!4d138.2127057!16s%2Fg%2F1tx1t89z!19sChIJF48WJEyGHWAR2y_5fSsa8DY?authuser=0&hl=ja&rclk=1",
    "category": "幼稚園"
  },
  {
    "name": "松本いずみ幼稚園",
    "address": "\n〒390-0871 長野県松本市桐１丁目４−７",
    "latitude": 36.249098,
    "longitude": 137.9743019,
    "link": "https://www.google.com/maps/place/%E6%9D%BE%E6%9C%AC%E3%81%84%E3%81%9A%E3%81%BF%E5%B9%BC%E7%A8%9A%E5%9C%92/data=!4m7!3m6!1s0x601d0c277b45fe5f:0xa6b6ec1d30372227!8m2!3d36.249098!4d137.9743019!16s%2Fg%2F1tg5zq7m!19sChIJX_5FeycMHWARJyI3MB3stqY?authuser=0&hl=ja&rclk=1",
    "category": "幼稚園"
  },
  {
    "name": "信学会さゆり幼稚園",
    "address": "\n〒389-0806 長野県千曲市磯部９３１",
    "latitude": 36.4792641,
    "longitude": 138.1541679,
    "link": "https://www.google.com/maps/place/%E4%BF%A1%E5%AD%A6%E4%BC%9A%E3%81%95%E3%82%86%E3%82%8A%E5%B9%BC%E7%A8%9A%E5%9C%92/data=!4m7!3m6!1s0x601d9c0f384bd8a5:0xd1c2fa8c78046f01!8m2!3d36.4792641!4d138.1541679!16s%2Fg%2F1tfm1jsh!19sChIJpdhLOA-cHWARAW8EeIz6wtE?authuser=0&hl=ja&rclk=1",
    "category": "幼稚園"
  },
  {
    "name": "あさま幼稚園",
    "address": "\n〒389-0806 長野県千曲市磯部９３１",
    "latitude": 36.281665,
    "longitude": 138.466378,
    "link": "https://www.google.com/maps/place/%E3%81%82%E3%81%95%E3%81%BE%E5%B9%BC%E7%A8%9A%E5%9C%92/data=!4m7!3m6!1s0x601dcb9cf6f0946b:0x77563fb950fdfbc1!8m2!3d36.281665!4d138.466378!16s%2Fg%2F1xgrn01n!19sChIJa5Tw9pzLHWARwfv9ULk_Vnc?authuser=0&hl=ja&rclk=1",
    "category": "幼稚園"
  },
  {
    "name": "松本短大幼稚園",
    "address": "\n〒399-0025 長野県松本市寿台７丁目４−１",
    "latitude": 36.1743404,
    "longitude": 137.9850248,
    "link": "https://www.google.com/maps/place/%E6%9D%BE%E6%9C%AC%E7%9F%AD%E5%A4%A7%E5%B9%BC%E7%A8%9A%E5%9C%92/data=!4m7!3m6!1s0x601d05f237a3e501:0x8bafcdf825998d73!8m2!3d36.1743404!4d137.9850248!16s%2Fg%2F1tdyl8nt!19sChIJAeWjN_IFHWARc42ZJfjNr4s?authuser=0&hl=ja&rclk=1",
    "category": "幼稚園"
  },
  {
    "name": "おひさまクラブ幼稚園",
    "address": "\n〒386-1326 長野県上田市舞田７３８−１",
    "latitude": 36.3681737,
    "longitude": 138.1764835,
    "link": "https://www.google.com/maps/place/%E3%81%8A%E3%81%B2%E3%81%95%E3%81%BE%E3%82%AF%E3%83%A9%E3%83%96%E5%B9%BC%E7%A8%9A%E5%9C%92/data=!4m7!3m6!1s0x601da3cbb9f45659:0x713c4344b2062cfa!8m2!3d36.3681737!4d138.1764835!16s%2Fg%2F1v6p4chl!19sChIJWVb0ucujHWAR-iwGskRDPHE?authuser=0&hl=ja&rclk=1",
    "category": "幼稚園"
  },
  {
    "name": "よしだ幼稚園",
    "address": "\n〒399-0701 長野県塩尻市広丘吉田４９８−１",
    "latitude": 36.1609499,
    "longitude": 137.9465002,
    "link": "https://www.google.com/maps/place/%E3%82%88%E3%81%97%E3%81%A0%E5%B9%BC%E7%A8%9A%E5%9C%92/data=!4m7!3m6!1s0x601d056157cf8569:0x4b252c8a506f7f9d!8m2!3d36.1609499!4d137.9465002!16s%2Fg%2F1tf6b3kj!19sChIJaYXPV2EFHWARnX9vUIosJUs?authuser=0&hl=ja&rclk=1",
    "category": "幼稚園"
  },
  {
    "name": "松本光明幼稚園",
    "address": "\n〒390-0806 長野県松本市女鳥羽１丁目９−１６",
    "latitude": 36.240224,
    "longitude": 137.976756,
    "link": "https://www.google.com/maps/place/%E6%9D%BE%E6%9C%AC%E5%85%89%E6%98%8E%E5%B9%BC%E7%A8%9A%E5%9C%92/data=!4m7!3m6!1s0x601d0e974fd12b07:0xbe56e15e0ecaeecd!8m2!3d36.240224!4d137.976756!16s%2Fg%2F1v5k32l6!19sChIJByvRT5cOHWARze7KDl7hVr4?authuser=0&hl=ja&rclk=1",
    "category": "幼稚園"
  },
  {
    "name": "こまくさ幼稚園",
    "address": "\n〒398-0002 長野県大町市大町４１７０−２",
    "latitude": 36.507684,
    "longitude": 137.854669,
    "link": "https://www.google.com/maps/place/%E3%81%93%E3%81%BE%E3%81%8F%E3%81%95%E5%B9%BC%E7%A8%9A%E5%9C%92/data=!4m7!3m6!1s0x601d63c4fbbc615b:0x77e3b647dbeb9ef!8m2!3d36.507684!4d137.854669!16s%2Fg%2F1tgd6lzn!19sChIJW2G8-8RjHWAR77m-fWQ7fgc?authuser=0&hl=ja&rclk=1",
    "category": "幼稚園"
  },
  {
    "name": "松本青い鳥幼稚園",
    "address": "\n〒398-0002 長野県大町市大町４１７０−２",
    "latitude": 36.1812895,
    "longitude": 137.9863006,
    "link": "https://www.google.com/maps/place/%E6%9D%BE%E6%9C%AC%E9%9D%92%E3%81%84%E9%B3%A5%E5%B9%BC%E7%A8%9A%E5%9C%92/data=!4m7!3m6!1s0x601d05f609bfe6b1:0x30f37e07423a823b!8m2!3d36.1812895!4d137.9863006!16s%2Fg%2F1vvr68x4!19sChIJsea_CfYFHWARO4I6Qgd-8zA?authuser=0&hl=ja&rclk=1",
    "category": "幼稚園"
  },
  {
    "name": "カトリック幼稚園",
    "address": "\n〒385-0043 長野県佐久市取出町１８５−１",
    "latitude": 36.220768,
    "longitude": 138.466613,
    "link": "https://www.google.com/maps/place/%E3%82%AB%E3%83%88%E3%83%AA%E3%83%83%E3%82%AF%E5%B9%BC%E7%A8%9A%E5%9C%92/data=!4m7!3m6!1s0x601c34972f6f358f:0x2efecb97208eddb1!8m2!3d36.220768!4d138.466613!16s%2Fg%2F1tdnl5tq!19sChIJjzVvL5c0HGARsd2OIJfL_i4?authuser=0&hl=ja&rclk=1",
    "category": "幼稚園"
  },
  {
    "name": "信学会しらかば幼稚園",
    "address": "\n〒384-0801 長野県小諸市甲１８１２",
    "latitude": 36.3154256,
    "longitude": 138.4298066,
    "link": "https://www.google.com/maps/place/%E4%BF%A1%E5%AD%A6%E4%BC%9A%E3%81%97%E3%82%89%E3%81%8B%E3%81%B0%E5%B9%BC%E7%A8%9A%E5%9C%92/data=!4m7!3m6!1s0x601dc9983724b455:0xa2bd0bd2083c5608!8m2!3d36.3154256!4d138.4298066!16s%2Fg%2F1thx43s3!19sChIJVbQkN5jJHWARCFY8CNILvaI?authuser=0&hl=ja&rclk=1",
    "category": "幼稚園"
  },
  {
    "name": "聖マルチン幼稚園",
    "address": "\n〒399-4111 長野県駒ヶ根市北町９−１１",
    "latitude": 35.738954,
    "longitude": 137.937057,
    "link": "https://www.google.com/maps/place/%E8%81%96%E3%83%9E%E3%83%AB%E3%83%81%E3%83%B3%E5%B9%BC%E7%A8%9A%E5%9C%92/data=!4m7!3m6!1s0x601cf2b9f13fcba9:0x2487752db69dab28!8m2!3d35.738954!4d137.937057!16s%2Fg%2F1tfkwctz!19sChIJqcs_8bnyHGARKKudti11hyQ?authuser=0&hl=ja&rclk=1",
    "category": "幼稚園"
  },
  {
    "name": "聖クララ幼稚園",
    "address": "\n〒395-0812 長野県飯田市松尾１４２０−１",
    "latitude": 35.4913818,
    "longitude": 137.836938,
    "link": "https://www.google.com/maps/place/%E8%81%96%E3%82%AF%E3%83%A9%E3%83%A9%E5%B9%BC%E7%A8%9A%E5%9C%92/data=!4m7!3m6!1s0x601c9966b97afc59:0xb8e34736ae107b91!8m2!3d35.4913818!4d137.836938!16s%2Fg%2F1td2tzq8!19sChIJWfx6uWaZHGARkXsQrjZH47g?authuser=0&hl=ja&rclk=1",
    "category": "幼稚園"
  },
  {
    "name": "大屋幼稚園",
    "address": "\n〒386-0152 長野県上田市大屋４０−１",
    "latitude": 36.375327,
    "longitude": 138.2905208,
    "link": "https://www.google.com/maps/place/%E5%A4%A7%E5%B1%8B%E5%B9%BC%E7%A8%9A%E5%9C%92/data=!4m7!3m6!1s0x601dbb8fddb93535:0x4038a3b4be1bfb45!8m2!3d36.375327!4d138.2905208!16s%2Fg%2F1tfd2gxr!19sChIJNTW53Y-7HWARRfsbvrSjOEA?authuser=0&hl=ja&rclk=1",
    "category": "幼稚園"
  },
  {
    "name": "篠ノ井学園 俊英幼稚園",
    "address": "\n〒381-2205 長野県長野市青木島町大塚１５３５",
    "latitude": 36.6162882,
    "longitude": 138.1869958,
    "link": "https://www.google.com/maps/place/%E7%AF%A0%E3%83%8E%E4%BA%95%E5%AD%A6%E5%9C%92+%E4%BF%8A%E8%8B%B1%E5%B9%BC%E7%A8%9A%E5%9C%92/data=!4m7!3m6!1s0x601d843b1df689f5:0x7fbad18f8ce3d224!8m2!3d36.6162882!4d138.1869958!16s%2Fg%2F1vn_z0rr!19sChIJ9Yn2HTuEHWARJNLjjI_Run8?authuser=0&hl=ja&rclk=1",
    "category": "幼稚園"
  },
  {
    "name": "認定こども園ひかり園",
    "address": "\n〒381-0052 長野県長野市檀田２丁目８−２２ ひかり幼稚園",
    "latitude": 36.679632,
    "longitude": 138.209019,
    "link": "https://www.google.com/maps/place/%E8%AA%8D%E5%AE%9A%E3%81%93%E3%81%A9%E3%82%82%E5%9C%92%E3%81%B2%E3%81%8B%E3%82%8A%E5%9C%92/data=!4m7!3m6!1s0x601d87afe8ec1075:0x158d9771f6e7fa57!8m2!3d36.679632!4d138.209019!16s%2Fg%2F1tdwkldq!19sChIJdRDs6K-HHWARV_rn9nGXjRU?authuser=0&hl=ja&rclk=1",
    "category": "幼稚園"
  },
  {
    "name": "鈴蘭幼稚園",
    "address": "\n〒390-0812 長野県松本市県１丁目４−２３",
    "latitude": 36.232848,
    "longitude": 137.980597,
    "link": "https://www.google.com/maps/place/%E9%88%B4%E8%98%AD%E5%B9%BC%E7%A8%9A%E5%9C%92/data=!4m7!3m6!1s0x601d0eeaa5353211:0x1fdd33dd39b4ba8e!8m2!3d36.232848!4d137.980597!16s%2Fg%2F1tgp0wqb!19sChIJETI1peoOHWARjrq0Od0z3R8?authuser=0&hl=ja&rclk=1",
    "category": "幼稚園"
  },
  {
    "name": "飯田ルーテル幼稚園",
    "address": "\n〒395-0021 長野県飯田市仲ノ町１丁目７",
    "latitude": 35.5166571,
    "longitude": 137.8291363,
    "link": "https://www.google.com/maps/place/%E9%A3%AF%E7%94%B0%E3%83%AB%E3%83%BC%E3%83%86%E3%83%AB%E5%B9%BC%E7%A8%9A%E5%9C%92/data=!4m7!3m6!1s0x601c9993c2a7440f:0x5ba1011bf44bb787!8m2!3d35.5166571!4d137.8291363!16s%2Fg%2F1tgw9zz1!19sChIJD0SnwpOZHGARh7dL9BsBoVs?authuser=0&hl=ja&rclk=1",
    "category": "幼稚園"
  },
  {
    "name": "暁の星幼稚園",
    "address": "\n〒395-0021 長野県飯田市仲ノ町１丁目７",
    "latitude": 36.331852,
    "longitude": 138.422466,
    "link": "https://www.google.com/maps/place/%E6%9A%81%E3%81%AE%E6%98%9F%E5%B9%BC%E7%A8%9A%E5%9C%92/data=!4m7!3m6!1s0x601dc9b4ca15f0a7:0x66814b96214a833c!8m2!3d36.331852!4d138.422466!16s%2Fg%2F1tr17nbr!19sChIJp_AVyrTJHWARPINKIZZLgWY?authuser=0&hl=ja&rclk=1",
    "category": "幼稚園"
  },
  {
    "name": "古里中央幼稚園",
    "address": "\n〒381-0007 長野県長野市金箱３１１",
    "latitude": 36.67712,
    "longitude": 138.252906,
    "link": "https://www.google.com/maps/place/%E5%8F%A4%E9%87%8C%E4%B8%AD%E5%A4%AE%E5%B9%BC%E7%A8%9A%E5%9C%92/data=!4m7!3m6!1s0x601d889134d46b8d:0x3f39dec09d1afabb!8m2!3d36.67712!4d138.252906!16s%2Fg%2F1tdg390d!19sChIJjWvUNJGIHWARu_oancDeOT8?authuser=0&hl=ja&rclk=1",
    "category": "幼稚園"
  },
  {
    "name": "認定こども園 勅使河原学園",
    "address": "\n〒381-0007 長野県長野市金箱３１１",
    "latitude": 35.5263489,
    "longitude": 137.8435525,
    "link": "https://www.google.com/maps/place/%E8%AA%8D%E5%AE%9A%E3%81%93%E3%81%A9%E3%82%82%E5%9C%92+%E5%8B%85%E4%BD%BF%E6%B2%B3%E5%8E%9F%E5%AD%A6%E5%9C%92/data=!4m7!3m6!1s0x601c9a201b90c3ef:0x4dba049b3abda146!8m2!3d35.5263489!4d137.8435525!16s%2Fg%2F1tfb6my2!19sChIJ78OQGyCaHGARRqG9OpsEuk0?authuser=0&hl=ja&rclk=1",
    "category": "幼稚園"
  },
  {
    "name": "聖マリア幼稚園",
    "address": "\n〒381-0007 長野県長野市金箱３１１",
    "latitude": 36.3959183,
    "longitude": 138.2542153,
    "link": "https://www.google.com/maps/place/%E8%81%96%E3%83%9E%E3%83%AA%E3%82%A2%E5%B9%BC%E7%A8%9A%E5%9C%92/data=!4m7!3m6!1s0x601dbcdb5791071b:0x81ee430ea9052a93!8m2!3d36.3959183!4d138.2542153!16s%2Fg%2F1td4zyhj!19sChIJGweRV9u8HWARkyoFqQ5D7oE?authuser=0&hl=ja&rclk=1",
    "category": "幼稚園"
  },
  {
    "name": "信学会長野北幼稚園",
    "address": "\n〒386-0018 長野県上田市常田２丁目２−１",
    "latitude": 36.6810812,
    "longitude": 138.2153155,
    "link": "https://www.google.com/maps/place/%E4%BF%A1%E5%AD%A6%E4%BC%9A%E9%95%B7%E9%87%8E%E5%8C%97%E5%B9%BC%E7%A8%9A%E5%9C%92/data=!4m7!3m6!1s0x601d87b6d8bc7477:0xf691806d334fca10!8m2!3d36.6810812!4d138.2153155!16s%2Fg%2F1tdft6m0!19sChIJd3S82LaHHWAREMpPM22AkfY?authuser=0&hl=ja&rclk=1",
    "category": "幼稚園"
  },
  {
    "name": "三嶋学園 杉の子幼稚園",
    "address": "\n〒389-0206 長野県北佐久郡御代田町御代田２７４４",
    "latitude": 36.308885,
    "longitude": 138.506293,
    "link": "https://www.google.com/maps/place/%E4%B8%89%E5%B6%8B%E5%AD%A6%E5%9C%92+%E6%9D%89%E3%81%AE%E5%AD%90%E5%B9%BC%E7%A8%9A%E5%9C%92/data=!4m7!3m6!1s0x601dcc45d52c5a71:0xe3157b4f02e2f969!8m2!3d36.308885!4d138.506293!16s%2Fg%2F1tffjw1b!19sChIJcVos1UXMHWARafniAk97FeM?authuser=0&hl=ja&rclk=1",
    "category": "幼稚園"
  },
  {
    "name": "慈光幼稚園",
    "address": "\n〒395-0016 長野県飯田市伝馬町２丁目３１",
    "latitude": 35.5180916,
    "longitude": 137.8282806,
    "link": "https://www.google.com/maps/place/%E6%85%88%E5%85%89%E5%B9%BC%E7%A8%9A%E5%9C%92/data=!4m7!3m6!1s0x601c99937927ecbb:0xd335e34b68b68728!8m2!3d35.5180916!4d137.8282806!16s%2Fg%2F1tfd713l!19sChIJu-wneZOZHGARKIe2aEvjNdM?authuser=0&hl=ja&rclk=1",
    "category": "幼稚園"
  },
  {
    "name": "松本中央幼稚園",
    "address": "\n〒390-0861 長野県松本市蟻ケ崎４丁目４−１０",
    "latitude": 36.247975,
    "longitude": 137.9639364,
    "link": "https://www.google.com/maps/place/%E6%9D%BE%E6%9C%AC%E4%B8%AD%E5%A4%AE%E5%B9%BC%E7%A8%9A%E5%9C%92/data=!4m7!3m6!1s0x601d0c2b9d913a27:0xd11b1210097a7e0!8m2!3d36.247975!4d137.9639364!16s%2Fg%2F1ttdn1p2!19sChIJJzqRnSsMHWAR4KeXACGxEQ0?authuser=0&hl=ja&rclk=1",
    "category": "幼稚園"
  },
  {
    "name": "坂城幼稚園",
    "address": "\n〒390-0861 長野県松本市蟻ケ崎４丁目４−１０",
    "latitude": 36.4557372,
    "longitude": 138.1877691,
    "link": "https://www.google.com/maps/place/%E5%9D%82%E5%9F%8E%E5%B9%BC%E7%A8%9A%E5%9C%92/data=!4m7!3m6!1s0x601d991a92d9e533:0xfcae8a891cd5895f!8m2!3d36.4557372!4d138.1877691!16s%2Fg%2F1tgtfl1j!19sChIJM-XZkhqZHWARX4nVHImKrvw?authuser=0&hl=ja&rclk=1",
    "category": "幼稚園"
  },
  {
    "name": "中野中央幼稚園",
    "address": "\n〒383-0022 長野県中野市中央４丁目２−５",
    "latitude": 36.7468855,
    "longitude": 138.3733126,
    "link": "https://www.google.com/maps/place/%E4%B8%AD%E9%87%8E%E4%B8%AD%E5%A4%AE%E5%B9%BC%E7%A8%9A%E5%9C%92/data=!4m7!3m6!1s0x601d8ae40fea5d63:0x84e58fda82235755!8m2!3d36.7468855!4d138.3733126!16s%2Fg%2F1tdkrwp2!19sChIJY13qD-SKHWARVVcjgtqP5YQ?authuser=0&hl=ja&rclk=1",
    "category": "幼稚園"
  },
  {
    "name": "信学会松本南幼稚園",
    "address": "\n〒399-0005 長野県松本市野溝木工２丁目６−３１",
    "latitude": 36.2037532,
    "longitude": 137.9547813,
    "link": "https://www.google.com/maps/place/%E4%BF%A1%E5%AD%A6%E4%BC%9A%E6%9D%BE%E6%9C%AC%E5%8D%97%E5%B9%BC%E7%A8%9A%E5%9C%92/data=!4m7!3m6!1s0x601d0facc44a6225:0x2ad34c1b0dfdd22f!8m2!3d36.2037532!4d137.9547813!16s%2Fg%2F1tpc80_q!19sChIJJWJKxKwPHWARL9L9DRtM0yo?authuser=0&hl=ja&rclk=1",
    "category": "幼稚園"
  },
  {
    "name": "すわせいぼ幼稚園",
    "address": "\n〒392-0027 長野県諏訪市湖岸通り４丁目１−３６",
    "latitude": 36.0469211,
    "longitude": 138.1122643,
    "link": "https://www.google.com/maps/place/%E3%81%99%E3%82%8F%E3%81%9B%E3%81%84%E3%81%BC%E5%B9%BC%E7%A8%9A%E5%9C%92/data=!4m7!3m6!1s0x601c55b02e90dfcb:0xc739c2b52c1440fa!8m2!3d36.0469211!4d138.1122643!16s%2Fg%2F1vknpg4r!19sChIJy9-QLrBVHGAR-kAULLXCOcc?authuser=0&hl=ja&rclk=1",
    "category": "幼稚園"
  },
  {
    "name": "ヤコブ幼稚園",
    "address": "\n〒394-0091 長野県岡谷市上の原２６２番地２",
    "latitude": 36.0906368,
    "longitude": 138.0469485,
    "link": "https://www.google.com/maps/place/%E3%83%A4%E3%82%B3%E3%83%96%E5%B9%BC%E7%A8%9A%E5%9C%92/data=!4m7!3m6!1s0x601d004e3daddcef:0x650337e6d1111ec8!8m2!3d36.0906368!4d138.0469485!16s%2Fg%2F1v7tlg3l!19sChIJ79ytPU4AHWARyB4R0eY3A2U?authuser=0&hl=ja&rclk=1",
    "category": "幼稚園"
  },
  {
    "name": "信学会佐久幼稚園",
    "address": "\n〒385-0011 長野県佐久市猿久保２３２",
    "latitude": 36.257709,
    "longitude": 138.484141,
    "link": "https://www.google.com/maps/place/%E4%BF%A1%E5%AD%A6%E4%BC%9A%E4%BD%90%E4%B9%85%E5%B9%BC%E7%A8%9A%E5%9C%92/data=!4m7!3m6!1s0x601dccaf31326055:0x8711dffdc9d884f7!8m2!3d36.257709!4d138.484141!16s%2Fg%2F1w97vgmt!19sChIJVWAyMa_MHWAR94TYyf3fEYc?authuser=0&hl=ja&rclk=1",
    "category": "幼稚園"
  },
  {
    "name": "みすず幼稚園",
    "address": "\n〒384-0023 長野県小諸市１５ 西郷土3953−2",
    "latitude": 36.331614,
    "longitude": 138.44299,
    "link": "https://www.google.com/maps/place/%E3%81%BF%E3%81%99%E3%81%9A%E5%B9%BC%E7%A8%9A%E5%9C%92/data=!4m7!3m6!1s0x601dc908a64322ff:0x3260b158f34b20a2!8m2!3d36.331614!4d138.44299!16s%2Fg%2F1tlgy0k3!19sChIJ_yJDpgjJHWARoiBL81ixYDI?authuser=0&hl=ja&rclk=1",
    "category": "幼稚園"
  },
  {
    "name": "日向幼稚園",
    "address": "\n〒384-0023 長野県小諸市１５ 西郷土3953−2",
    "latitude": 36.3930874,
    "longitude": 138.2051763,
    "link": "https://www.google.com/maps/place/%E6%97%A5%E5%90%91%E5%B9%BC%E7%A8%9A%E5%9C%92/data=!4m7!3m6!1s0x601da25efbfeb989:0x94842fdfb8e60fd!8m2!3d36.3930874!4d138.2051763!16s%2Fg%2F1tnhyds9!19sChIJibn--16iHWAR_WCO-_1CSAk?authuser=0&hl=ja&rclk=1",
    "category": "幼稚園"
  },
  {
    "name": "上田女子短期大学 附属幼稚園",
    "address": "\n〒384-0023 長野県小諸市１５ 西郷土3953−2",
    "latitude": 36.3696118,
    "longitude": 138.22012,
    "link": "https://www.google.com/maps/place/%E4%B8%8A%E7%94%B0%E5%A5%B3%E5%AD%90%E7%9F%AD%E6%9C%9F%E5%A4%A7%E5%AD%A6+%E9%99%84%E5%B1%9E%E5%B9%BC%E7%A8%9A%E5%9C%92/data=!4m7!3m6!1s0x601da3402de38d03:0xe02f24c34370b1af!8m2!3d36.3696118!4d138.22012!16s%2Fg%2F12135_8_!19sChIJA43jLUCjHWARr7FwQ8MkL-A?authuser=0&hl=ja&rclk=1",
    "category": "幼稚園"
  },
  {
    "name": "信学会松本神映幼稚園",
    "address": "\n〒390-1243 長野県松本市 大字神林下神3682",
    "latitude": 36.1987676,
    "longitude": 137.9322605,
    "link": "https://www.google.com/maps/place/%E4%BF%A1%E5%AD%A6%E4%BC%9A%E6%9D%BE%E6%9C%AC%E7%A5%9E%E6%98%A0%E5%B9%BC%E7%A8%9A%E5%9C%92/data=!4m7!3m6!1s0x601d0e3205447215:0x71c0fb1412ef921a!8m2!3d36.1987676!4d137.9322605!16s%2Fg%2F1tfqfwmh!19sChIJFXJEBTIOHWARGpLvEhT7wHE?authuser=0&hl=ja&rclk=1",
    "category": "幼稚園"
  },
  {
    "name": "双葉幼稚園",
    "address": "\n〒382-0099 長野県須坂市墨坂４丁目７−４",
    "latitude": 36.6464359,
    "longitude": 138.3045472,
    "link": "https://www.google.com/maps/place/%E5%8F%8C%E8%91%89%E5%B9%BC%E7%A8%9A%E5%9C%92/data=!4m7!3m6!1s0x601d8e8e98bb9569:0x76151c1f38e146b3!8m2!3d36.6464359!4d138.3045472!16s%2Fg%2F1tj91mjf!19sChIJaZW7mI6OHWARs0bhOB8cFXY?authuser=0&hl=ja&rclk=1",
    "category": "幼稚園"
  },
  {
    "name": "たちばな幼稚園",
    "address": "\n〒386-0012 長野県上田市中央６丁目３−３",
    "latitude": 36.403337,
    "longitude": 138.2579607,
    "link": "https://www.google.com/maps/place/%E3%81%9F%E3%81%A1%E3%81%B0%E3%81%AA%E5%B9%BC%E7%A8%9A%E5%9C%92/data=!4m7!3m6!1s0x601dbcde484fbfc3:0xf8076aa55968f7af!8m2!3d36.403337!4d138.2579607!16s%2Fg%2F1v8j0j5q!19sChIJw79PSN68HWARr_doWaVqB_g?authuser=0&hl=ja&rclk=1",
    "category": "幼稚園"
  },
  {
    "name": "いずみ幼稚園",
    "address": "\n〒386-2201 長野県上田市真田町長横尾７０４２",
    "latitude": 36.443701,
    "longitude": 138.303396,
    "link": "https://www.google.com/maps/place/%E3%81%84%E3%81%9A%E3%81%BF%E5%B9%BC%E7%A8%9A%E5%9C%92/data=!4m7!3m6!1s0x601dbdea0f99a091:0xca501eeccc24e6!8m2!3d36.443701!4d138.303396!16s%2Fg%2F1tdmkklq!19sChIJkaCZD-q9HWAR5iTM7B5QygA?authuser=0&hl=ja&rclk=1",
    "category": "幼稚園"
  },
  {
    "name": "豊幼稚園",
    "address": "\n〒386-2201 長野県上田市真田町長横尾７０４２",
    "latitude": 36.6523713,
    "longitude": 138.3067951,
    "link": "https://www.google.com/maps/place/%E8%B1%8A%E5%B9%BC%E7%A8%9A%E5%9C%92/data=!4m7!3m6!1s0x601d8e9048e6069b:0x116ea3efa31176b3!8m2!3d36.6523713!4d138.3067951!16s%2Fg%2F1td13bys!19sChIJmwbmSJCOHWARs3YRo--jbhE?authuser=0&hl=ja&rclk=1",
    "category": "幼稚園"
  },
  {
    "name": "信学会小諸野岸幼稚園",
    "address": "\n〒384-0006 長野県小諸市与良町２丁目９−１３",
    "latitude": 36.3253018,
    "longitude": 138.4345057,
    "link": "https://www.google.com/maps/place/%E4%BF%A1%E5%AD%A6%E4%BC%9A%E5%B0%8F%E8%AB%B8%E9%87%8E%E5%B2%B8%E5%B9%BC%E7%A8%9A%E5%9C%92/data=!4m7!3m6!1s0x601dc9a68ffca7b3:0x4f2870e99e8ca8a5!8m2!3d36.3253018!4d138.4345057!16s%2Fg%2F1tdkb4l1!19sChIJs6f8j6bJHWARpaiMnulwKE8?authuser=0&hl=ja&rclk=1",
    "category": "幼稚園"
  },
  {
    "name": "稲荷山くるみこども園",
    "address": "\n〒384-0006 長野県小諸市与良町２丁目９−１３",
    "latitude": 36.5317919,
    "longitude": 138.1025846,
    "link": "https://www.google.com/maps/place/%E7%A8%B2%E8%8D%B7%E5%B1%B1%E3%81%8F%E3%82%8B%E3%81%BF%E3%81%93%E3%81%A9%E3%82%82%E5%9C%92/data=!4m7!3m6!1s0x601d82c729b17c2d:0xdaa6acea287a217d!8m2!3d36.5317919!4d138.1025846!16s%2Fg%2F1tfq99c7!19sChIJLXyxKceCHWARfSF6KOqspto?authuser=0&hl=ja&rclk=1",
    "category": "幼稚園"
  },
  {
    "name": "信学会昭和幼稚園",
    "address": "\n〒384-0006 長野県小諸市与良町２丁目９−１３",
    "latitude": 36.656571,
    "longitude": 138.2541777,
    "link": "https://www.google.com/maps/place/%E4%BF%A1%E5%AD%A6%E4%BC%9A%E6%98%AD%E5%92%8C%E5%B9%BC%E7%A8%9A%E5%9C%92/data=!4m7!3m6!1s0x601d88b3616d0cc1:0xdb1aeadb588a9688!8m2!3d36.656571!4d138.2541777!16s%2Fg%2F1tc_l6q_!19sChIJwQxtYbOIHWARiJaKWNvqGts?authuser=0&hl=ja&rclk=1",
    "category": "幼稚園"
  },
  {
    "name": "信学会長野幼稚園",
    "address": "\n〒380-0802 長野県長野市上松４丁目２２−１",
    "latitude": 36.6732141,
    "longitude": 138.2009003,
    "link": "https://www.google.com/maps/place/%E4%BF%A1%E5%AD%A6%E4%BC%9A%E9%95%B7%E9%87%8E%E5%B9%BC%E7%A8%9A%E5%9C%92/data=!4m7!3m6!1s0x601d87a98e138609:0x403b88b986846596!8m2!3d36.6732141!4d138.2009003!16s%2Fg%2F1tn019lt!19sChIJCYYTjqmHHWARlmWEhrmIO0A?authuser=0&hl=ja&rclk=1",
    "category": "幼稚園"
  },
  {
    "name": "モンテッソーリ園 山びこ幼稚園",
    "address": "\n〒382-0028 長野県須坂市臥竜４丁目１０−２",
    "latitude": 36.644523,
    "longitude": 138.316624,
    "link": "https://www.google.com/maps/place/%E3%83%A2%E3%83%B3%E3%83%86%E3%83%83%E3%82%BD%E3%83%BC%E3%83%AA%E5%9C%92+%E5%B1%B1%E3%81%B3%E3%81%93%E5%B9%BC%E7%A8%9A%E5%9C%92/data=!4m7!3m6!1s0x601d8e7fb2905649:0xd1200f56eff71c14!8m2!3d36.644523!4d138.316624!16s%2Fg%2F1v1sl9c1!19sChIJSVaQsn-OHWARFBz371YPINE?authuser=0&hl=ja&rclk=1",
    "category": "幼稚園"
  },
  {
    "name": "聖母幼稚園",
    "address": "\n〒394-0025 長野県岡谷市大栄町２丁目３−２６",
    "latitude": 36.066717,
    "longitude": 138.057683,
    "link": "https://www.google.com/maps/place/%E8%81%96%E6%AF%8D%E5%B9%BC%E7%A8%9A%E5%9C%92/data=!4m7!3m6!1s0x601cffdf020e3be5:0xa7ff3790697daf92!8m2!3d36.066717!4d138.057683!16s%2Fg%2F1tg5v3mc!19sChIJ5TsOAt__HGARkq99aZA3_6c?authuser=0&hl=ja&rclk=1",
    "category": "幼稚園"
  },
  {
    "name": "塩尻めぐみ幼稚園",
    "address": "\n〒399-0738 長野県塩尻市大門七番町１３−２４",
    "latitude": 36.1164946,
    "longitude": 137.9511897,
    "link": "https://www.google.com/maps/place/%E5%A1%A9%E5%B0%BB%E3%82%81%E3%81%90%E3%81%BF%E5%B9%BC%E7%A8%9A%E5%9C%92/data=!4m7!3m6!1s0x601d04ed8b8f71fb:0xadfa7e09aa99005f!8m2!3d36.1164946!4d137.9511897!16s%2Fg%2F1tjdg893!19sChIJ-3GPi-0EHWARXwCZqgl--q0?authuser=0&hl=ja&rclk=1",
    "category": "幼稚園"
  },
  {
    "name": "信学会上田南幼稚園",
    "address": "\n〒386-1102 長野県上田市上田原１１８３",
    "latitude": 36.3876498,
    "longitude": 138.2238708,
    "link": "https://www.google.com/maps/place/%E4%BF%A1%E5%AD%A6%E4%BC%9A%E4%B8%8A%E7%94%B0%E5%8D%97%E5%B9%BC%E7%A8%9A%E5%9C%92/data=!4m7!3m6!1s0x601da3214f75941d:0x8b2cc588106500f1!8m2!3d36.3876498!4d138.2238708!16s%2Fg%2F1vyxjhgv!19sChIJHZR1TyGjHWAR8QBlEIjFLIs?authuser=0&hl=ja&rclk=1",
    "category": "幼稚園"
  },
  {
    "name": "軽井沢風越学園・軽井沢風越幼稚園",
    "address": "\n〒389-0113 長野県北佐久郡軽井沢町発地１２７８−１６",
    "latitude": 36.3201179,
    "longitude": 138.6017579,
    "link": "https://www.google.com/maps/place/%E8%BB%BD%E4%BA%95%E6%B2%A2%E9%A2%A8%E8%B6%8A%E5%AD%A6%E5%9C%92%E3%83%BB%E8%BB%BD%E4%BA%95%E6%B2%A2%E9%A2%A8%E8%B6%8A%E5%B9%BC%E7%A8%9A%E5%9C%92/data=!4m7!3m6!1s0x601dd34f7cd80021:0x3bcf698cf6c530b7!8m2!3d36.3201179!4d138.6017579!16s%2Fg%2F11h3mqpbn_!19sChIJIQDYfE_THWARtzDF9oxpzzs?authuser=0&hl=ja&rclk=1",
    "category": "幼稚園"
  },
  {
    "name": "認定こども園 伊那緑ヶ丘幼稚園",
    "address": "\n〒396-0026 長野県伊那市西町7227ｰ2439",
    "latitude": 35.8431256,
    "longitude": 137.9303134,
    "link": "https://www.google.com/maps/place/%E8%AA%8D%E5%AE%9A%E3%81%93%E3%81%A9%E3%82%82%E5%9C%92+%E4%BC%8A%E9%82%A3%E7%B7%91%E3%83%B6%E4%B8%98%E5%B9%BC%E7%A8%9A%E5%9C%92/data=!4m7!3m6!1s0x601cf1ababa4c1e1:0x15ae5221fb0a54b2!8m2!3d35.8431256!4d137.9303134!16s%2Fg%2F1tg15tbn!19sChIJ4cGkq6vxHGARslQK-yFSrhU?authuser=0&hl=ja&rclk=1",
    "category": "幼稚園"
  },
  {
    "name": "信学会上田北幼稚園",
    "address": "\n〒386-0003 長野県上田市上野富士見台１６１６",
    "latitude": 36.4129648,
    "longitude": 138.2967826,
    "link": "https://www.google.com/maps/place/%E4%BF%A1%E5%AD%A6%E4%BC%9A%E4%B8%8A%E7%94%B0%E5%8C%97%E5%B9%BC%E7%A8%9A%E5%9C%92/data=!4m7!3m6!1s0x601dbc47cd7e7c4f:0x95ba2891f1369e86!8m2!3d36.4129648!4d138.2967826!16s%2Fg%2F1trxkc1b!19sChIJT3x-zUe8HWARhp428ZEoupU?authuser=0&hl=ja&rclk=1",
    "category": "幼稚園"
  },
  {
    "name": "学校法人瑞穂学園 瑞穂幼稚園",
    "address": "\n〒394-0027 長野県岡谷市中央町１丁目８−１３",
    "latitude": 36.0603473,
    "longitude": 138.0460676,
    "link": "https://www.google.com/maps/place/%E5%AD%A6%E6%A0%A1%E6%B3%95%E4%BA%BA%E7%91%9E%E7%A9%82%E5%AD%A6%E5%9C%92+%E7%91%9E%E7%A9%82%E5%B9%BC%E7%A8%9A%E5%9C%92/data=!4m7!3m6!1s0x601cffd6a3c50e21:0x763e60ba85ad690d!8m2!3d36.0603473!4d138.0460676!16s%2Fg%2F1tgj8x7c!19sChIJIQ7Fo9b_HGARDWmthbpgPnY?authuser=0&hl=ja&rclk=1",
    "category": "幼稚園"
  },
  {
    "name": "白鳩幼稚園",
    "address": "\n〒394-0027 長野県岡谷市中央町１丁目８−１３",
    "latitude": 36.262205,
    "longitude": 138.359683,
    "link": "https://www.google.com/maps/place/%E7%99%BD%E9%B3%A9%E5%B9%BC%E7%A8%9A%E5%9C%92/data=!4m7!3m6!1s0x601db5d2c4625531:0x9b3ed24df597c7cc!8m2!3d36.262205!4d138.359683!16s%2Fg%2F1tfp2jr8!19sChIJMVVixNK1HWARzMeX9U3SPps?authuser=0&hl=ja&rclk=1",
    "category": "幼稚園"
  },
  {
    "name": "認定こども園深志",
    "address": "\n〒390-0815 長野県松本市深志２丁目４−２７",
    "latitude": 36.2293475,
    "longitude": 137.9703153,
    "link": "https://www.google.com/maps/place/%E8%AA%8D%E5%AE%9A%E3%81%93%E3%81%A9%E3%82%82%E5%9C%92%E6%B7%B1%E5%BF%97/data=!4m7!3m6!1s0x601d0e8d495f9d91:0x8b1eb09fde1b7f1c!8m2!3d36.2293475!4d137.9703153!16s%2Fg%2F1tfbnddx!19sChIJkZ1fSY0OHWARHH8b3p-wHos?authuser=0&hl=ja&rclk=1",
    "category": "幼稚園"
  },
  {
    "name": "マリアこども園",
    "address": "\n〒382-0911 長野県須坂市須坂春木町１０９２",
    "latitude": 36.6585042,
    "longitude": 138.3097917,
    "link": "https://www.google.com/maps/place/%E3%83%9E%E3%83%AA%E3%82%A2%E3%81%93%E3%81%A9%E3%82%82%E5%9C%92/data=!4m7!3m6!1s0x601d8e99cfb7540f:0x57156b624eece47c!8m2!3d36.6585042!4d138.3097917!16s%2Fg%2F1tczw06l!19sChIJD1S3z5mOHWARfOTsTmJrFVc?authuser=0&hl=ja&rclk=1",
    "category": "幼稚園"
  },
  {
    "name": "聖パウロ幼稚園",
    "address": "\n〒389-0111 長野県北佐久郡軽井沢町長倉３３２４−３",
    "latitude": 36.350962,
    "longitude": 138.590439,
    "link": "https://www.google.com/maps/place/%E8%81%96%E3%83%91%E3%82%A6%E3%83%AD%E5%B9%BC%E7%A8%9A%E5%9C%92/data=!4m7!3m6!1s0x601dd237a421f773:0x884f50a0e9e2f085!8m2!3d36.350962!4d138.590439!16s%2Fg%2F1tdmvq3r!19sChIJc_chpDfSHWARhfDi6aBQT4g?authuser=0&hl=ja&rclk=1",
    "category": "幼稚園"
  },
  {
    "name": "認定なぎさこども園",
    "address": "\n〒389-0111 長野県北佐久郡軽井沢町長倉３３２４−３",
    "latitude": 36.2331594,
    "longitude": 137.9586452,
    "link": "https://www.google.com/maps/place/%E8%AA%8D%E5%AE%9A%E3%81%AA%E3%81%8E%E3%81%95%E3%81%93%E3%81%A9%E3%82%82%E5%9C%92/data=!4m7!3m6!1s0x601d0e7cd23868eb:0xdc268ccbe7f43ac3!8m2!3d36.2331594!4d137.9586452!16s%2Fg%2F1tks6d22!19sChIJ62g40nwOHWARwzr058uMJtw?authuser=0&hl=ja&rclk=1",
    "category": "幼稚園"
  },
  {
    "name": "やよい認定こども園",
    "address": "\n〒390-0846 長野県松本市南原２丁目１１−５",
    "latitude": 36.2077366,
    "longitude": 137.9448611,
    "link": "https://www.google.com/maps/place/%E3%82%84%E3%82%88%E3%81%84%E8%AA%8D%E5%AE%9A%E3%81%93%E3%81%A9%E3%82%82%E5%9C%92/data=!4m7!3m6!1s0x601d0e48ee7c5b6b:0x20b9718ae1cb4567!8m2!3d36.2077366!4d137.9448611!16s%2Fg%2F1tdbqysx!19sChIJa1t87kgOHWARZ0XL4YpxuSA?authuser=0&hl=ja&rclk=1",
    "category": "幼稚園"
  },
  {
    "name": "聖ヨゼフ幼稚園",
    "address": "\n〒399-0426 長野県上伊那郡辰野町 大字伊那富宮木東町2792−1",
    "latitude": 35.978582,
    "longitude": 137.990042,
    "link": "https://www.google.com/maps/place/%E8%81%96%E3%83%A8%E3%82%BC%E3%83%95%E5%B9%BC%E7%A8%9A%E5%9C%92/data=!4m7!3m6!1s0x601cfc1068883823:0xb723636b0a1cc5a4!8m2!3d35.978582!4d137.990042!16s%2Fg%2F1tdrxc_s!19sChIJIziIaBD8HGARpMUcCmtjI7c?authuser=0&hl=ja&rclk=1",
    "category": "幼稚園"
  },
  {
    "name": "認定こども園にしおか",
    "address": "\n〒386-0151 長野県上田市芳田１４１１−１",
    "latitude": 36.3883791,
    "longitude": 138.2969752,
    "link": "https://www.google.com/maps/place/%E8%AA%8D%E5%AE%9A%E3%81%93%E3%81%A9%E3%82%82%E5%9C%92%E3%81%AB%E3%81%97%E3%81%8A%E3%81%8B/data=!4m7!3m6!1s0x601dbc7508d3b45b:0xd3d15f4887d46334!8m2!3d36.3883791!4d138.2969752!16s%2Fg%2F1tf5q9gh!19sChIJW7TTCHW8HWARNGPUh0hf0dM?authuser=0&hl=ja&rclk=1",
    "category": "幼稚園"
  },
  {
    "name": "松本幼稚園",
    "address": "\n〒390-0861 長野県松本市蟻ケ崎２丁目４−５０",
    "latitude": 36.2431039,
    "longitude": 137.9671388,
    "link": "https://www.google.com/maps/place/%E6%9D%BE%E6%9C%AC%E5%B9%BC%E7%A8%9A%E5%9C%92/data=!4m7!3m6!1s0x601d0e83cdd27ec1:0x4aab087e809e8d3c!8m2!3d36.2431039!4d137.9671388!16s%2Fg%2F1tks6d24!19sChIJwX7SzYMOHWARPI2egH4Iq0o?authuser=0&hl=ja&rclk=1",
    "category": "幼稚園"
  },
  {
    "name": "中野マリア幼稚園",
    "address": "\n〒383-0022 長野県中野市中央２丁目６−４",
    "latitude": 36.7441428,
    "longitude": 138.3740215,
    "link": "https://www.google.com/maps/place/%E4%B8%AD%E9%87%8E%E3%83%9E%E3%83%AA%E3%82%A2%E5%B9%BC%E7%A8%9A%E5%9C%92/data=!4m7!3m6!1s0x601d8ae185b6db1f:0x1c3e54ae104ee320!8m2!3d36.7441428!4d138.3740215!16s%2Fg%2F1v29c2qs!19sChIJH9u2heGKHWARIONOEK5UPhw?authuser=0&hl=ja&rclk=1",
    "category": "幼稚園"
  },
  {
    "name": "西望幼稚園",
    "address": "\n〒386-0404 長野県上田市上丸子３０３",
    "latitude": 36.3298824,
    "longitude": 138.2704767,
    "link": "https://www.google.com/maps/place/%E8%A5%BF%E6%9C%9B%E5%B9%BC%E7%A8%9A%E5%9C%92/data=!4m7!3m6!1s0x601dbaf012b245d9:0x681cefcdce48da71!8m2!3d36.3298824!4d138.2704767!16s%2Fg%2F1tgzbfl9!19sChIJ2UWyEvC6HWARcdpIzs3vHGg?authuser=0&hl=ja&rclk=1",
    "category": "幼稚園"
  },
  {
    "name": "朝陽学園 保育園",
    "address": "\n〒381-0016 長野県長野市南堀１２５−１ 認定こども園朝陽学園",
    "latitude": 36.6631067,
    "longitude": 138.2436282,
    "link": "https://www.google.com/maps/place/%E6%9C%9D%E9%99%BD%E5%AD%A6%E5%9C%92+%E4%BF%9D%E8%82%B2%E5%9C%92/data=!4m7!3m6!1s0x601d88a6bef525c3:0xd3149b8c457c891e!8m2!3d36.6631067!4d138.2436282!16s%2Fg%2F1w0p5q66!19sChIJwyX1vqaIHWARHol8RYybFNM?authuser=0&hl=ja&rclk=1",
    "category": "幼稚園"
  },
  {
    "name": "信学会安茂里幼稚園",
    "address": "\n〒380-0957 長野県長野市安茂里大門１１８５−１",
    "latitude": 36.6382946,
    "longitude": 138.169798,
    "link": "https://www.google.com/maps/place/%E4%BF%A1%E5%AD%A6%E4%BC%9A%E5%AE%89%E8%8C%82%E9%87%8C%E5%B9%BC%E7%A8%9A%E5%9C%92/data=!4m7!3m6!1s0x601d86c87513f937:0x5179307164a13dcb!8m2!3d36.6382946!4d138.169798!16s%2Fg%2F1thgbjnv!19sChIJN_kTdciGHWARyz2hZHEweVE?authuser=0&hl=ja&rclk=1",
    "category": "幼稚園"
  },
  {
    "name": "上田市 ちぐさ幼稚園",
    "address": "\n〒386-0401 長野県上田市塩川２６２０",
    "latitude": 36.363031,
    "longitude": 138.300814,
    "link": "https://www.google.com/maps/place/%E4%B8%8A%E7%94%B0%E5%B8%82+%E3%81%A1%E3%81%90%E3%81%95%E5%B9%BC%E7%A8%9A%E5%9C%92/data=!4m7!3m6!1s0x601dbbc7a4ae9339:0xe846d0daf5622e9a!8m2!3d36.363031!4d138.300814!16s%2Fg%2F1thcsf59!19sChIJOZOupMe7HWARmi5i9drQRug?authuser=0&hl=ja&rclk=1",
    "category": "幼稚園"
  },
  {
    "name": "認定こども園大地",
    "address": "\n〒389-1204 長野県上水内郡飯綱町倉井３７９",
    "latitude": 36.7665362,
    "longitude": 138.2645632,
    "link": "https://www.google.com/maps/place/%E8%AA%8D%E5%AE%9A%E3%81%93%E3%81%A9%E3%82%82%E5%9C%92%E5%A4%A7%E5%9C%B0/data=!4m7!3m6!1s0x5ff627cb12f5ce0b:0x7376524aebeee5f4!8m2!3d36.7665362!4d138.2645632!16s%2Fg%2F11h_bhbz5q!19sChIJC871Essn9l8R9OXu60pSdnM?authuser=0&hl=ja&rclk=1",
    "category": "こども園"
  },
  {
    "name": "小市こども園",
    "address": "\n〒380-0961 長野県長野市安茂里小市３丁目８−１９",
    "latitude": 36.624076,
    "longitude": 138.14144,
    "link": "https://www.google.com/maps/place/%E5%B0%8F%E5%B8%82%E3%81%93%E3%81%A9%E3%82%82%E5%9C%92/data=!4m7!3m6!1s0x601d81406bfc4b6f:0xd2f82c9764614af1!8m2!3d36.624076!4d138.14144!16s%2Fg%2F1tcvj51b!19sChIJb0v8a0CBHWAR8UphZJcs-NI?authuser=0&hl=ja&rclk=1",
    "category": "こども園"
  },
  {
    "name": "認定こども園ひかり園",
    "address": "\n〒381-0052 長野県長野市檀田２丁目８−２２ ひかり幼稚園",
    "latitude": 36.679632,
    "longitude": 138.209019,
    "link": "https://www.google.com/maps/place/%E8%AA%8D%E5%AE%9A%E3%81%93%E3%81%A9%E3%82%82%E5%9C%92%E3%81%B2%E3%81%8B%E3%82%8A%E5%9C%92/data=!4m7!3m6!1s0x601d87afe8ec1075:0x158d9771f6e7fa57!8m2!3d36.679632!4d138.209019!16s%2Fg%2F1tdwkldq!19sChIJdRDs6K-HHWARV_rn9nGXjRU?authuser=0&hl=ja&rclk=1",
    "category": "こども園"
  },
  {
    "name": "よこうち認定こども園",
    "address": "\n〒391-0001 長野県茅野市ちの２５７６−１",
    "latitude": 35.9973758,
    "longitude": 138.1457859,
    "link": "https://www.google.com/maps/place/%E3%82%88%E3%81%93%E3%81%86%E3%81%A1%E8%AA%8D%E5%AE%9A%E3%81%93%E3%81%A9%E3%82%82%E5%9C%92/data=!4m7!3m6!1s0x601c57273c1056cb:0x9bb7c477844219e6!8m2!3d35.9973758!4d138.1457859!16s%2Fg%2F11btwtgcgb!19sChIJy1YQPCdXHGAR5hlChHfEt5s?authuser=0&hl=ja&rclk=1",
    "category": "こども園"
  },
  {
    "name": "認定こども園ふたご",
    "address": "\n〒399-0033 長野県松本市笹賀４９９２−１",
    "latitude": 36.1933628,
    "longitude": 137.9395105,
    "link": "https://www.google.com/maps/place/%E8%AA%8D%E5%AE%9A%E3%81%93%E3%81%A9%E3%82%82%E5%9C%92%E3%81%B5%E3%81%9F%E3%81%94/data=!4m7!3m6!1s0x601d0fca2a6fbdd7:0x6d5d97f624efd0c8!8m2!3d36.1933628!4d137.9395105!16s%2Fg%2F1tcwln4v!19sChIJ171vKsoPHWARyNDvJPaXXW0?authuser=0&hl=ja&rclk=1",
    "category": "こども園"
  },
  {
    "name": "有明の森認定こども園",
    "address": "\n〒399-8301 長野県安曇野市穂高有明２１０５−２７４",
    "latitude": 36.3693353,
    "longitude": 137.8480741,
    "link": "https://www.google.com/maps/place/%E6%9C%89%E6%98%8E%E3%81%AE%E6%A3%AE%E8%AA%8D%E5%AE%9A%E3%81%93%E3%81%A9%E3%82%82%E5%9C%92/data=!4m7!3m6!1s0x601d6ed6af236531:0x322dad28bf3a1ef4!8m2!3d36.3693353!4d137.8480741!16s%2Fg%2F1tfpvbfv!19sChIJMWUjr9ZuHWAR9B46vyitLTI?authuser=0&hl=ja&rclk=1",
    "category": "こども園"
  },
  {
    "name": "認定こども園 りんどう幼稚園",
    "address": "\n〒399-8301 長野県安曇野市穂高有明２１０５−２７４",
    "latitude": 36.524284,
    "longitude": 137.847053,
    "link": "https://www.google.com/maps/place/%E8%AA%8D%E5%AE%9A%E3%81%93%E3%81%A9%E3%82%82%E5%9C%92+%E3%82%8A%E3%82%93%E3%81%A9%E3%81%86%E5%B9%BC%E7%A8%9A%E5%9C%92/data=!4m7!3m6!1s0x601d6228a5428eff:0x8e249e5905f452fe!8m2!3d36.524284!4d137.847053!16s%2Fg%2F1wf21ylk!19sChIJ_45CpShiHWAR_lL0BVmeJI4?authuser=0&hl=ja&rclk=1",
    "category": "こども園"
  },
  {
    "name": "穂高認定こども園",
    "address": "\n〒399-8303 長野県安曇野市穂高９１７５",
    "latitude": 36.3392925,
    "longitude": 137.8727729,
    "link": "https://www.google.com/maps/place/%E7%A9%82%E9%AB%98%E8%AA%8D%E5%AE%9A%E3%81%93%E3%81%A9%E3%82%82%E5%9C%92/data=!4m7!3m6!1s0x601d6c300212c551:0x7aaf8c490dcba8c6!8m2!3d36.3392925!4d137.8727729!16s%2Fg%2F1td9w5w9!19sChIJUcUSAjBsHWARxqjLDUmMr3o?authuser=0&hl=ja&rclk=1",
    "category": "こども園"
  },
  {
    "name": "フレンドこども園",
    "address": "\n〒381-2226 長野県長野市川中島町今井１３４４−４",
    "latitude": 36.6019855,
    "longitude": 138.1517052,
    "link": "https://www.google.com/maps/place/%E3%83%95%E3%83%AC%E3%83%B3%E3%83%89%E3%81%93%E3%81%A9%E3%82%82%E5%9C%92/data=!4m7!3m6!1s0x601d83f0703bd24d:0xeacc5c4d6ea9b341!8m2!3d36.6019855!4d138.1517052!16s%2Fg%2F1tf7xt0r!19sChIJTdI7cPCDHWARQbOpbk1czOo?authuser=0&hl=ja&rclk=1",
    "category": "こども園"
  },
  {
    "name": "皐月かがやきこども園",
    "address": "\n〒381-0085 長野県長野市上野２丁目１２０−２",
    "latitude": 36.6864485,
    "longitude": 138.2375252,
    "link": "https://www.google.com/maps/place/%E7%9A%90%E6%9C%88%E3%81%8B%E3%81%8C%E3%82%84%E3%81%8D%E3%81%93%E3%81%A9%E3%82%82%E5%9C%92/data=!4m7!3m6!1s0x601d87e4d4d68697:0x96fa1bc989e733f!8m2!3d36.6864485!4d138.2375252!16s%2Fg%2F11ghnc86rq!19sChIJl4bW1OSHHWARP3OemLyhbwk?authuser=0&hl=ja&rclk=1",
    "category": "こども園"
  },
  {
    "name": "安曇野市立堀金認定こども園",
    "address": "\n〒399-8211 長野県安曇野市堀金烏川２２８０",
    "latitude": 36.2977,
    "longitude": 137.867826,
    "link": "https://www.google.com/maps/place/%E5%AE%89%E6%9B%87%E9%87%8E%E5%B8%82%E7%AB%8B%E5%A0%80%E9%87%91%E8%AA%8D%E5%AE%9A%E3%81%93%E3%81%A9%E3%82%82%E5%9C%92/data=!4m7!3m6!1s0x601d6ceea4142bff:0x60d3c385a030be8a!8m2!3d36.2977!4d137.867826!16s%2Fg%2F1tf6xfck!19sChIJ_ysUpO5sHWARir4woIXD02A?authuser=0&hl=ja&rclk=1",
    "category": "こども園"
  },
  {
    "name": "上川手認定こども園",
    "address": "\n〒399-8211 長野県安曇野市堀金烏川２２８０",
    "latitude": 36.3083598,
    "longitude": 137.9395345,
    "link": "https://www.google.com/maps/place/%E4%B8%8A%E5%B7%9D%E6%89%8B%E8%AA%8D%E5%AE%9A%E3%81%93%E3%81%A9%E3%82%82%E5%9C%92/data=!4m7!3m6!1s0x601d72b5b1bcd4ab:0xf2d8d4d529447ff6!8m2!3d36.3083598!4d137.9395345!16s%2Fg%2F1tdg38zx!19sChIJq9S8sbVyHWAR9n9EKdXU2PI?authuser=0&hl=ja&rclk=1",
    "category": "こども園"
  },
  {
    "name": "認定こども園若穂幼稚園",
    "address": "\n〒381-0101 長野県長野市若穂綿内８６０２−１",
    "latitude": 36.6239714,
    "longitude": 138.2587307,
    "link": "https://www.google.com/maps/place/%E8%AA%8D%E5%AE%9A%E3%81%93%E3%81%A9%E3%82%82%E5%9C%92%E8%8B%A5%E7%A9%82%E5%B9%BC%E7%A8%9A%E5%9C%92/data=!4m7!3m6!1s0x601d8f74c485c6eb:0x105f0dc361e603d8!8m2!3d36.6239714!4d138.2587307!16s%2Fg%2F1tgfdfxs!19sChIJ68aFxHSPHWAR2APmYcMNXxA?authuser=0&hl=ja&rclk=1",
    "category": "こども園"
  },
  {
    "name": "幼保連携型ささべ認定こども園 教育課",
    "address": "\n〒390-0847 長野県松本市笹部３丁目１３−２５",
    "latitude": 36.2188314,
    "longitude": 137.9475944,
    "link": "https://www.google.com/maps/place/%E5%B9%BC%E4%BF%9D%E9%80%A3%E6%90%BA%E5%9E%8B%E3%81%95%E3%81%95%E3%81%B9%E8%AA%8D%E5%AE%9A%E3%81%93%E3%81%A9%E3%82%82%E5%9C%92+%E6%95%99%E8%82%B2%E8%AA%B2/data=!4m7!3m6!1s0x601d0e420c3101cd:0xc272b454c54dd8f6!8m2!3d36.2188314!4d137.9475944!16s%2Fg%2F1tfbyjtv!19sChIJzQExDEIOHWAR9thNxVS0csI?authuser=0&hl=ja&rclk=1",
    "category": "こども園"
  },
  {
    "name": "朝陽学園 保育園",
    "address": "\n〒381-0016 長野県長野市南堀１２５−１ 認定こども園朝陽学園",
    "latitude": 36.6631067,
    "longitude": 138.2436282,
    "link": "https://www.google.com/maps/place/%E6%9C%9D%E9%99%BD%E5%AD%A6%E5%9C%92+%E4%BF%9D%E8%82%B2%E5%9C%92/data=!4m7!3m6!1s0x601d88a6bef525c3:0xd3149b8c457c891e!8m2!3d36.6631067!4d138.2436282!16s%2Fg%2F1w0p5q66!19sChIJwyX1vqaIHWARHol8RYybFNM?authuser=0&hl=ja&rclk=1",
    "category": "こども園"
  },
  {
    "name": "認定なぎさこども園",
    "address": "\n〒390-0841 長野県松本市渚１丁目１−９",
    "latitude": 36.2331594,
    "longitude": 137.9586452,
    "link": "https://www.google.com/maps/place/%E8%AA%8D%E5%AE%9A%E3%81%AA%E3%81%8E%E3%81%95%E3%81%93%E3%81%A9%E3%82%82%E5%9C%92/data=!4m7!3m6!1s0x601d0e7cd23868eb:0xdc268ccbe7f43ac3!8m2!3d36.2331594!4d137.9586452!16s%2Fg%2F1tks6d22!19sChIJ62g40nwOHWARwzr058uMJtw?authuser=0&hl=ja&rclk=1",
    "category": "こども園"
  },
  {
    "name": "町立木曽こども園",
    "address": "\n〒397-0002 長野県木曽郡木曽町新開杭の原４２３６−５",
    "latitude": 35.8586245,
    "longitude": 137.7031782,
    "link": "https://www.google.com/maps/place/%E7%94%BA%E7%AB%8B%E6%9C%A8%E6%9B%BD%E3%81%93%E3%81%A9%E3%82%82%E5%9C%92/data=!4m7!3m6!1s0x601cdebe0b503879:0x2f453c3df1f2dd76!8m2!3d35.8586245!4d137.7031782!16s%2Fg%2F1tf7s69_!19sChIJeThQC77eHGARdt3y8T08RS8?authuser=0&hl=ja&rclk=1",
    "category": "こども園"
  },
  {
    "name": "安曇野シュタイナーこども園おひさま",
    "address": "\n〒399-8303 長野県安曇野市穂高有明９０６８−１",
    "latitude": 36.3500377,
    "longitude": 137.8450645,
    "link": "https://www.google.com/maps/place/%E5%AE%89%E6%9B%87%E9%87%8E%E3%82%B7%E3%83%A5%E3%82%BF%E3%82%A4%E3%83%8A%E3%83%BC%E3%81%93%E3%81%A9%E3%82%82%E5%9C%92%E3%81%8A%E3%81%B2%E3%81%95%E3%81%BE/data=!4m7!3m6!1s0x601d657be564e9c5:0xefc35c62f68e4916!8m2!3d36.3500377!4d137.8450645!16s%2Fg%2F11hctg3xq_!19sChIJxelk5XtlHWARFkmO9mJcw-8?authuser=0&hl=ja&rclk=1",
    "category": "こども園"
  },
  {
    "name": "認定こども園にしおか",
    "address": "\n〒386-0151 長野県上田市芳田１４１１−１",
    "latitude": 36.3883791,
    "longitude": 138.2969752,
    "link": "https://www.google.com/maps/place/%E8%AA%8D%E5%AE%9A%E3%81%93%E3%81%A9%E3%82%82%E5%9C%92%E3%81%AB%E3%81%97%E3%81%8A%E3%81%8B/data=!4m7!3m6!1s0x601dbc7508d3b45b:0xd3d15f4887d46334!8m2!3d36.3883791!4d138.2969752!16s%2Fg%2F1tf5q9gh!19sChIJW7TTCHW8HWARNGPUh0hf0dM?authuser=0&hl=ja&rclk=1",
    "category": "こども園"
  },
  {
    "name": "認定こども園深志",
    "address": "\n〒390-0815 長野県松本市深志２丁目４−２７",
    "latitude": 36.2293475,
    "longitude": 137.9703153,
    "link": "https://www.google.com/maps/place/%E8%AA%8D%E5%AE%9A%E3%81%93%E3%81%A9%E3%82%82%E5%9C%92%E6%B7%B1%E5%BF%97/data=!4m7!3m6!1s0x601d0e8d495f9d91:0x8b1eb09fde1b7f1c!8m2!3d36.2293475!4d137.9703153!16s%2Fg%2F1tfbnddx!19sChIJkZ1fSY0OHWARHH8b3p-wHos?authuser=0&hl=ja&rclk=1",
    "category": "こども園"
  },
  {
    "name": "豊科認定こども園",
    "address": "\n〒399-8205 長野県安曇野市豊科４５５３−１５",
    "latitude": 36.2955179,
    "longitude": 137.9039546,
    "link": "https://www.google.com/maps/place/%E8%B1%8A%E7%A7%91%E8%AA%8D%E5%AE%9A%E3%81%93%E3%81%A9%E3%82%82%E5%9C%92/data=!4m7!3m6!1s0x601d6d4999cc82f1:0x203f5fb87b902994!8m2!3d36.2955179!4d137.9039546!16s%2Fg%2F1tmxwnzh!19sChIJ8YLMmUltHWARlCmQe7hfPyA?authuser=0&hl=ja&rclk=1",
    "category": "こども園"
  },
  {
    "name": "こどもの森幼稚園",
    "address": "\n〒380-0888 長野県長野市上ケ屋２４７１−２５５４",
    "latitude": 36.710041,
    "longitude": 138.143784,
    "link": "https://www.google.com/maps/place/%E3%81%93%E3%81%A9%E3%82%82%E3%81%AE%E6%A3%AE%E5%B9%BC%E7%A8%9A%E5%9C%92/data=!4m7!3m6!1s0x5ff629994496abbd:0x4edffb7f3788d41!8m2!3d36.710041!4d138.143784!16s%2Fg%2F1tggtcls!19sChIJvauWRJkp9l8RQY1487f_7QQ?authuser=0&hl=ja&rclk=1",
    "category": "こども園"
  },
  {
    "name": "認定こども園 信濃ひまわり幼稚園",
    "address": "\n〒381-0022 長野県長野市大豆島２８６９",
    "latitude": 36.6334872,
    "longitude": 138.2389559,
    "link": "https://www.google.com/maps/place/%E8%AA%8D%E5%AE%9A%E3%81%93%E3%81%A9%E3%82%82%E5%9C%92+%E4%BF%A1%E6%BF%83%E3%81%B2%E3%81%BE%E3%82%8F%E3%82%8A%E5%B9%BC%E7%A8%9A%E5%9C%92/data=!4m7!3m6!1s0x601d85f584f071af:0x3b554eae2c5a6821!8m2!3d36.6334872!4d138.2389559!16s%2Fg%2F1tjv3ljn!19sChIJr3HwhPWFHWARIWhaLK5OVTs?authuser=0&hl=ja&rclk=1",
    "category": "こども園"
  },
  {
    "name": "信学会栗田こども園",
    "address": "\n〒381-0022 長野県長野市大豆島２８６９",
    "latitude": 36.6430038,
    "longitude": 138.1917701,
    "link": "https://www.google.com/maps/place/%E4%BF%A1%E5%AD%A6%E4%BC%9A%E6%A0%97%E7%94%B0%E3%81%93%E3%81%A9%E3%82%82%E5%9C%92/data=!4m7!3m6!1s0x601d868dc98df793:0x3cf0ba958418c507!8m2!3d36.6430038!4d138.1917701!16s%2Fg%2F1vg_cyqf!19sChIJk_eNyY2GHWARB8UYhJW68Dw?authuser=0&hl=ja&rclk=1",
    "category": "こども園"
  },
  {
    "name": "稲荷山くるみこども園",
    "address": "\n〒387-0021 長野県千曲市稲荷山治田町１９８−１",
    "latitude": 36.5317919,
    "longitude": 138.1025846,
    "link": "https://www.google.com/maps/place/%E7%A8%B2%E8%8D%B7%E5%B1%B1%E3%81%8F%E3%82%8B%E3%81%BF%E3%81%93%E3%81%A9%E3%82%82%E5%9C%92/data=!4m7!3m6!1s0x601d82c729b17c2d:0xdaa6acea287a217d!8m2!3d36.5317919!4d138.1025846!16s%2Fg%2F1tfq99c7!19sChIJLXyxKceCHWARfSF6KOqspto?authuser=0&hl=ja&rclk=1",
    "category": "こども園"
  },